5739,N,03025.1798793,E,000.00,000.00,220418,,,A*66
$GPVTG,000.00,T,,M,000.00,N,000.00,K,A*3D
$GPZDA,175900.000,22,04,2018,00,00*53
$GPGST,175900.000,0.640,0.515,0.276,19.6,0.494,0.312,0.814*57
$PSTI,030,175900.000,A,5029.3155739,N,03025.1798793,E,190.747,-0.00,-0.01,0.00,220418,A,0.0,0.0*11
$PSTI,032,175900.000,220418,V,,,,,,,,,,,*4C
$GPGGA,175900.200,5029.3156311,N,03025.1799139,E,1,13,0.9,190.596,M,26.200,M,,0000*5E
$GPRMC,175900.200,A,5029.3156311,N,03025.1799139,E,000.00,000.00,220418,,,A*6E
$GPVTG,000.00,T,,M,000.00,N,000.00,K,A*3D
$PSTI,030,175900.200,A,5029.3156311,N,03025.1799139,E,190.596,0.00,-0.01,0.00,220418,A,0.0,0.0*3A
$GPGGA,175900.400,5029.3156992,N,03025.1799536,E,1,13,0.9,190.433,M,26.200,M,,0000*5C
$GPRMC,175900.400,A,5029.3156992,N,03025.1799536,E,000.00,000.00,220418,,,A*62
$GPVTG,000.00,T,,M,000.00,N,000.00,K,A*3D
$PSTI,030,175900.400,A,5029.3156992,N,03025.1799536,E,190.433,-0.01,-0.00,0.00,220418,A,0.0,0.0*15
$GPGGA,175900.600,5029.3154982,N,03025.1798756,E,1,14,0.8,189.970,M,26.200,M,,0000*5C
$GPRMC,175900.600,A,5029.3154982,N,03025.1798756,E,000.00,000.00,220418,,,A*66
$GPVTG,000.00,T,,M,000.00,N,000.00,K,A*3D
$PSTI,030,175900.600,A,5029.3154982,N,03025.1798756,E,189.970,0.00,0.01,0.01,220418,A,0.0,0.0*12
$GPGGA,175900.800,5029.3153488,N,03025.1798612,E,1,14,0.8,189.535,M,26.200,M,,0000*5E
$GPRMC,175900.800,A,5029.3153488,N,03025.1798612,E,000.00,000.00,220418,,,A*69
$GPVTG,000.00,T,,M,000.00,N,000.00,K,A*3D
$PSTI,030,175900.800,A,5029.3153488,N,03025.1798612,E,189.535,0.00,-0.01,0.01,220418,A,0.0,0.0*3D
$GPGGA,175901.000,5029.3151322,N,03025.1798089,E,1,14,0.8,189.035,M,26.200,M,,0000*53
$GPGLL,5029.3151322,N,03025.1798089,E,175901.000,A,A*5B
$GPGSA,A,3,21,20,16,29,15,26,27,10,,,,,1.5,0.8,1.2*34
$GLGSA,A,3,70,86,77,76,85,71,,,,,,,1.5,0.8,1.2*22
$GPRMC,175901.000,A,5029.3151322,N,03025.1798089,E,000.00,000.00,220418,,,A*61
$GPVTG,000.00,T,,M,000.00,N,000.00,K,A*3D
$GPZDA,175901.000,22,04,2018,00,00*52
$GPGST,175901.000,0.662,0.448,0.286,19.6,0.432,0.308,0.816*55
$PSTI,030,175901.000,A,5029.3151322,N,03025.1798089,E,189.035,-0.01,0.00,0.00,220418,A,0.0,0.0*31
$PSTI,032,175901.000,220418,V,,,,,,,,,,,*4D
$GPGGA,175901.200,5029.3149699,N,03025.1798130,E,1,14,0.8,188.597,M,26.200,M,,0000*52
$GPRMC,175901.200,A,5029.3149699,N,03025.1798130,E,000.00,000.00,220418,,,A*6C
$GPVTG,000.00,T,,M,000.00,N,000.00,K,A*3D
$PSTI,030,175901.200,A,5029.3149699,N,03025.1798130,E,188.597,0.01,0.01,0.00,220418,A,0.0,0.0*1C
$GPGGA,175901.400,5029.3148345,N,03025.1798387,E,1,14,0.8,188.188,M,26.200,M,,0000*55
$GPRMC,175901.400,A,5029.3148345,N,03025.1798387,E,000.00,000.00,220418,,,A*61
$GPVTG,000.00,T,,M,000.00,N,000.00,K,A*3D
$PSTI,030,175901.400,A,5029.3148345,N,03025.1798387,E,188.188,0.00,-0.01,-0.00,220418,A,0.0,0.0*1A
$GPGGA,175901.600,5029.3147459,N,03025.1798564,E,1,14,0.8,187.837,M,26.200,M,,0000*5B
$GPRMC,175901.600,A,5029.3147459,N,03025.1798564,E,000.00,000.00,220418,,,A*6D
$GPVTG,000.00,T,,M,000.00,N,000.00,K,A*3D
$PSTI,030,175901.600,A,5029.3147459,N,03025.1798564,E,187.837,-0.02,-0.00,0.00,220418,A,0.0,0.0*17
$GPGGA,175901.800,5029.3146729,N,03025.1798893,E,1,14,0.8,187.535,M,26.200,M,,0000*5A
$GPRMC,175901.800,A,5029.3146729,N,03025.1798893,E,000.00,000.00,220418,,,A*63
$GPVTG,000.00,T,,M,000.00,N,000.00,K,A*3D
$PSTI,030,175901.800,A,5029.3146729,N,03025.1798893,E,187.535,0.01,0.01,-0.01,220418,A,0.0,0.0*38
$GPGGA,175902.000,5029.3146249,N,03025.1799327,E,1,14,0.8,187.290,M,26.200,M,,0000*5F
$GPGLL,5029.3146249,N,03025.1799327,E,175902.000,A,A*54
$GPGSA,A,3,21,20,16,29,15,26,27,10,,,,,1.5,0.8,1.2*34
$GLGSA,A,3,70,86,77,76,85,71,,,,,,,1.5,0.8,1.2*22
$GPGSV,4,1,13,21,84,058,48,20,61,116,48,16,54,280,49,26,51,227,49*74
$GPGSV,4,2,13,04,46,202,46,27,28,297,44,29,27,112,46,10,20,189,37*73
$GPGSV,4,3,13,15,15,094,43,193,12,050,36,13,11,061,43,07,03,348,47*44
$GPGSV,4,4,13,05,02,034,*4B
$GLGSV,3,1,10,86,56,309,51,85,52,068,49,70,46,100,38,76,32,256,42*64
$GLGSV,3,2,10,77,25,325,42,69,24,031,,71,20,154,44,75,09,214,42*65
$GLGSV,3,3,10,87,04,281,41,84,04,090,33*60
$GPRMC,175902.000,A,5029.3146249,N,03025.1799327,E,000.00,000.00,220418,,,A*6E
$GPVTG,000.00,T,,M,000.00,N,000.00,K,A*3D
$GPZDA,175902.000,22,04,2018,00,00*51
$GPGST,175902.000,0.683,0.462,0.295,19.6,0.446,0.318,0.842*50
$PSTI,030,175902.000,A,5029.3146249,N,03025.1799327,E,187.290,-0.01,-0.01,0.01,220418,A,0.0,0.0*10
$PSTI,032,175902.000,220418,V,,,,,,,,,,,*4E
$GPGGA,175902.200,5029.3145812,N,03025.1799807,E,1,14,0.8,187.027,M,26.200,M,,0000*5D
$GPRMC,175902.200,A,5029.3145812,N,03025.1799807,E,000.00,000.00,220418,,,A*62
$GPVTG,000.00,T,,M,000.00,N,000.00,K,A*3D
$PSTI,030,175902.200,A,5029.3145812,N,03025.1799807,E,187.027,-0.00,0.01,0.00,220418,A,0.0,0.0*3F
$GPGGA,175902.400,5029.3145393,N,03025.1800196,E,1,14,0.8,186.742,M,26.200,M,,0000*52
$GPRMC,175902.400,A,5029.3145393,N,03025.1800196,E,000.00,000.00,220418,,,A*68
$GPVTG,000.00,T,,M,000.00,N,000.00,K,A*3D
$PSTI,030,175902.400,A,5029.3145393,N,03025.1800196,E,186.742,-0.00,-0.00,0.01,220418,A,0.0,0.0*1D
$GPGGA,175902.600,5029.3145135,N,03025.1800024,E,1,14,0.8,186.520,M,26.200,M,,0000*50
$GPRMC,175902.600,A,5029.3145135,N,03025.1800024,E,000.00,000.00,220418,,,A*6C
$GPVTG,000.00,T,,M,000.00,N,000.00,K,A*3D
$PSTI,030,175902.600,A,5029.3145135,N,03025.1800024,E,186.520,-0.00,-0.00,0.01,220418,A,0.0,0.0*1F
$GPGGA,175902.800,5029.3144822,N,03025.1799622,E,1,14,0.8,186.296,M,26.200,M,,0000*55
$GPRMC,175902.800,A,5029.3144822,N,03025.1799622,E,000.00,000.00,220418,,,A*63
$GPVTG,000.00,T,,M,000.00,N,000.00,K,A*3D
$PSTI,030,175902.800,A,5029.3144822,N,03025.1799622,E,186.296,0.01,0.01,0.01,220418,A,0.0,0.0*1A
$GPGGA,175903.000,5029.3144937,N,03025.1799657,E,1,14,0.8,186.136,M,26.200,M,,0000*52
$GPGLL,5029.3144937,N,03025.1799657,E,175903.000,A,A*57
$GPGSA,A,3,21,20,16,29,15,26,27,10,,,,,1.5,0.8,1.2*34
$GLGSA,A,3,70,86,77,76,85,71,,,,,,,1.5,0.8,1.2*22
$GPRMC,175903.000,A,5029.3144937,N,03025.1799657,E,000.00,000.00,220418,,,A*6D
$GPVTG,000.00,T,,M,000.00,N,000.00,K,A*3D
$GPZDA,175903.000,22,04,2018,00,00*50
$GPGST,175903.000,0.688,0.465,0.297,19.6,0.450,0.321,0.849*59
$PSTI,030,175903.000,A,5029.3144937,N,03025.1799657,E,186.136,-0.01,0.00,0.01,220418,A,0.0,0.0*31
$PSTI,032,175903.000,220418,V,,,,,,,,,,,*4F
$GPGGA,175903.200,5029.3144988,N,03025.1799651,E,1,14,0.8,185.991,M,26.200,M,,0000*54
$GPRMC,175903.200,A,5029.3144988,N,03025.1799651,E,000.00,000.00,220418,,,A*6D
$GPVTG,000.00,T,,M,000.00,N,000.00,K,A*3D
$PSTI,030,175903.200,A,5029.3144988,N,03025.1799651,E,185.991,-0.00,-0.00,0.01,220418,A,0.0,0.0*1B
$GPGGA,175903.400,5029.3144953,N,03025.1799365,E,1,14,0.8,185.853,M,26.200,M,,0000*59
$GPRMC,175903.400,A,5029.3144953,N,03025.1799365,E,000.00,000.00,220418,,,A*6F
$GPVTG,000.00,T,,M,000.00,N,000.00,K,A*3D
$PSTI,030,175903.400,A,5029.3144953,N,03025.1799365,E,185.853,-0.01,0.00,0.02,220418,A,0.0,0.0*39
$GPGGA,175903.600,5029.3140955,N,03025.1766812,E,2,14,1.3,188.869,M,26.200,M,0.0,0000*71
$GPRMC,175903.600,A,5029.3140955,N,03025.1766812,E,000.00,000.00,220418,,,D*61
$GPVTG,000.00,T,,M,000.00,N,000.00,K,D*38
$PSTI,030,175903.600,A,5029.3140955,N,03025.1766812,E,188.869,-0.00,0.02,-0.03,220418,D,0.0,0.0*1C
$GPGGA,175903.800,5029.3140868,N,03025.1766985,E,2,14,1.3,188.784,M,26.200,M,0.0,0000*73
$GPRMC,175903.800,A,5029.3140868,N,03025.1766985,E,000.00,000.00,220418,,,D*6F
$GPVTG,000.00,T,,M,000.00,N,000.00,K,D*38
$PSTI,030,175903.800,A,5029.3140868,N,03025.1766985,E,188.784,-0.01,-0.04,0.04,220418,D,0.0,0.0*1E
$GPGGA,175904.000,5029.3140820,N,03025.1767123,E,2,14,1.3,188.687,M,26.200,M,0.0,0000*77
$GPGLL,5029.3140820,N,03025.1767123,E,175904.000,A,D*53
$GPGSA,A,3,21,20,16,29,15,26,27,10,,,,,2.0,1.3,1.5*3F
$GLGSA,A,3,70,86,77,76,85,71,,,,,,,2.0,1.3,1.5*29
$GPRMC,175904.000,A,5029.3140820,N,03025.1767123,E,000.00,000.00,220418,,,D*69
$GPVTG,000.00,T,,M,000.00,N,000.00,K,D*38
$GPZDA,175904.000,22,04,2018,00,00*57
$GPGST,175904.000,0.861,0.942,0.530,14.3,0.922,0.564,1.325*52
$PSTI,030,175904.000,A,5029.3140820,N,03025.1767123,E,188.687,0.01,0.03,-0.04,220418,D,0.0,0.0*30
$PSTI,032,175904.000,220418,V,,,,,,,,,,,*48
$GPGGA,175904.200,5029.3140681,N,03025.1767201,E,2,14,1.3,188.611,M,26.200,M,0.0,0000*7C
$GPRMC,175904.200,A,5029.3140681,N,03025.1767201,E,000.00,000.00,220418,,,D*6D
$GPVTG,000.00,T,,M,000.00,N,000.00,K,D*38
$PSTI,030,175904.200,A,5029.3140681,N,03025.1767201,E,188.611,-0.02,-0.00,0.03,220418,D,0.0,0.0*11
$GPGGA,175904.400,5029.3140503,N,03025.1767294,E,2,14,1.3,188.538,M,26.200,M,0.0,0000*77
$GPRMC,175904.400,A,5029.3140503,N,03025.1767294,E,000.00,000.00,220418,,,D*6E
$GPVTG,000.00,T,,M,000.00,N,000.00,K,D*38
$PSTI,030,175904.400,A,5029.3140503,N,03025.1767294,E,188.538,0.01,-0.02,0.04,220418,D,0.0,0.0*31
$GPGGA,175904.600,5029.3140332,N,03025.1767350,E,2,14,1.3,188.459,M,26.200,M,0.0,0000*7E
$GPRMC,175904.600,A,5029.3140332,N,03025.1767350,E,000.00,000.00,220418,,,D*61
$GPVTG,000.00,T,,M,000.00,N,000.00,K,D*38
$PSTI,030,175904.600,A,5029.3140332,N,03025.1767350,E,188.459,0.01,-0.00,-0.00,220418,D,0.0,0.0*13
$GPGGA,175904.800,5029.3140111,N,03025.1767362,E,2,14,1.3,188.389,M,26.200,M,0.0,0000*78
$GPRMC,175904.800,A,5029.3140111,N,03025.1767362,E,000.00,000.00,220418,,,D*6D
$GPVTG,000.00,T,,M,000.00,N,000.00,K,D*38
$PSTI,030,175904.800,A,5029.3140111,N,03025.1767362,E,188.389,-0.02,-0.03,-0.00,220418,D,0.0,0.0*38
$GPGGA,175905.000,5029.3139875,N,03025.1767347,E,2,14,1.3,188.321,M,26.200,M,1.0,0000*70
$GPGLL,5029.3139875,N,03025.1767347,E,175905.000,A,D*5C
$GPGSA,A,3,21,20,16,29,15,26,27,10,,,,,2.0,1.3,1.5*3F
$GLGSA,A,3,70,86,77,76,85,71,,,,,,,2.0,1.3,1.5*29
$GPGSV,4,1,13,21,84,058,49,20,61,116,48,16,54,280,49,26,51,227,49*75
$GPGSV,4,2,13,04,46,202,46,27,28,297,44,29,27,112,45,10,20,189,36*71
$GPGSV,4,3,13,15,15,094,43,193,12,050,36,13,11,061,43,07,03,348,46*45
$GPGSV,4,4,13,05,02,034,*4B
$GLGSV,3,1,10,86,56,309,51,85,52,068,48,70,46,100,38,76,32,256,41*66
$GLGSV,3,2,10,77,25,325,43,69,24,031,,71,20,154,44,75,09,214,41*67
$GLGSV,3,3,10,87,04,281,41,84,04,090,34*67
$GPRMC,175905.000,A,5029.3139875,N,03025.1767347,E,000.00,000.00,220418,,,D*66
$GPVTG,000.00,T,,M,000.00,N,000.00,K,D*38
$GPZDA,175905.000,22,04,2018,00,00*56
$GPGST,175905.000,1.097,1.200,0.675,14.3,1.175,0.718,1.689*5C
$PSTI,030,175905.000,A,5029.3139875,N,03025.1767347,E,188.321,0.00,0.01,0.01,220418,D,0.0,0.0*1D
$PSTI,032,175905.000,220418,V,,,,,,,,,,,*49
$GPGGA,175905.200,5029.3139651,N,03025.1767322,E,2,14,1.3,188.248,M,26.200,M,1.0,0000*77
$GPRMC,175905.200,A,5029.3139651,N,03025.1767322,E,000.00,000.00,220418,,,D*6F
$GPVTG,000.00,T,,M,000.00,N,000.00,K,D*38
$PSTI,030,175905.200,A,5029.3139651,N,03025.1767322,E,188.248,-0.00,0.02,0.01,220418,D,0.0,0.0*34
$GPGGA,175905.400,5029.3139399,N,03025.1767295,E,2,14,1.3,188.173,M,26.200,M,1.0,0000*76
$GPRMC,175905.400,A,5029.3139399,N,03025.1767295,E,000.00,000.00,220418,,,D*65
$GPVTG,000.00,T,,M,000.00,N,000.00,K,D*38
$PSTI,030,175905.400,A,5029.3139399,N,03025.1767295,E,188.173,-0.01,0.00,-0.01,220418,D,0.0,0.0*1B
$GPGGA,175905.600,5029.3139140,N,03025.1767288,E,2,14,1.3,188.110,M,26.200,M,1.0,0000*7B
$GPRMC,175905.600,A,5029.3139140,N,03025.1767288,E,000.00,000.00,220418,,,D*6D
$GPVTG,000.00,T,,M,000.00,N,000.00,K,D*38
$PSTI,030,175905.600,A,5029.3139140,N,03025.1767288,E,188.110,0.00,-0.01,0.02,220418,D,0.0,0.0*38
$GPGGA,175905.800,5029.3138890,N,03025.1767273,E,2,14,1.3,188.046,M,26.200,M,1.0,0000*76
$GPRMC,175905.800,A,5029.3138890,N,03025.1767273,E,000.00,000.00,220418,,,D*62
$GPVTG,000.00,T,,M,000.00,N,000.00,K,D*38
$PSTI,030,175905.800,A,5029.3138890,N,03025.1767273,E,188.046,0.01,0.02,0.02,220418,D,0.0,0.0*1A
$GPGGA,175906.000,5029.3138565,N,03025.1767203,E,2,14,1.3,187.982,M,26.200,M,2.0,0000*70
$GPGLL,5029.3138565,N,03025.1767203,E,175906.000,A,D*53
$GPGSA,A,3,21,20,16,29,15,26,27,10,,,,,2.0,1.3,1.5*3F
$GLGSA,A,3,70,86,77,76,85,71,,,,,,,2.0,1.3,1.5*29
$GPRMC,175906.000,A,5029.3138565,N,03025.1767203,E,000.00,000.00,220418,,,D*69
$GPVTG,000.00,T,,M,000.00,N,000.00,K,D*38
$GPZDA,175906.000,22,04,2018,00,00*55
$GPGST,175906.000,1.297,1.418,0.798,14.3,1.388,0.848,1.996*5B
$PSTI,030,175906.000,A,5029.3138565,N,03025.1767203,E,187.982,-0.01,-0.03,0.01,220418,D,0.0,0.0*1D
$PSTI,032,175906.000,220418,V,,,,,,,,,,,*4A
$GPGGA,175906.200,5029.3150002,N,03025.1787504,E,5,14,1.3,181.554,M,26.200,M,,0000*5C
$GPRMC,175906.200,A,5029.3150002,N,03025.1787504,E,000.00,000.00,220418,,,F*6D
$GPVTG,000.00,T,,M,000.00,N,000.00,K,F*3A
$PSTI,030,175906.200,A,5029.3150002,N,03025.1787504,E,181.554,-0.00,0.03,0.02,220418,F,1.0,1.0*37
$GPGGA,175906.400,5029.3149993,N,03025.1787505,E,5,14,1.3,181.555,M,26.200,M,,0000*53
$GPRMC,175906.400,A,5029.3149993,N,03025.1787505,E,000.00,000.00,220418,,,F*63
$GPVTG,000.00,T,,M,000.00,N,000.00,K,F*3A
$PSTI,030,175906.400,A,5029.3149993,N,03025.1787505,E,181.555,0.00,-0.02,0.01,220418,F,1.0,1.0*3A
$GPGGA,175906.600,5029.3149978,N,03025.1787498,E,5,14,1.3,181.555,M,26.200,M,,0000*51
$GPRMC,175906.600,A,5029.3149978,N,03025.1787498,E,000.00,000.00,220418,,,F*61
$GPVTG,000.00,T,,M,000.00,N,000.00,K,F*3A
$PSTI,030,175906.600,A,5029.3149978,N,03025.1787498,E,181.555,-0.01,-0.03,-0.01,220418,F,1.0,1.0*38
$GPGGA,175906.800,5029.3149978,N,03025.1787493,E,5,14,1.3,181.556,M,26.200,M,,0000*57
$GPRMC,175906.800,A,5029.3149978,N,03025.1787493,E,000.00,000.00,220418,,,F*64
$GPVTG,000.00,T,,M,000.00,N,000.00,K,F*3A
$PSTI,030,175906.800,A,5029.3149978,N,03025.1787493,E,181.556,-0.01,0.00,0.01,220418,F,1.0,1.0*3D
$GPGGA,175907.000,5029.3149974,N,03025.1787503,E,5,14,1.3,181.556,M,26.200,M,,0000*5A
$GPGLL,5029.3149974,N,03025.1787503,E,175907.000,A,F*53
$GPGSA,A,3,21,20,16,29,15,26,27,10,,,,,2.0,1.3,1.5*3F
$GLGSA,A,3,70,86,77,76,85,71,,,,,,,2.0,1.3,1.5*29
$GPRMC,175907.000,A,5029.3149974,N,03025.1787503,E,000.00,000.00,220418,,,F*69
$GPVTG,000.00,T,,M,000.00,N,000.00,K,F*3A
$GPZDA,175907.000,22,04,2018,00,00*54
$GPGST,175907.000,2.181,2.514,1.443,22.1,2.392,1.638,2.957*5E
$PSTI,030,175907.000,A,5029.3149974,N,03025.1787503,E,181.556,0.01,-0.01,0.00,220418,F,1.0,1.0*30
$PSTI,032,175907.000,220418,A,F,-824.950,4497.648,-15.367,4572.704,349.61,,,,,*3A
$GPGGA,175907.200,5029.3138006,N,03025.1774317,E,5,14,1.3,183.893,M,26.200,M,,0000*5B
$GPRMC,175907.200,A,5029.3138006,N,03025.1774317,E,000.00,000.00,220418,,,F*6E
$GPVTG,000.00,T,,M,000.00,N,000.00,K,F*3A
$PSTI,030,175907.200,A,5029.3138006,N,03025.1774317,E,183.893,-0.00,-0.00,0.00,220418,F,1.0,2.2*1D
$GPGGA,175907.400,5029.3138012,N,03025.1774313,E,5,14,1.3,183.893,M,26.200,M,,0000*5C
$GPRMC,175907.400,A,5029.3138012,N,03025.1774313,E,000.00,000.00,220418,,,F*69
$GPVTG,000.00,T,,M,000.00,N,000.00,K,F*3A
$PSTI,030,175907.400,A,5029.3138012,N,03025.1774313,E,183.893,-0.01,0.01,0.00,220418,F,1.0,2.2*37
$GPGGA,175907.600,5029.3138006,N,03025.1774316,E,5,14,1.3,183.893,M,26.200,M,,0000*5E
$GPRMC,175907.600,A,5029.3138006,N,03025.1774316,E,000.00,000.00,220418,,,F*6B
$GPVTG,000.00,T,,M,000.00,N,000.00,K,F*3A
$PSTI,030,175907.600,A,5029.3138006,N,03025.1774316,E,183.893,0.00,-0.01,0.00,220418,F,1.0,2.2*34
$GPGGA,175907.800,5029.3138002,N,03025.1774303,E,5,14,1.3,183.895,M,26.200,M,,0000*56
$GPRMC,175907.800,A,5029.3138002,N,03025.1774303,E,000.00,000.00,220418,,,F*65
$GPVTG,000.00,T,,M,000.00,N,000.00,K,F*3A
$PSTI,030,175907.800,A,5029.3138002,N,03025.1774303,E,183.895,-0.02,-0.01,0.02,220418,F,1.0,2.2*11
$GPGGA,175908.000,5029.3138001,N,03025.1774308,E,5,14,1.3,183.896,M,26.200,M,,0000*5A
$GPGLL,5029.3138001,N,03025.1774308,E,175908.000,A,F*50
$GPGSA,A,3,21,20,16,29,15,26,27,10,,,,,2.0,1.3,1.5*3F
$GLGSA,A,3,70,86,77,76,85,71,,,,,,,2.0,1.3,1.5*29
$GPGSV,4,1,13,21,84,058,49,20,61,116,48,16,54,280,49,26,51,227,49*75
$GPGSV,4,2,13,04,46,202,46,27,28,297,44,29,27,112,45,10,20,189,36*71
$GPGSV,4,3,13,15,15,094,43,193,12,050,36,13,11,061,43,07,03,348,46*45
$GPGSV,4,4,13,05,02,034,*4B
$GLGSV,3,1,10,86,56,309,51,85,52,068,49,70,46,100,38,76,32,256,41*67
$GLGSV,3,2,10,77,25,325,43,69,24,031,,71,20,154,44,75,09,214,40*66
$GLGSV,3,3,10,87,04,281,42,84,04,090,33*63
$GPRMC,175908.000,A,5029.3138001,N,03025.1774308,E,000.00,000.00,220418,,,F*6A
$GPVTG,000.00,T,,M,000.00,N,000.00,K,F*3A
$GPZDA,175908.000,22,04,2018,00,00*5B
$GPGST,175908.000,1.719,2.426,1.160,27.3,2.220,1.517,2.442*59
$PSTI,030,175908.000,A,5029.3138001,N,03025.1774308,E,183.896,0.01,-0.00,0.01,220418,F,1.0,2.2*31
$PSTI,032,175908.000,220418,A,F,-826.510,4495.429,-13.026,4570.795,349.58,,,,,*38
$GPGGA,175908.200,5029.3143695,N,03025.1779922,E,5,14,1.3,183.922,M,26.200,M,,0000*5E
$GPRMC,175908.200,A,5029.3143695,N,03025.1779922,E,000.00,000.00,220418,,,F*60
$GPVTG,000.00,T,,M,000.00,N,000.00,K,F*3A
$PSTI,030,175908.200,A,5029.3143695,N,03025.1779922,E,183.922,-0.01,0.00,-0.00,220418,F,1.0,2.4*1F
$GPGGA,175908.400,5029.3143688,N,03025.1779917,E,5,14,1.3,183.922,M,26.200,M,,0000*52
$GPRMC,175908.400,A,5029.3143688,N,03025.1779917,E,000.00,000.00,220418,,,F*6C
$GPVTG,000.00,T,,M,000.00,N,000.00,K,F*3A
$PSTI,030,175908.400,A,5029.3143688,N,03025.1779917,E,183.922,-0.01,-0.01,0.00,220418,F,1.0,2.4*12
$GPGGA,175908.600,5029.3143692,N,03025.1779920,E,5,14,1.3,183.922,M,26.200,M,,0000*5F
$GPRMC,175908.600,A,5029.3143692,N,03025.1779920,E,000.00,000.00,220418,,,F*61
$GPVTG,000.00,T,,M,000.00,N,000.00,K,F*3A
$PSTI,030,175908.600,A,5029.3143692,N,03025.1779920,E,183.922,0.00,0.01,-0.00,220418,F,1.0,2.4*33
$GPGGA,175908.800,5029.3143693,N,03025.1779917,E,5,14,1.3,183.923,M,26.200,M,,0000*55
$GPRMC,175908.800,A,5029.3143693,N,03025.1779917,E,000.00,000.00,220418,,,F*6A
$GPVTG,000.00,T,,M,000.00,N,000.00,K,F*3A
$PSTI,030,175908.800,A,5029.3143693,N,03025.1779917,E,183.923,-0.00,0.00,0.01,220418,F,1.0,2.4*39
$GPGGA,175909.000,5029.3143693,N,03025.1779917,E,5,14,1.3,183.924,M,26.200,M,,0000*5B
$GPGLL,5029.3143693,N,03025.1779917,E,175909.000,A,F*59
$GPGSA,A,3,21,20,16,29,15,26,27,10,,,,,2.0,1.3,1.5*3F
$GLGSA,A,3,70,86,77,76,85,71,,,,,,,2.0,1.3,1.5*29
$GPRMC,175909.000,A,5029.3143693,N,03025.1779917,E,000.00,000.00,220418,,,F*63
$GPVTG,000.00,T,,M,000.00,N,000.00,K,F*3A
$GPZDA,175909.000,22,04,2018,00,00*5A
$GPGST,175909.000,2.174,2.505,1.439,22.1,2.384,1.632,2.949*55
$PSTI,030,175909.000,A,5029.3143693,N,03025.1779917,E,183.924,-0.00,0.00,0.01,220418,F,1.0,2.4*37
$PSTI,032,175909.000,220418,A,F,-825.847,4496.483,-12.997,4571.712,349.59,,,,,*3B
$GPGGA,175909.200,5029.3142160,N,03025.1783996,E,5,14,1.3,184.617,M,26.200,M,,0000*57
$GPRMC,175909.200,A,5029.3142160,N,03025.1783996,E,000.00,000.00,220418,,,F*67
$GPVTG,000.00,T,,M,000.00,N,000.00,K,F*3A
$PSTI,030,175909.200,A,5029.3142160,N,03025.1783996,E,184.617,-0.00,0.00,-0.00,220418,F,1.0,1.2*12
$GPGGA,175909.400,5029.3142154,N,03025.1783997,E,5,14,1.3,184.618,M,26.200,M,,0000*58
$GPRMC,175909.400,A,5029.3142154,N,03025.1783997,E,000.00,000.00,220418,,,F*67
$GPVTG,000.00,T,,M,000.00,N,000.00,K,F*3A
$PSTI,030,175909.400,A,5029.3142154,N,03025.1783997,E,184.618,0.00,-0.01,0.01,220418,F,1.0,1.2*30
$GPGGA,175909.600,5029.3142157,N,03025.1784000,E,5,14,1.3,184.619,M,26.200,M,,0000*58
$GPRMC,175909.600,A,5029.3142157,N,03025.1784000,E,000.00,000.00,220418,,,F*66
$GPVTG,000.00,T,,M,000.00,N,000.00,K,F*3A
$PSTI,030,175909.600,A,5029.3142157,N,03025.1784000,E,184.619,0.00,0.01,0.01,220418,F,1.0,1.2*1D
$GPGGA,175909.800,5029.3142158,N,03025.1784000,E,5,14,1.3,184.620,M,26.200,M,,0000*53
$GPRMC,175909.800,A,5029.3142158,N,03025.1784000,E,000.00,000.00,220418,,,F*67
$GPVTG,000.00,T,,M,000.00,N,000.00,K,F*3A
$PSTI,030,175909.800,A,5029.3142158,N,03025.1784000,E,184.620,0.00,0.00,0.01,220418,F,1.0,1.2*17
$GPGGA,175910.000,5029.3142162,N,03025.1783989,E,5,14,1.3,184.621,M,26.200,M,,0000*54
$GPGLL,5029.3142162,N,03025.1783989,E,175910.000,A,F*5B
$GPGSA,A,3,21,20,16,29,15,26,27,10,,,,,2.0,1.3,1.5*3F
$GLGSA,A,3,70,86,77,76,85,71,,,,,,,2.0,1.3,1.5*29
$GPRMC,175910.000,A,5029.3142162,N,03025.1783989,E,000.00,000.00,220418,,,F*61
$GPVTG,000.00,T,,M,000.00,N,000.00,K,F*3A
$GPZDA,175910.000,22,04,2018,00,00*52
$GPGST,175910.000,2.418,2.045,0.982,25.7,1.891,1.253,2.535*56
$PSTI,030,175910.000,A,5029.3142162,N,03025.1783989,E,184.621,-0.01,0.01,0.00,220418,F,1.0,1.2*3C
$PSTI,032,175910.000,220418,A,F,-825.366,4496.199,-12.301,4571.344,349.60,,,,,*3D
$GPGGA,175910.200,5029.3141630,N,03025.1785761,E,4,14,1.3,184.790,M,26.200,M,,0000*51
$GPRMC,175910.200,A,5029.3141630,N,03025.1785761,E,000.00,000.00,220418,,,R*7A
$GPVTG,000.00,T,,M,000.00,N,000.00,K,R*2E
$PSTI,030,175910.200,A,5029.3141630,N,03025.1785761,E,184.790,0.01,-0.01,0.01,220418,R,1.0,3.8*25
$GPGGA,175910.400,5029.3141627,N,03025.1785750,E,4,14,1.3,184.791,M,26.200,M,,0000*52
$GPRMC,175910.400,A,5029.3141627,N,03025.1785750,E,000.00,000.00,220418,,,R*78
$GPVTG,000.00,T,,M,000.00,N,000.00,K,R*2E
$PSTI,030,175910.400,A,5029.3141627,N,03025.1785750,E,184.791,-0.01,-0.01,0.01,220418,R,1.0,3.8*0B
$GPGGA,175910.600,5029.3141630,N,03025.1785748,E,4,14,1.3,184.792,M,26.200,M,,0000*5C
$GPRMC,175910.600,A,5029.3141630,N,03025.1785748,E,000.00,000.00,220418,,,R*75
$GPVTG,000.00,T,,M,000.00,N,000.00,K,R*2E
$PSTI,030,175910.600,A,5029.3141630,N,03025.1785748,E,184.792,-0.00,0.01,0.01,220418,R,1.0,3.8*29
$GPGGA,175910.800,5029.3141624,N,03025.1785748,E,4,14,1.3,184.793,M,26.200,M,,0000*56
$GPRMC,175910.800,A,5029.3141624,N,03025.1785748,E,000.00,000.00,220418,,,R*7E
$GPVTG,000.00,T,,M,000.00,N,000.00,K,R*2E
$PSTI,030,175910.800,A,5029.3141624,N,03025.1785748,E,184.793,0.00,-0.01,0.01,220418,R,1.0,3.8*23
$GPGGA,175911.000,5029.3141621,N,03025.1785751,E,4,14,1.3,184.794,M,26.200,M,,0000*55
$GPGLL,5029.3141621,N,03025.1785751,E,175911.000,A,R*40
$GPGSA,A,3,21,20,16,29,15,26,27,10,,,,,2.0,1.3,1.5*3F
$GLGSA,A,3,70,86,77,76,85,71,,,,,,,2.0,1.3,1.5*29
$GPGSV,4,1,13,21,84,058,49,20,61,116,48,16,54,280,49,26,51,227,49*75
$GPGSV,4,2,13,04,46,202,46,27,28,297,44,29,27,112,45,10,20,189,37*70
$GPGSV,4,3,13,15,15,094,44,193,12,050,36,13,11,061,43,07,03,348,46*42
$GPGSV,4,4,13,05,02,034,*4B
$GLGSV,3,1,10,86,56,309,51,85,52,068,48,70,46,100,38,76,32,256,42*65
$GLGSV,3,2,10,77,25,325,43,69,24,031,,71,20,154,44,75,09,214,41*67
$GLGSV,3,3,10,87,04,281,41,84,04,090,33*60
$GPRMC,175911.000,A,5029.3141621,N,03025.1785751,E,000.00,000.00,220418,,,R*7A
$GPVTG,000.00,T,,M,000.00,N,000.00,K,R*2E
$GPZDA,175911.000,22,04,2018,00,00*53
$GPGST,175911.000,0.051,0.041,0.021,24.4,0.038,0.025,0.054*50
$PSTI,030,175911.000,A,5029.3141621,N,03025.1785751,E,184.794,0.00,-0.01,0.01,220418,R,1.0,3.8*20
$PSTI,032,175911.000,220418,A,R,-825.158,4496.102,-12.129,4571.210,349.60,,,,,*2D
$GPGGA,175911.200,5029.3136376,N,03025.1785712,E,5,14,1.3,186.464,M,26.200,M,,0000*58
$GPRMC,175911.200,A,5029.3136376,N,03025.1785712,E,000.00,000.00,220418,,,F*6C
$GPVTG,000.00,T,,M,000.00,N,000.00,K,F*3A
$PSTI,030,175911.200,A,5029.3136376,N,03025.1785712,E,186.464,-0.01,0.00,0.00,220418,F,1.0,1.3*30
$GPGGA,175911.400,5029.3136374,N,03025.1785710,E,5,14,1.3,186.466,M,26.200,M,,0000*5C
$GPRMC,175911.400,A,5029.3136374,N,03025.1785710,E,000.00,000.00,220418,,,F*6A
$GPVTG,000.00,T,,M,000.00,N,000.00,K,F*3A
$PSTI,030,175911.400,A,5029.3136374,N,03025.1785710,E,186.466,-0.00,-0.00,0.02,220418,F,1.0,1.3*1A
$GPGGA,175911.600,5029.3136374,N,03025.1785708,E,5,14,1.3,186.466,M,26.200,M,,0000*57
$GPRMC,175911.600,A,5029.3136374,N,03025.1785708,E,000.00,000.00,220418,,,F*61
$GPVTG,000.00,T,,M,000.00,N,000.00,K,F*3A
$PSTI,030,175911.600,A,5029.3136374,N,03025.1785708,E,186.466,-0.00,-0.00,-0.01,220418,F,1.0,1.3*3F
$GPGGA,175911.800,5029.3136374,N,03025.1785710,E,5,14,1.3,186.465,M,26.200,M,,0000*53
$GPRMC,175911.800,A,5029.3136374,N,03025.1785710,E,000.00,000.00,220418,,,F*66
$GPVTG,000.00,T,,M,000.00,N,000.00,K,F*3A
$PSTI,030,175911.800,A,5029.3136374,N,03025.1785710,E,186.465,0.00,0.00,-0.00,220418,F,1.0,1.3*3A
$GPGGA,175912.000,5029.3136375,N,03025.1785711,E,5,14,1.3,186.465,M,26.200,M,,0000*58
$GPGLL,5029.3136375,N,03025.1785711,E,175912.000,A,F*57
$GPGSA,A,3,21,20,16,29,15,26,27,10,,,,,2.0,1.3,1.5*3F
$GLGSA,A,3,70,86,77,76,85,71,,,,,,,2.0,1.3,1.5*29
$GPRMC,175912.000,A,5029.3136375,N,03025.1785711,E,000.00,000.00,220418,,,F*6D
$GPVTG,000.00,T,,M,000.00,N,000.00,K,F*3A
$GPZDA,175912.000,22,04,2018,00,00*50
$GPGST,175912.000,3.923,3.397,1.454,26.9,3.100,2.009,4.558*57
$PSTI,030,175912.000,A,5029.3136375,N,03025.1785711,E,186.465,0.00,0.00,0.00,220418,F,1.0,1.3*1C
$PSTI,032,175912.000,220418,A,F,-825.163,4495.128,-10.454,4570.249,349.60,,,,,*39
$GPGGA,175912.200,5029.3133956,N,03025.1785386,E,4,14,1.3,187.486,M,26.200,M,,0000*53
$GPRMC,175912.200,A,5029.3133956,N,03025.1785386,E,000.00,000.00,220418,,,R*7F
$GPVTG,000.00,T,,M,000.00,N,000.00,K,R*2E
$PSTI,030,175912.200,A,5029.3133956,N,03025.1785386,E,187.486,-0.01,-0.01,0.02,220418,R,1.0,3.3*02
$GPGGA,175912.400,5029.3133954,N,03025.1785378,E,4,14,1.3,187.486,M,26.200,M,,0000*56
$GPRMC,175912.400,A,5029.3133954,N,03025.1785378,E,000.00,000.00,220418,,,R*7A
$GPVTG,000.00,T,,M,000.00,N,000.00,K,R*2E
$PSTI,030,175912.400,A,5029.3133954,N,03025.1785378,E,187.486,-0.01,-0.00,0.01,220418,R,1.0,3.3*05
$GPGGA,175912.600,5029.3133954,N,03025.1785383,E,4,14,1.3,187.487,M,26.200,M,,0000*51
$GPRMC,175912.600,A,5029.3133954,N,03025.1785383,E,000.00,000.00,220418,,,R*7C
$GPVTG,000.00,T,,M,000.00,N,000.00,K,R*2E
$PSTI,030,175912.600,A,5029.3133954,N,03025.1785383,E,187.487,0.01,-0.00,0.01,220418,R,1.0,3.3*2F
$GPGGA,175912.800,5029.3133953,N,03025.1785379,E,4,14,1.3,187.488,M,26.200,M,,0000*52
$GPRMC,175912.800,A,5029.3133953,N,03025.1785379,E,000.00,000.00,220418,,,R*70
$GPVTG,000.00,T,,M,000.00,N,000.00,K,R*2E
$PSTI,030,175912.800,A,5029.3133953,N,03025.1785379,E,187.488,-0.00,-0.00,0.01,220418,R,1.0,3.3*00
$GPGGA,175913.000,5029.3133951,N,03025.1785381,E,4,14,1.3,187.489,M,26.200,M,,0000*5F
$GPGLL,5029.3133951,N,03025.1785381,E,175913.000,A,R*46
$GPGSA,A,3,21,20,16,29,15,26,27,10,,,,,2.0,1.3,1.5*3F
$GLGSA,A,3,70,86,77,76,85,71,,,,,,,2.0,1.3,1.5*29
$GPRMC,175913.000,A,5029.3133951,N,03025.1785381,E,000.00,000.00,220418,,,R*7C
$GPVTG,000.00,T,,M,000.00,N,000.00,K,R*2E
$GPZDA,175913.000,22,04,2018,00,00*51
$GPGST,175913.000,0.035,0.030,0.013,26.9,0.027,0.018,0.040*5D
$PSTI,030,175913.000,A,5029.3133951,N,03025.1785381,E,187.489,0.00,-0.00,0.01,220418,R,1.0,3.3*20
$PSTI,032,175913.000,220418,A,R,-825.201,4494.681,-9.434,4569.814,349.60,,,,,*1A
$GPGGA,175913.200,5029.3129892,N,03025.1784203,E,5,14,1.3,187.948,M,26.200,M,,0000*53
$GPRMC,175913.200,A,5029.3129892,N,03025.1784203,E,000.00,000.00,220418,,,F*65
$GPVTG,000.00,T,,M,000.00,N,000.00,K,F*3A
$PSTI,030,175913.200,A,5029.3129892,N,03025.1784203,E,187.948,-0.00,-0.01,0.02,220418,F,1.0,1.2*15
$GPGGA,175913.400,5029.3129892,N,03025.1784200,E,5,14,1.3,187.949,M,26.200,M,,0000*57
$GPRMC,175913.400,A,5029.3129892,N,03025.1784200,E,000.00,000.00,220418,,,F*60
$GPVTG,000.00,T,,M,000.00,N,000.00,K,F*3A
$PSTI,030,175913.400,A,5029.3129892,N,03025.1784200,E,187.949,-0.00,0.00,0.01,220418,F,1.0,1.2*3E
$GPGGA,175913.600,5029.3129890,N,03025.1784206,E,5,14,1.2,187.950,M,26.200,M,,0000*58
$GPRMC,175913.600,A,5029.3129890,N,03025.1784206,E,000.00,000.00,220418,,,F*66
$GPVTG,000.00,T,,M,000.00,N,000.00,K,F*3A
$PSTI,030,175913.600,A,5029.3129890,N,03025.1784206,E,187.950,0.01,-0.00,0.01,220418,F,1.0,1.2*31
$GPGGA,175913.800,5029.3129897,N,03025.1784205,E,5,14,1.2,187.951,M,26.200,M,,0000*53
$GPRMC,175913.800,A,5029.3129897,N,03025.1784205,E,000.00,000.00,220418,,,F*6C
$GPVTG,000.00,T,,M,000.00,N,000.00,K,F*3A
$PSTI,030,175913.800,A,5029.3129897,N,03025.1784205,E,187.951,-0.00,0.01,0.01,220418,F,1.0,1.2*3A
$GPGGA,175914.000,5029.3129897,N,03025.1784208,E,5,14,1.2,187.952,M,26.200,M,,0000*52
$GPGLL,5029.3129897,N,03025.1784208,E,175914.000,A,F*54
$GPGSA,A,3,21,20,16,29,15,26,27,10,,,,,1.9,1.2,1.5*34
$GLGSA,A,3,70,86,77,76,85,71,,,,,,,1.9,1.2,1.5*22
$GPGSV,4,1,13,21,84,058,48,20,61,116,48,16,54,280,49,26,51,227,49*74
$GPGSV,4,2,13,04,46,202,46,27,28,297,44,29,27,112,45,10,20,189,37*70
$GPGSV,4,3,13,15,15,094,43,193,12,050,36,13,11,061,43,07,03,348,47*44
$GPGSV,4,4,13,05,02,034,*4B
$GLGSV,3,1,10,86,56,309,51,85,52,068,49,70,46,100,37,76,32,256,43*6A
$GLGSV,3,2,10,77,25,325,43,69,24,031,,71,20,154,44,75,09,214,41*67
$GLGSV,3,3,10,87,04,281,41,84,04,090,33*60
$GPRMC,175914.000,A,5029.3129897,N,03025.1784208,E,000.00,000.00,220418,,,F*6E
$GPVTG,000.00,T,,M,000.00,N,000.00,K,F*3A
$GPZDA,175914.000,22,04,2018,00,00*56
$GPGST,175914.000,4.242,3.673,1.572,26.9,3.353,2.173,4.929*52
$PSTI,030,175914.000,A,5029.3129897,N,03025.1784208,E,187.952,0.00,-0.00,0.01,220418,F,1.0,1.2*3A
$PSTI,032,175914.000,220418,A,F,-825.342,4493.928,-8.971,4569.098,349.59,,,,,*0F
$GPGGA,175914.200,5029.3130159,N,03025.1785767,E,5,14,1.2,188.329,M,26.200,M,,0000*57
$GPRMC,175914.200,A,5029.3130159,N,03025.1785767,E,000.00,000.00,220418,,,F*62
$GPVTG,000.00,T,,M,000.00,N,000.00,K,F*3A
$PSTI,030,175914.200,A,5029.3130159,N,03025.1785767,E,188.329,-0.01,0.01,0.01,220418,F,1.0,1.1*3C
$GPGGA,175914.400,5029.3130152,N,03025.1785773,E,5,14,1.2,188.330,M,26.200,M,,0000*57
$GPRMC,175914.400,A,5029.3130152,N,03025.1785773,E,000.00,000.00,220418,,,F*6A
$GPVTG,000.00,T,,M,000.00,N,000.00,K,F*3A
$PSTI,030,175914.400,A,5029.3130152,N,03025.1785773,E,188.330,0.01,-0.01,0.01,220418,F,1.0,1.1*3C
$GPGGA,175914.600,5029.3130145,N,03025.1785767,E,5,14,1.2,188.331,M,26.200,M,,0000*57
$GPRMC,175914.600,A,5029.3130145,N,03025.1785767,E,000.00,000.00,220418,,,F*6B
$GPVTG,000.00,T,,M,000.00,N,000.00,K,F*3A
$PSTI,030,175914.600,A,5029.3130145,N,03025.1785767,E,188.331,-0.01,-0.01,0.01,220418,F,1.0,1.1*11
$GPGGA,175914.800,5029.3130150,N,03025.1785765,E,5,14,1.2,188.332,M,26.200,M,,0000*5C
$GPRMC,175914.800,A,5029.3130150,N,03025.1785765,E,000.00,000.00,220418,,,F*63
$GPVTG,000.00,T,,M,000.00,N,000.00,K,F*3A
$PSTI,030,175914.800,A,5029.3130150,N,03025.1785765,E,188.332,-0.00,0.01,0.01,220418,F,1.0,1.1*36
$GPGGA,175915.000,5029.3130150,N,03025.1785763,E,5,14,1.2,188.332,M,26.200,M,,0000*53
$GPGLL,5029.3130150,N,03025.1785763,E,175915.000,A,F*56
$GPGSA,A,3,21,20,16,29,15,26,27,10,,,,,1.9,1.2,1.5*34
$GLGSA,A,3,70,86,77,76,85,71,,,,,,,1.9,1.2,1.5*22
$GPRMC,175915.000,A,5029.3130150,N,03025.1785763,E,000.00,000.00,220418,,,F*6C
$GPVTG,000.00,T,,M,000.00,N,000.00,K,F*3A
$GPZDA,175915.000,22,04,2018,00,00*57
$GPGST,175915.000,2.094,1.662,0.847,24.4,1.553,1.032,2.197*53
$PSTI,030,175915.000,A,5029.3130150,N,03025.1785763,E,188.332,-0.00,-0.00,0.00,220418,F,1.0,1.1*14
$PSTI,032,175915.000,220418,A,F,-825.156,4493.976,-8.590,4569.111,349.60,,,,,*0B
$GPGGA,175915.200,5029.3130121,N,03025.1786788,E,5,14,1.2,188.583,M,26.200,M,,0000*5D
$GPRMC,175915.200,A,5029.3130121,N,03025.1786788,E,000.00,000.00,220418,,,F*6E
$GPVTG,000.00,T,,M,000.00,N,000.00,K,F*3A
$PSTI,030,175915.200,A,5029.3130121,N,03025.1786788,E,188.583,-0.00,-0.01,0.01,220418,F,1.0,2.1*19
$GPGGA,175915.400,5029.3130122,N,03025.1786783,E,5,14,1.2,188.583,M,26.200,M,,0000*53
$GPRMC,175915.400,A,5029.3130122,N,03025.1786783,E,000.00,000.00,220418,,,F*60
$GPVTG,000.00,T,,M,000.00,N,000.00,K,F*3A
$PSTI,030,175915.400,A,5029.3130122,N,03025.1786783,E,188.583,-0.01,0.00,-0.00,220418,F,1.0,2.1*16
$GPGGA,175915.600,5029.3130123,N,03025.1786782,E,5,14,1.2,188.583,M,26.200,M,,0000*51
$GPRMC,175915.600,A,5029.3130123,N,03025.1786782,E,000.00,000.00,220418,,,F*62
$GPVTG,000.00,T,,M,000.00,N,000.00,K,F*3A
$PSTI,030,175915.600,A,5029.3130123,N,03025.1786782,E,188.583,-0.00,0.00,0.00,220418,F,1.0,2.1*38
$GPGGA,175915.800,5029.3130125,N,03025.1786778,E,5,14,1.2,188.584,M,26.200,M,,0000*5B
$GPRMC,175915.800,A,5029.3130125,N,03025.1786778,E,000.00,000.00,220418,,,F*6F
$GPVTG,000.00,T,,M,000.00,N,000.00,K,F*3A
$PSTI,030,175915.800,A,5029.3130125,N,03025.1786778,E,188.584,-0.00,0.00,0.01,220418,F,1.0,2.1*33
$GPGGA,175916.000,5029.3130127,N,03025.1786778,E,5,14,1.2,188.587,M,26.200,M,,0000*51
$GPGLL,5029.3130127,N,03025.1786778,E,175916.000,A,F*5C
$GPGSA,A,3,21,20,16,29,15,26,27,10,,,,,1.9,1.2,1.5*34
$GLGSA,A,3,70,86,77,76,85,71,,,,,,,1.9,1.2,1.5*22
$GPRMC,175916.000,A,5029.3130127,N,03025.1786778,E,000.00,000.00,220418,,,F*66
$GPVTG,000.00,T,,M,000.00,N,000.00,K,F*3A
$GPZDA,175916.000,22,04,2018,00,00*54
$GPGST,175916.000,2.267,1.799,0.917,24.4,1.682,1.118,2.379*5B
$PSTI,030,175916.000,A,5029.3130127,N,03025.1786778,E,188.587,0.00,0.00,0.02,220418,F,1.0,2.1*17
$PSTI,032,175916.000,220418,A,F,-825.036,4493.971,-8.335,4569.084,349.60,,,,,*0C
$GPGGA,175916.200,5029.3130882,N,03025.1787641,E,5,14,1.2,188.792,M,26.200,M,,0000*59
$GPRMC,175916.200,A,5029.3130882,N,03025.1787641,E,000.00,000.00,220418,,,F*68
$GPVTG,000.00,T,,M,000.00,N,000.00,K,F*3A
$PSTI,030,175916.200,A,5029.3130882,N,03025.1787641,E,188.792,-0.00,-0.00,0.01,220418,F,1.0,1.4*1A
$GPGGA,175916.400,5029.3130878,N,03025.1787639,E,5,14,1.2,188.793,M,26.200,M,,0000*54
$GPRMC,175916.400,A,5029.3130878,N,03025.1787639,E,000.00,000.00,220418,,,F*64
$GPVTG,000.00,T,,M,000.00,N,000.00,K,F*3A
$PSTI,030,175916.400,A,5029.3130878,N,03025.1787639,E,188.793,-0.00,-0.01,0.02,220418,F,1.0,1.4*15
$GPGGA,175916.600,5029.3130879,N,03025.1787634,E,5,14,1.2,188.794,M,26.200,M,,0000*5D
$GPRMC,175916.600,A,5029.3130879,N,03025.1787634,E,000.00,000.00,220418,,,F*6A
$GPVTG,000.00,T,,M,000.00,N,000.00,K,F*3A
$PSTI,030,175916.600,A,5029.3130879,N,03025.1787634,E,188.794,-0.00,0.00,0.01,220418,F,1.0,1.4*33
$GPGGA,175916.800,5029.3130873,N,03025.1787644,E,5,14,1.2,188.796,M,26.200,M,,0000*5C
$GPRMC,175916.800,A,5029.3130873,N,03025.1787644,E,000.00,000.00,220418,,,F*69
$GPVTG,000.00,T,,M,000.00,N,000.00,K,F*3A
$PSTI,030,175916.800,A,5029.3130873,N,03025.1787644,E,188.796,0.01,-0.01,0.02,220418,F,1.0,1.4*31
$GPGGA,175917.000,5029.3130879,N,03025.1787641,E,5,14,1.2,188.798,M,26.200,M,,0000*54
$GPGLL,5029.3130879,N,03025.1787641,E,175917.000,A,F*55
$GPGSA,A,3,21,20,16,29,15,26,27,10,,,,,1.9,1.2,1.5*34
$GLGSA,A,3,70,86,77,76,85,71,,,,,,,1.9,1.2,1.5*22
$GPGSV,4,1,13,21,84,058,48,20,61,116,48,16,54,280,49,26,51,227,49*74
$GPGSV,4,2,13,04,46,202,46,27,28,297,44,29,27,112,45,10,20,189,37*70
$GPGSV,4,3,13,15,15,094,43,193,12,050,36,13,11,061,42,07,03,348,47*45
$GPGSV,4,4,13,05,02,034,*4B
$GLGSV,3,1,10,86,56,309,51,85,52,068,49,70,46,100,38,76,32,256,43*65
$GLGSV,3,2,10,77,25,325,43,69,24,031,,71,20,154,42,75,09,214,41*61
$GLGSV,3,3,10,87,04,281,41,84,04,090,33*60
$GPRMC,175917.000,A,5029.3130879,N,03025.1787641,E,000.00,000.00,220418,,,F*6F
$GPVTG,000.00,T,,M,000.00,N,000.00,K,F*3A
$GPZDA,175917.000,22,04,2018,00,00*55
$GPGST,175917.000,2.109,1.674,0.853,24.4,1.565,1.040,2.213*59
$PSTI,030,175917.000,A,5029.3130879,N,03025.1787641,E,188.798,-0.00,0.01,0.02,220418,F,1.0,1.4*38
$PSTI,032,175917.000,220418,A,F,-824.935,4494.111,-8.126,4569.203,349.60,,,,,*02
$GPGGA,175917.200,5029.3131133,N,03025.1788268,E,5,14,1.2,189.136,M,26.200,M,,0000*53
$GPRMC,175917.200,A,5029.3131133,N,03025.1788268,E,000.00,000.00,220418,,,F*6B
$GPVTG,000.00,T,,M,000.00,N,000.00,K,F*3A
$PSTI,030,175917.200,A,5029.3131133,N,03025.1788268,E,189.136,-0.01,-0.01,0.00,220418,F,1.0,1.2*17
$GPGGA,175917.400,5029.3131121,N,03025.1788266,E,5,14,1.2,189.135,M,26.200,M,,0000*5B
$GPRMC,175917.400,A,5029.3131121,N,03025.1788266,E,000.00,000.00,220418,,,F*60
$GPVTG,000.00,T,,M,000.00,N,000.00,K,F*3A
$PSTI,030,175917.400,A,5029.3131121,N,03025.1788266,E,189.135,-0.00,-0.02,-0.00,220418,F,1.0,1.2*30
$GPGGA,175917.600,5029.3131123,N,03025.1788272,E,5,14,1.2,189.137,M,26.200,M,,0000*5C
$GPRMC,175917.600,A,5029.3131123,N,03025.1788272,E,000.00,000.00,220418,,,F*65
$GPVTG,000.00,T,,M,000.00,N,000.00,K,F*3A
$PSTI,030,175917.600,A,5029.3131123,N,03025.1788272,E,189.137,0.01,0.00,0.01,220418,F,1.0,1.2*18
$GPGGA,175917.800,5029.3131114,N,03025.1788267,E,5,14,1.2,189.136,M,26.200,M,,0000*53
$GPRMC,175917.800,A,5029.3131114,N,03025.1788267,E,000.00,000.00,220418,,,F*6B
$GPVTG,000.00,T,,M,000.00,N,000.00,K,F*3A
$PSTI,030,175917.800,A,5029.3131114,N,03025.1788267,E,189.136,-0.01,-0.02,-0.00,220418,F,1.0,1.2*39
$GPGGA,175918.000,5029.3131113,N,03025.1788257,E,5,14,1.2,189.138,M,26.200,M,,0000*5E
$GPGLL,5029.3131113,N,03025.1788257,E,175918.000,A,F*52
$GPGSA,A,3,21,20,16,29,15,26,27,10,,,,,1.9,1.2,1.5*34
$GLGSA,A,3,70,86,77,76,85,71,,,,,,,1.9,1.2,1.5*22
$GPRMC,175918.000,A,5029.3131113,N,03025.1788257,E,000.00,000.00,220418,,,F*68
$GPVTG,000.00,T,,M,000.00,N,000.00,K,F*3A
$GPZDA,175918.000,22,04,2018,00,00*5A
$GPGST,175918.000,2.246,1.782,0.908,24.4,1.666,1.107,2.357*5A
$PSTI,030,175918.000,A,5029.3131113,N,03025.1788257,E,189.138,-0.01,-0.00,0.01,220418,F,1.0,1.2*1A
$PSTI,032,175918.000,220418,A,F,-824.861,4494.158,-7.782,4569.235,349.60,,,,,*02
$GPGGA,175918.200,5029.3130484,N,03025.1787748,E,5,14,1.2,189.689,M,26.200,M,,0000*5F
$GPRMC,175918.200,A,5029.3130484,N,03025.1787748,E,000.00,000.00,220418,,,F*64
$GPVTG,000.00,T,,M,000.00,N,000.00,K,F*3A
$PSTI,030,175918.200,A,5029.3130484,N,03025.1787748,E,189.689,0.01,-0.01,-0.00,220418,F,1.0,1.0*19
$GPGGA,175918.400,5029.3130485,N,03025.1787745,E,5,14,1.2,189.690,M,26.200,M,,0000*5D
$GPRMC,175918.400,A,5029.3130485,N,03025.1787745,E,000.00,000.00,220418,,,F*6E
$GPVTG,000.00,T,,M,000.00,N,000.00,K,F*3A
$PSTI,030,175918.400,A,5029.3130485,N,03025.1787745,E,189.690,-0.00,0.00,0.01,220418,F,1.0,1.0*37
$GPGGA,175918.600,5029.3130481,N,03025.1787737,E,5,14,1.2,189.691,M,26.200,M,,0000*5F
$GPRMC,175918.600,A,5029.3130481,N,03025.1787737,E,000.00,000.00,220418,,,F*6D
$GPVTG,000.00,T,,M,000.00,N,000.00,K,F*3A
$PSTI,030,175918.600,A,5029.3130481,N,03025.1787737,E,189.691,-0.01,-0.01,0.01,220418,F,1.0,1.0*18
$GPGGA,175918.800,5029.3130477,N,03025.1787738,E,5,14,1.2,189.693,M,26.200,M,,0000*55
$GPRMC,175918.800,A,5029.3130477,N,03025.1787738,E,000.00,000.00,220418,,,F*65
$GPVTG,000.00,T,,M,000.00,N,000.00,K,F*3A
$PSTI,030,175918.800,A,5029.3130477,N,03025.1787738,E,189.693,0.00,-0.01,0.02,220418,F,1.0,1.0*3D
$GPGGA,175919.000,5029.3130475,N,03025.1787736,E,5,14,1.2,189.694,M,26.200,M,,0000*57
$GPGLL,5029.3130475,N,03025.1787736,E,175919.000,A,F*5A
$GPGSA,A,3,21,20,16,29,15,26,27,10,,,,,1.9,1.2,1.5*34
$GLGSA,A,3,70,86,77,76,85,71,,,,,,,1.9,1.2,1.5*22
$GPRMC,175919.000,A,5029.3130475,N,03025.1787736,E,000.00,000.00,220418,,,F*60
$GPVTG,000.00,T,,M,000.00,N,000.00,K,F*3A
$GPZDA,175919.000,22,04,2018,00,00*5B
$GPGST,175919.000,2.507,2.169,1.026,26.8,1.991,1.339,2.644*5C
$PSTI,030,175919.000,A,5029.3130475,N,03025.1787736,E,189.694,-0.00,-0.00,0.01,220418,F,1.0,1.0*10
$PSTI,032,175919.000,220418,A,F,-824.924,4494.039,-7.228,4569.128,349.60,,,,,*0F
$GPGGA,175919.200,5029.3129631,N,03025.1786966,E,5,14,1.2,190.126,M,26.200,M,,0000*53
$GPRMC,175919.200,A,5029.3129631,N,03025.1786966,E,000.00,000.00,220418,,,F*62
$GPVTG,000.00,T,,M,000.00,N,000.00,K,F*3A
$PSTI,030,175919.200,A,5029.3129631,N,03025.1786966,E,190.126,-0.01,-0.00,0.01,220418,F,1.0,1.1*14
$GPGGA,175919.400,5029.3129632,N,03025.1786967,E,5,14,1.2,190.127,M,26.200,M,,0000*56
$GPRMC,175919.400,A,5029.3129632,N,03025.1786967,E,000.00,000.00,220418,,,F*66
$GPVTG,000.00,T,,M,000.00,N,000.00,K,F*3A
$PSTI,030,175919.400,A,5029.3129632,N,03025.1786967,E,190.127,0.00,0.00,0.01,220418,F,1.0,1.1*10
$GPGGA,175919.600,5029.3129633,N,03025.1786963,E,5,14,1.2,190.128,M,26.200,M,,0000*5E
$GPRMC,175919.600,A,5029.3129633,N,03025.1786963,E,000.00,000.00,220418,,,F*61
$GPVTG,000.00,T,,M,000.00,N,000.00,K,F*3A
$PSTI,030,175919.600,A,5029.3129633,N,03025.1786963,E,190.128,-0.01,0.00,0.01,220418,F,1.0,1.1*34
$GPGGA,175919.800,5029.3129630,N,03025.1786960,E,5,14,1.2,190.128,M,26.200,M,,0000*50
$GPRMC,175919.800,A,5029.3129630,N,03025.1786960,E,000.00,000.00,220418,,,F*6F
$GPVTG,000.00,T,,M,000.00,N,000.00,K,F*3A
$PSTI,030,175919.800,A,5029.3129630,N,03025.1786960,E,190.128,-0.00,-0.01,0.01,220418,F,1.0,1.1*17
$GPGGA,175920.000,5029.3129626,N,03025.1786957,E,5,14,1.2,190.129,M,26.200,M,,0000*50
$GPGLL,5029.3129626,N,03025.1786957,E,175920.000,A,F*54
$GPGSA,A,3,21,20,16,29,15,26,27,10,,,,,1.9,1.2,1.5*34
$GLGSA,A,3,70,86,77,76,85,71,,,,,,,1.9,1.2,1.5*22
$GPGSV,4,1,13,21,84,058,48,20,61,116,48,16,54,280,49,26,51,227,49*74
$GPGSV,4,2,13,04,46,202,46,27,28,297,44,29,27,112,46,10,20,189,38*7C
$GPGSV,4,3,13,15,15,094,44,193,12,050,36,13,11,061,42,07,03,348,47*42
$GPGSV,4,4,13,05,02,034,*4B
$GLGSV,3,1,10,86,56,309,51,85,52,068,49,70,46,100,38,76,32,256,43*65
$GLGSV,3,2,10,77,25,325,42,69,24,031,,71,20,154,43,75,09,214,41*61
$GLGSV,3,3,10,87,04,281,41,84,04,090,34*67
$GPRMC,175920.000,A,5029.3129626,N,03025.1786957,E,000.00,000.00,220418,,,F*6E
$GPVTG,000.00,T,,M,000.00,N,000.00,K,F*3A
$GPZDA,175920.000,22,04,2018,00,00*51
$GPGST,175920.000,2.316,2.005,0.948,26.8,1.840,1.237,2.444*5B
$PSTI,030,175920.000,A,5029.3129626,N,03025.1786957,E,190.129,-0.00,-0.01,0.01,220418,F,1.0,1.1*17
$PSTI,032,175920.000,220418,A,F,-825.015,4493.880,-6.792,4568.988,349.60,,,,,*04
$GPGGA,175920.200,5029.3129946,N,03025.1786842,E,5,14,1.2,190.376,M,26.200,M,,0000*56
$GPRMC,175920.200,A,5029.3129946,N,03025.1786842,E,000.00,000.00,220418,,,F*60
$GPVTG,000.00,T,,M,000.00,N,000.00,K,F*3A
$PSTI,030,175920.200,A,5029.3129946,N,03025.1786842,E,190.376,-0.00,-0.00,0.00,220418,F,1.0,1.5*15
$GPGGA,175920.400,5029.3129948,N,03025.1786842,E,5,14,1.2,190.377,M,26.200,M,,0000*5F
$GPRMC,175920.400,A,5029.3129948,N,03025.1786842,E,000.00,000.00,220418,,,F*68
$GPVTG,000.00,T,,M,000.00,N,000.00,K,F*3A
$PSTI,030,175920.400,A,5029.3129948,N,03025.1786842,E,190.377,0.00,0.00,0.01,220418,F,1.0,1.5*1D
$GPGGA,175920.600,5029.3129947,N,03025.1786835,E,5,14,1.2,190.377,M,26.200,M,,0000*52
$GPRMC,175920.600,A,5029.3129947,N,03025.1786835,E,000.00,000.00,220418,,,F*65
$GPVTG,000.00,T,,M,000.00,N,000.00,K,F*3A
$PSTI,030,175920.600,A,5029.3129947,N,03025.1786835,E,190.377,-0.01,-0.00,0.00,220418,F,1.0,1.5*10
$GPGGA,175920.800,5029.3129947,N,03025.1786838,E,5,14,1.2,190.378,M,26.200,M,,0000*5E
$GPRMC,175920.800,A,5029.3129947,N,03025.1786838,E,000.00,000.00,220418,,,F*66
$GPVTG,000.00,T,,M,000.00,N,000.00,K,F*3A
$PSTI,030,175920.800,A,5029.3129947,N,03025.1786838,E,190.378,0.00,0.00,0.01,220418,F,1.0,1.5*1C
$GPGGA,175921.000,5029.3129942,N,03025.1786832,E,5,14,1.2,190.379,M,26.200,M,,0000*59
$GPGLL,5029.3129942,N,03025.1786832,E,175921.000,A,F*5A
$GPGSA,A,3,21,20,16,29,15,26,27,10,,,,,1.9,1.2,1.5*34
$GLGSA,A,3,70,86,77,76,85,71,,,,,,,1.9,1.2,1.5*22
$GPRMC,175921.000,A,5029.3129942,N,03025.1786832,E,000.00,000.00,220418,,,F*60
$GPVTG,000.00,T,,M,000.00,N,000.00,K,F*3A
$GPZDA,175921.000,22,04,2018,00,00*50
$GPGST,175921.000,1.526,1.211,0.617,24.4,1.132,0.752,1.602*5B
$PSTI,030,175921.000,A,5029.3129942,N,03025.1786832,E,190.379,-0.01,-0.01,0.01,220418,F,1.0,1.5*1B
$PSTI,032,175921.000,220418,A,F,-825.030,4493.939,-6.542,4569.048,349.60,,,,,*0A
$GPGGA,175921.200,5029.3130766,N,03025.1786664,E,5,14,1.2,190.598,M,26.200,M,,0000*5F
$GPRMC,175921.200,A,5029.3130766,N,03025.1786664,E,000.00,000.00,220418,,,F*6F
$GPVTG,000.00,T,,M,000.00,N,000.00,K,F*3A
$PSTI,030,175921.200,A,5029.3130766,N,03025.1786664,E,190.598,0.01,0.00,0.01,220418,F,1.0,1.1*18
$GPGGA,175921.400,5029.3130762,N,03025.1786660,E,5,14,1.2,190.599,M,26.200,M,,0000*58
$GPRMC,175921.400,A,5029.3130762,N,03025.1786660,E,000.00,000.00,220418,,,F*69
$GPVTG,000.00,T,,M,000.00,N,000.00,K,F*3A
$PSTI,030,175921.400,A,5029.3130762,N,03025.1786660,E,190.599,-0.00,-0.01,0.01,220418,F,1.0,1.1*1F
$GPGGA,175921.600,5029.3130761,N,03025.1786661,E,5,14,1.2,190.599,M,26.200,M,,0000*58
$GPRMC,175921.600,A,5029.3130761,N,03025.1786661,E,000.00,000.00,220418,,,F*69
$GPVTG,000.00,T,,M,000.00,N,000.00,K,F*3A
$PSTI,030,175921.600,A,5029.3130761,N,03025.1786661,E,190.599,0.00,-0.00,-0.00,220418,F,1.0,1.1*1F
$GPGGA,175921.800,5029.3130759,N,03025.1786656,E,5,14,1.2,190.600,M,26.200,M,,0000*5A
$GPRMC,175921.800,A,5029.3130759,N,03025.1786656,E,000.00,000.00,220418,,,F*68
$GPVTG,000.00,T,,M,000.00,N,000.00,K,F*3A
$PSTI,030,175921.800,A,5029.3130759,N,03025.1786656,E,190.600,-0.01,-0.00,0.01,220418,F,1.0,1.1*1D
$GPGGA,175922.000,5029.3130758,N,03025.1786656,E,5,14,1.2,190.601,M,26.200,M,,0000*51
$GPGLL,5029.3130758,N,03025.1786656,E,175922.000,A,F*58
$GPGSA,A,3,21,20,16,29,15,26,27,10,,,,,1.9,1.2,1.5*34
$GLGSA,A,3,70,86,77,76,85,71,,,,,,,1.9,1.2,1.5*22
$GPRMC,175922.000,A,5029.3130758,N,03025.1786656,E,000.00,000.00,220418,,,F*62
$GPVTG,000.00,T,,M,000.00,N,000.00,K,F*3A
$GPZDA,175922.000,22,04,2018,00,00*53
$GPGST,175922.000,1.284,1.019,0.519,24.4,0.952,0.633,1.348*52
$PSTI,030,175922.000,A,5029.3130758,N,03025.1786656,E,190.601,-0.00,-0.00,0.01,220418,F,1.0,1.1*17
$PSTI,032,175922.000,220418,A,F,-825.052,4494.091,-6.320,4569.202,349.60,,,,,*0F
$GPGGA,175922.200,5029.3131793,N,03025.1786518,E,5,14,1.2,190.728,M,26.200,M,,0000*56
$GPRMC,175922.200,A,5029.3131793,N,03025.1786518,E,000.00,000.00,220418,,,F*6F
$GPVTG,000.00,T,,M,000.00,N,000.00,K,F*3A
$PSTI,030,175922.200,A,5029.3131793,N,03025.1786518,E,190.728,-0.00,0.01,0.01,220418,F,1.0,1.5*38
$GPGGA,175922.400,5029.3131788,N,03025.1786517,E,5,14,1.2,190.729,M,26.200,M,,0000*54
$GPRMC,175922.400,A,5029.3131788,N,03025.1786517,E,000.00,000.00,220418,,,F*6C
$GPVTG,000.00,T,,M,000.00,N,000.00,K,F*3A
$PSTI,030,175922.400,A,5029.3131788,N,03025.1786517,E,190.729,-0.00,-0.01,0.01,220418,F,1.0,1.5*17
$GPGGA,175922.600,5029.3131786,N,03025.1786517,E,5,14,1.2,190.729,M,26.200,M,,0000*58
$GPRMC,175922.600,A,5029.3131786,N,03025.1786517,E,000.00,000.00,220418,,,F*60
$GPVTG,000.00,T,,M,000.00,N,000.00,K,F*3A
$PSTI,030,175922.600,A,5029.3131786,N,03025.1786517,E,190.729,0.00,-0.00,0.01,220418,F,1.0,1.5*37
$GPGGA,175922.800,5029.3131783,N,03025.1786517,E,5,14,1.2,190.730,M,26.200,M,,0000*5B
$GPRMC,175922.800,A,5029.3131783,N,03025.1786517,E,000.00,000.00,220418,,,F*6B
$GPVTG,000.00,T,,M,000.00,N,000.00,K,F*3A
$PSTI,030,175922.800,A,5029.3131783,N,03025.1786517,E,190.730,-0.00,-0.01,0.01,220418,F,1.0,1.5*18
$GPGGA,175923.000,5029.3131786,N,03025.1786516,E,5,14,1.2,190.731,M,26.200,M,,0000*57
$GPGLL,5029.3131786,N,03025.1786516,E,175923.000,A,F*5C
$GPGSA,A,3,21,20,16,29,15,26,27,10,,,,,1.9,1.2,1.5*34
$GLGSA,A,3,70,86,77,76,85,71,,,,,,,1.9,1.2,1.5*22
$GPGSV,4,1,13,21,84,058,48,20,61,116,48,16,54,280,49,26,51,227,49*74
$GPGSV,4,2,13,04,46,202,46,27,28,297,45,29,27,112,46,10,20,189,39*7C
$GPGSV,4,3,13,15,15,094,44,193,12,050,36,13,11,061,42,07,03,348,47*42
$GPGSV,4,4,13,05,02,034,*4B
$GLGSV,3,1,10,86,56,309,51,85,52,068,49,70,46,099,38,76,32,256,43*64
$GLGSV,3,2,10,77,25,325,42,69,24,031,,71,20,154,44,75,09,214,41*66
$GLGSV,3,3,10,87,04,281,41,84,04,090,34*67
$GPRMC,175923.000,A,5029.3131786,N,03025.1786516,E,000.00,000.00,220418,,,F*66
$GPVTG,000.00,T,,M,000.00,N,000.00,K,F*3A
$GPZDA,175923.000,22,04,2018,00,00*52
$GPGST,175923.000,1.042,0.827,0.422,24.3,0.773,0.514,1.095*59
$PSTI,030,175923.000,A,5029.3131786,N,03025.1786516,E,190.731,-0.00,0.01,0.01,220418,F,1.0,1.5*39
$PSTI,032,175923.000,220418,A,F,-825.069,4494.281,-6.190,4569.391,349.60,,,,,*07
$GPGGA,175923.200,5029.3132651,N,03025.1786358,E,5,14,1.2,190.908,M,26.200,M,,0000*55
$GPRMC,175923.200,A,5029.3132651,N,03025.1786358,E,000.00,000.00,220418,,,F*60
$GPVTG,000.00,T,,M,000.00,N,000.00,K,F*3A
$PSTI,030,175923.200,A,5029.3132651,N,03025.1786358,E,190.908,-0.01,-0.00,0.01,220418,F,1.0,1.0*13
$GPGGA,175923.400,5029.3132652,N,03025.1786359,E,5,14,1.2,190.910,M,26.200,M,,0000*58
$GPRMC,175923.400,A,5029.3132652,N,03025.1786359,E,000.00,000.00,220418,,,F*64
$GPVTG,000.00,T,,M,000.00,N,000.00,K,F*3A
$PSTI,030,175923.400,A,5029.3132652,N,03025.1786359,E,190.910,0.00,0.00,0.02,220418,F,1.0,1.0*1C
$GPGGA,175923.600,5029.3132652,N,03025.1786360,E,5,14,1.2,190.911,M,26.200,M,,0000*51
$GPRMC,175923.600,A,5029.3132652,N,03025.1786360,E,000.00,000.00,220418,,,F*6C
$GPVTG,000.00,T,,M,000.00,N,000.00,K,F*3A
$PSTI,030,175923.600,A,5029.3132652,N,03025.1786360,E,190.911,0.00,-0.00,0.01,220418,F,1.0,1.0*3B
$GPGGA,175923.800,5029.3132649,N,03025.1786353,E,5,14,1.2,190.911,M,26.200,M,,0000*55
$GPRMC,175923.800,A,5029.3132649,N,03025.1786353,E,000.00,000.00,220418,,,F*68
$GPVTG,000.00,T,,M,000.00,N,000.00,K,F*3A
$PSTI,030,175923.800,A,5029.3132649,N,03025.1786353,E,190.911,-0.01,-0.00,0.00,220418,F,1.0,1.0*12
$GPGGA,175924.000,5029.3132650,N,03025.1786351,E,5,14,1.2,190.911,M,26.200,M,,0000*50
$GPGLL,5029.3132650,N,03025.1786351,E,175924.000,A,F*57
$GPGSA,A,3,21,20,16,29,15,26,27,10,,,,,1.9,1.2,1.5*34
$GLGSA,A,3,70,86,77,76,85,71,,,,,,,1.9,1.2,1.5*22
$GPRMC,175924.000,A,5029.3132650,N,03025.1786351,E,000.00,000.00,220418,,,F*6D
$GPVTG,000.00,T,,M,000.00,N,000.00,K,F*3A
$GPZDA,175924.000,22,04,2018,00,00*55
$GPGST,175924.000,1.196,0.949,0.484,24.3,0.887,0.589,1.257*5F
$PSTI,030,175924.000,A,5029.3132650,N,03025.1786351,E,190.911,-0.00,0.00,0.01,220418,F,1.0,1.0*3A
$PSTI,032,175924.000,220418,A,F,-825.087,4494.440,-6.010,4569.551,349.60,,,,,*08
$GPGGA,175924.200,5029.3133250,N,03025.1786221,E,5,14,1.2,191.291,M,26.200,M,,0000*53
$GPRMC,175924.200,A,5029.3133250,N,03025.1786221,E,000.00,000.00,220418,,,F*6C
$GPVTG,000.00,T,,M,000.00,N,000.00,K,F*3A
$PSTI,030,175924.200,A,5029.3133250,N,03025.1786221,E,191.291,0.00,-0.00,0.00,220418,F,1.0,1.0*38
$GPGGA,175924.400,5029.3133252,N,03025.1786217,E,5,14,1.2,191.291,M,26.200,M,,0000*52
$GPRMC,175924.400,A,5029.3133252,N,03025.1786217,E,000.00,000.00,220418,,,F*6D
$GPVTG,000.00,T,,M,000.00,N,000.00,K,F*3A
$PSTI,030,175924.400,A,5029.3133252,N,03025.1786217,E,191.291,-0.00,0.00,0.00,220418,F,1.0,1.0*39
$GPGGA,175924.600,5029.3133249,N,03025.1786212,E,5,14,1.2,191.292,M,26.200,M,,0000*5C
$GPRMC,175924.600,A,5029.3133249,N,03025.1786212,E,000.00,000.00,220418,,,F*60
$GPVTG,000.00,T,,M,000.00,N,000.00,K,F*3A
$PSTI,030,175924.600,A,5029.3133249,N,03025.1786212,E,191.292,-0.01,-0.01,0.01,220418,F,1.0,1.0*1B
$GPGGA,175924.800,5029.3133245,N,03025.1786213,E,5,14,1.2,191.293,M,26.200,M,,0000*5E
$GPRMC,175924.800,A,5029.3133245,N,03025.1786213,E,000.00,000.00,220418,,,F*63
$GPVTG,000.00,T,,M,000.00,N,000.00,K,F*3A
$PSTI,030,175924.800,A,5029.3133245,N,03025.1786213,E,191.293,0.00,-0.01,0.01,220418,F,1.0,1.0*35
$GPGGA,175925.000,5029.3133246,N,03025.1786218,E,5,14,1.2,191.294,M,26.200,M,,0000*58
$GPGLL,5029.3133246,N,03025.1786218,E,175925.000,A,F*58
$GPGSA,A,3,21,20,16,29,15,26,27,10,,,,,1.9,1.2,1.5*34
$GLGSA,A,3,70,86,77,76,85,71,,,,,,,1.9,1.2,1.5*22
$GPRMC,175925.000,A,5029.3133246,N,03025.1786218,E,000.00,000.00,220418,,,F*62
$GPVTG,000.00,T,,M,000.00,N,000.00,K,F*3A
$GPZDA,175925.000,22,04,2018,00,00*54
$GPGST,175925.000,1.148,0.911,0.465,24.3,0.852,0.566,1.207*53
$PSTI,030,175925.000,A,5029.3133246,N,03025.1786218,E,191.294,0.01,0.00,0.01,220418,F,1.0,1.0*1E
$PSTI,032,175925.000,220418,A,F,-825.104,4494.552,-5.627,4569.664,349.60,,,,,*05
$GPGGA,175925.200,5029.3133798,N,03025.1786121,E,5,14,1.2,191.450,M,26.200,M,,0000*5B
$GPRMC,175925.200,A,5029.3133798,N,03025.1786121,E,000.00,000.00,220418,,,F*6F
$GPVTG,000.00,T,,M,000.00,N,000.00,K,F*3A
$PSTI,030,175925.200,A,5029.3133798,N,03025.1786121,E,191.450,-0.00,0.00,0.01,220418,F,1.0,1.3*32
$GPGGA,175925.400,5029.3133798,N,03025.1786117,E,5,14,1.2,191.450,M,26.200,M,,0000*58
$GPRMC,175925.400,A,5029.3133798,N,03025.1786117,E,000.00,000.00,220418,,,F*6C
$GPVTG,000.00,T,,M,000.00,N,000.00,K,F*3A
$PSTI,030,175925.400,A,5029.3133798,N,03025.1786117,E,191.450,-0.00,-0.00,0.01,220418,F,1.0,1.3*1C
$GPGGA,175925.600,5029.3133795,N,03025.1786111,E,5,14,1.2,191.451,M,26.200,M,,0000*50
$GPRMC,175925.600,A,5029.3133795,N,03025.1786111,E,000.00,000.00,220418,,,F*65
$GPVTG,000.00,T,,M,000.00,N,000.00,K,F*3A
$PSTI,030,175925.600,A,5029.3133795,N,03025.1786111,E,191.451,-0.01,-0.00,0.01,220418,F,1.0,1.3*15
$GPGGA,175925.800,5029.3133791,N,03025.1786113,E,5,14,1.2,191.452,M,26.200,M,,0000*5B
$GPRMC,175925.800,A,5029.3133791,N,03025.1786113,E,000.00,000.00,220418,,,F*6D
$GPVTG,000.00,T,,M,000.00,N,000.00,K,F*3A
$PSTI,030,175925.800,A,5029.3133791,N,03025.1786113,E,191.452,0.00,-0.01,0.01,220418,F,1.0,1.3*33
$GPGGA,175926.000,5029.3133789,N,03025.1786114,E,5,14,1.2,191.453,M,26.200,M,,0000*5F
$GPGLL,5029.3133789,N,03025.1786114,E,175926.000,A,F*52
$GPGSA,A,3,21,20,16,29,15,26,27,10,,,,,1.9,1.2,1.5*34
$GLGSA,A,3,70,86,77,76,85,71,,,,,,,1.9,1.2,1.5*22
$GPGSV,4,1,13,21,84,058,48,20,61,116,48,16,54,280,49,26,51,227,49*74
$GPGSV,4,2,13,04,46,202,46,27,28,297,45,29,27,112,46,10,20,189,39*7C
$GPGSV,4,3,13,15,15,094,44,193,12,050,36,13,11,061,42,07,03,348,46*43
$GPGSV,4,4,13,05,02,034,*4B
$GLGSV,3,1,10,86,56,309,51,85,52,068,49,70,46,099,37,76,32,256,43*6B
$GLGSV,3,2,10,77,25,325,42,69,24,031,,71,20,154,44,75,09,214,41*66
$GLGSV,3,3,10,87,04,281,41,84,04,090,33*60
$GPRMC,175926.000,A,5029.3133789,N,03025.1786114,E,000.00,000.00,220418,,,F*68
$GPVTG,000.00,T,,M,000.00,N,000.00,K,F*3A
$GPZDA,175926.000,22,04,2018,00,00*57
$GPGST,175926.000,0.534,0.423,0.216,24.3,0.396,0.263,0.561*57
$PSTI,030,175926.000,A,5029.3133789,N,03025.1786114,E,191.453,0.00,-0.00,0.01,220418,F,1.0,1.3*36
$PSTI,032,175926.000,220418,A,F,-825.115,4494.653,-5.469,4569.765,349.60,,,,,*0C
$GPGGA,175926.200,5029.3134460,N,03025.1785819,E,5,14,1.2,191.628,M,26.200,M,,0000*57
$GPRMC,175926.200,A,5029.3134460,N,03025.1785819,E,000.00,000.00,220418,,,F*6E
$GPVTG,000.00,T,,M,000.00,N,000.00,K,F*3A
$PSTI,030,175926.200,A,5029.3134460,N,03025.1785819,E,191.628,-0.00,0.00,0.01,220418,F,1.0,1.4*39
$GPGGA,175926.400,5029.3134455,N,03025.1785819,E,5,14,1.2,191.629,M,26.200,M,,0000*56
$GPRMC,175926.400,A,5029.3134455,N,03025.1785819,E,000.00,000.00,220418,,,F*6E
$GPVTG,000.00,T,,M,000.00,N,000.00,K,F*3A
$PSTI,030,175926.400,A,5029.3134455,N,03025.1785819,E,191.629,0.00,-0.01,0.01,220418,F,1.0,1.4*39
$GPGGA,175926.600,5029.3134456,N,03025.1785816,E,5,14,1.2,191.629,M,26.200,M,,0000*58
$GPRMC,175926.600,A,5029.3134456,N,03025.1785816,E,000.00,000.00,220418,,,F*60
$GPVTG,000.00,T,,M,000.00,N,000.00,K,F*3A
$PSTI,030,175926.600,A,5029.3134456,N,03025.1785816,E,191.629,-0.00,0.00,0.01,220418,F,1.0,1.4*36
$GPGGA,175926.800,5029.3134456,N,03025.1785814,E,5,14,1.2,191.630,M,26.200,M,,0000*5C
$GPRMC,175926.800,A,5029.3134456,N,03025.1785814,E,000.00,000.00,220418,,,F*6C
$GPVTG,000.00,T,,M,000.00,N,000.00,K,F*3A
$PSTI,030,175926.800,A,5029.3134456,N,03025.1785814,E,191.630,-0.00,-0.00,0.01,220418,F,1.0,1.4*1F
$GPGGA,175927.000,5029.3134455,N,03025.1785813,E,5,14,1.2,191.631,M,26.200,M,,0000*50
$GPGLL,5029.3134455,N,03025.1785813,E,175927.000,A,F*5B
$GPGSA,A,3,21,20,16,29,15,26,27,10,,,,,1.9,1.2,1.5*34
$GLGSA,A,3,70,86,77,76,85,71,,,,,,,1.9,1.2,1.5*22
$GPRMC,175927.000,A,5029.3134455,N,03025.1785813,E,000.00,000.00,220418,,,F*61
$GPVTG,000.00,T,,M,000.00,N,000.00,K,F*3A
$GPZDA,175927.000,22,04,2018,00,00*56
$GPGST,175927.000,0.477,0.379,0.193,24.3,0.354,0.235,0.501*5D
$PSTI,030,175927.000,A,5029.3134455,N,03025.1785813,E,191.631,-0.00,-0.00,0.01,220418,F,1.0,1.4*13
$PSTI,032,175927.000,220418,A,F,-825.151,4494.776,-5.291,4569.892,349.60,,,,,*0D
$GPGGA,175927.200,5029.3134888,N,03025.1785450,E,5,14,1.2,191.838,M,26.200,M,,0000*52
$GPRMC,175927.200,A,5029.3134888,N,03025.1785450,E,000.00,000.00,220418,,,F*64
$GPVTG,000.00,T,,M,000.00,N,000.00,K,F*3A
$PSTI,030,175927.200,A,5029.3134888,N,03025.1785450,E,191.838,-0.00,0.00,0.00,220418,F,1.0,1.4*3D
$GPGGA,175927.400,5029.3134886,N,03025.1785444,E,5,14,1.2,191.838,M,26.200,M,,0000*5F
$GPRMC,175927.400,A,5029.3134886,N,03025.1785444,E,000.00,000.00,220418,,,F*69
$GPVTG,000.00,T,,M,000.00,N,000.00,K,F*3A
$PSTI,030,175927.400,A,5029.3134886,N,03025.1785444,E,191.838,-0.01,-0.00,0.01,220418,F,1.0,1.4*1D
$GPGGA,175927.600,5029.3134881,N,03025.1785444,E,5,14,1.2,191.839,M,26.200,M,,0000*5B
$GPRMC,175927.600,A,5029.3134881,N,03025.1785444,E,000.00,000.00,220418,,,F*6C
$GPVTG,000.00,T,,M,000.00,N,000.00,K,F*3A
$PSTI,030,175927.600,A,5029.3134881,N,03025.1785444,E,191.839,-0.00,-0.01,0.01,220418,F,1.0,1.4*19
$GPGGA,175927.800,5029.3134881,N,03025.1785447,E,5,14,1.2,191.840,M,26.200,M,,0000*58
$GPRMC,175927.800,A,5029.3134881,N,03025.1785447,E,000.00,000.00,220418,,,F*61
$GPVTG,000.00,T,,M,000.00,N,000.00,K,F*3A
$PSTI,030,175927.800,A,5029.3134881,N,03025.1785447,E,191.840,0.00,-0.00,0.01,220418,F,1.0,1.4*36
$GPGGA,175928.000,5029.3134880,N,03025.1785441,E,5,14,1.2,191.840,M,26.200,M,,0000*58
$GPGLL,5029.3134880,N,03025.1785441,E,175928.000,A,F*5B
$GPGSA,A,3,21,20,16,29,15,26,27,10,,,,,1.9,1.2,1.5*34
$GLGSA,A,3,70,86,77,76,85,71,,,,,,,1.9,1.2,1.5*22
$GPRMC,175928.000,A,5029.3134880,N,03025.1785441,E,000.00,000.00,220418,,,F*61
$GPVTG,000.00,T,,M,000.00,N,000.00,K,F*3A
$GPZDA,175928.000,22,04,2018,00,00*59
$GPGST,175928.000,0.430,0.341,0.174,24.3,0.319,0.212,0.452*58
$PSTI,030,175928.000,A,5029.3134880,N,03025.1785441,E,191.840,-0.01,-0.00,0.00,220418,F,1.0,1.4*1B
$PSTI,032,175928.000,220418,A,F,-825.195,4494.855,-5.080,4569.978,349.60,,,,,*03
$GPGGA,175928.200,5029.3135302,N,03025.1785007,E,5,14,1.2,192.036,M,26.200,M,,0000*56
$GPRMC,175928.200,A,5029.3135302,N,03025.1785007,E,000.00,000.00,220418,,,F*65
$GPVTG,000.00,T,,M,000.00,N,000.00,K,F*3A
$PSTI,030,175928.200,A,5029.3135302,N,03025.1785007,E,192.036,-0.00,-0.00,0.00,220418,F,1.0,1.8*18
$GPGGA,175928.400,5029.3135301,N,03025.1785006,E,5,14,1.2,192.037,M,26.200,M,,0000*53
$GPRMC,175928.400,A,5029.3135301,N,03025.1785006,E,000.00,000.00,220418,,,F*61
$GPVTG,000.00,T,,M,000.00,N,000.00,K,F*3A
$PSTI,030,175928.400,A,5029.3135301,N,03025.1785006,E,192.037,-0.00,-0.00,0.01,220418,F,1.0,1.8*1C
$GPGGA,175928.600,5029.3135299,N,03025.1785004,E,5,14,1.2,192.038,M,26.200,M,,0000*5C
$GPRMC,175928.600,A,5029.3135299,N,03025.1785004,E,000.00,000.00,220418,,,F*61
$GPVTG,000.00,T,,M,000.00,N,000.00,K,F*3A
$PSTI,030,175928.600,A,5029.3135299,N,03025.1785004,E,192.038,-0.00,-0.00,0.01,220418,F,1.0,1.8*13
$GPGGA,175928.800,5029.3135298,N,03025.1785004,E,5,14,1.2,192.038,M,26.200,M,,0000*53
$GPRMC,175928.800,A,5029.3135298,N,03025.1785004,E,000.00,000.00,220418,,,F*6E
$GPVTG,000.00,T,,M,000.00,N,000.00,K,F*3A
$PSTI,030,175928.800,A,5029.3135298,N,03025.1785004,E,192.038,0.00,-0.00,0.00,220418,F,1.0,1.8*30
$GPGGA,175929.000,5029.3135298,N,03025.1785005,E,5,14,1.2,192.039,M,26.200,M,,0000*5A
$GPGLL,5029.3135298,N,03025.1785005,E,175929.000,A,F*5C
$GPGSA,A,3,21,20,16,29,15,26,27,10,,,,,1.9,1.2,1.5*34
$GLGSA,A,3,70,86,77,76,85,71,,,,,,,1.9,1.2,1.5*22
$GPGSV,4,1,13,21,84,058,48,20,61,116,48,16,54,280,49,26,51,227,49*74
$GPGSV,4,2,13,04,46,202,46,27,28,297,45,29,27,112,46,10,20,189,39*7C
$GPGSV,4,3,13,15,15,094,43,193,12,050,36,13,11,061,43,07,03,348,46*45
$GPGSV,4,4,13,05,02,034,*4B
$GLGSV,3,1,10,86,56,309,51,85,52,068,49,70,46,099,37,76,32,256,42*6A
$GLGSV,3,2,10,77,26,325,42,69,24,031,,71,20,154,44,75,09,214,41*65
$GLGSV,3,3,10,87,04,281,41,84,04,090,34*67
$GPRMC,175929.000,A,5029.3135298,N,03025.1785005,E,000.00,000.00,220418,,,F*66
$GPVTG,000.00,T,,M,000.00,N,000.00,K,F*3A
$GPZDA,175929.000,22,04,2018,00,00*58
$GPGST,175929.000,0.595,0.472,0.241,24.3,0.441,0.293,0.625*54
$PSTI,030,175929.000,A,5029.3135298,N,03025.1785005,E,192.039,0.00,-0.00,0.00,220418,F,1.0,1.8*39
$PSTI,032,175929.000,220418,A,F,-825.247,4494.933,-4.882,4570.063,349.60,,,,,*0F
$GPGGA,175929.200,5029.3136205,N,03025.1784785,E,5,14,1.2,192.157,M,26.200,M,,0000*58
$GPRMC,175929.200,A,5029.3136205,N,03025.1784785,E,000.00,000.00,220418,,,F*6D
$GPVTG,000.00,T,,M,000.00,N,000.00,K,F*3A
$PSTI,030,175929.200,A,5029.3136205,N,03025.1784785,E,192.157,-0.00,-0.00,0.00,220418,F,1.0,2.3*1E
$GPGGA,175929.400,5029.3136202,N,03025.1784779,E,5,14,1.2,192.157,M,26.200,M,,0000*5A
$GPRMC,175929.400,A,5029.3136202,N,03025.1784779,E,000.00,000.00,220418,,,F*6F
$GPVTG,000.00,T,,M,000.00,N,000.00,K,F*3A
$PSTI,030,175929.400,A,5029.3136202,N,03025.1784779,E,192.157,-0.01,-0.01,0.01,220418,F,1.0,2.3*1D
