.200,M,,0000*54
$GPRMC,182553.800,A,5029.3158929,N,03025.1757132,E,000.00,000.00,220418,,,A*60
$GPVTG,000.00,T,,M,000.00,N,000.00,K,A*3D
$PSTI,030,182553.800,A,5029.3158929,N,03025.1757132,E,171.065,-0.00,0.01,-0.04,220418,A,0.0,0.0*1B
$GPGGA,182554.000,5029.3155640,N,03025.1764242,E,1,11,0.9,173.599,M,26.200,M,,0000*56
$GPGLL,5029.3155640,N,03025.1764242,E,182554.000,A,A*5C
$GPGSA,A,3,27,21,29,10,15,,,,,,,,1.8,0.9,1.6*3D
$GLGSA,A,3,70,86,77,76,85,71,,,,,,,1.8,0.9,1.6*2A
$GPGSV,4,1,13,21,73,066,48,20,60,090,23,16,54,258,15,26,41,215,23*72
$GPGSV,4,2,13,27,39,300,48,10,33,189,45,04,33,197,43,15,21,083,45*7C
$GPGSV,4,3,13,29,17,119,44,13,14,050,40,193,10,051,35,07,05,338,45*4D
$GPGSV,4,4,13,08,02,302,*40
$GLGSV,3,1,09,86,66,333,51,70,50,077,39,85,42,084,47,71,34,149,45*67
$GLGSV,3,2,09,77,28,310,42,76,21,246,39,69,14,023,,87,14,290,41*64
$GLGSV,3,3,09,78,06,354,29*5C
$GPRMC,182554.000,A,5029.3155640,N,03025.1764242,E,000.00,000.00,220418,,,A*66
$GPVTG,000.00,T,,M,000.00,N,000.00,K,A*3D
$GPZDA,182554.000,22,04,2018,00,00*56
$GPGST,182554.000,9.372,7.169,4.472,13.0,7.057,4.646,14.635*69
$PSTI,030,182554.000,A,5029.3155640,N,03025.1764242,E,173.599,-0.00,0.01,-0.04,220418,A,0.0,0.0*19
$PSTI,032,182554.000,220418,V,,,,,,,,,,,*49
$GPGGA,182554.200,5029.3153649,N,03025.1769093,E,1,11,0.9,175.505,M,26.200,M,,0000*5B
$GPRMC,182554.200,A,5029.3153649,N,03025.1769093,E,000.00,000.00,220418,,,A*68
$GPVTG,000.00,T,,M,000.00,N,000.00,K,A*3D
$PSTI,030,182554.200,A,5029.3153649,N,03025.1769093,E,175.505,-0.01,0.01,-0.04,220418,A,0.0,0.0*15
$GPGGA,182554.400,5029.3152020,N,03025.1772556,E,1,11,0.9,177.016,M,26.200,M,,0000*56
$GPRMC,182554.400,A,5029.3152020,N,03025.1772556,E,000.00,000.00,220418,,,A*60
$GPVTG,000.00,T,,M,000.00,N,000.00,K,A*3D
$PSTI,030,182554.400,A,5029.3152020,N,03025.1772556,E,177.016,-0.00,0.01,-0.03,220418,A,0.0,0.0*1E
$GPGGA,182554.600,5029.3150619,N,03025.1775240,E,1,11,0.9,178.246,M,26.200,M,,0000*55
$GPRMC,182554.600,A,5029.3150619,N,03025.1775240,E,000.00,000.00,220418,,,A*6B
$GPVTG,000.00,T,,M,000.00,N,000.00,K,A*3D
$PSTI,030,182554.600,A,5029.3150619,N,03025.1775240,E,178.246,-0.00,0.00,-0.02,220418,A,0.0,0.0*1D
$GPGGA,182554.800,5029.3149567,N,03025.1776881,E,1,11,0.9,179.352,M,26.200,M,,0000*58
$GPRMC,182554.800,A,5029.3149567,N,03025.1776881,E,000.00,000.00,220418,,,A*63
$GPVTG,000.00,T,,M,000.00,N,000.00,K,A*3D
$PSTI,030,182554.800,A,5029.3149567,N,03025.1776881,E,179.352,-0.01,0.01,-0.03,220418,A,0.0,0.0*11
$GPGGA,182555.000,5029.3148557,N,03025.1778494,E,1,11,0.9,180.240,M,26.200,M,,0000*51
$GPGLL,5029.3148557,N,03025.1778494,E,182555.000,A,A*54
$GPGSA,A,3,27,21,29,10,15,,,,,,,,1.8,0.9,1.6*3D
$GLGSA,A,3,70,86,77,76,85,71,,,,,,,1.8,0.9,1.6*2A
$GPRMC,182555.000,A,5029.3148557,N,03025.1778494,E,000.00,000.00,220418,,,A*6E
$GPVTG,000.00,T,,M,000.00,N,000.00,K,A*3D
$GPZDA,182555.000,22,04,2018,00,00*57
$GPGST,182555.000,7.686,5.879,3.668,13.0,5.788,3.810,12.002*65
$PSTI,030,182555.000,A,5029.3148557,N,03025.1778494,E,180.240,0.00,-0.00,-0.02,220418,A,0.0,0.0*19
$PSTI,032,182555.000,220418,V,,,,,,,,,,,*48
$GPGGA,182555.200,5029.3147683,N,03025.1779838,E,1,12,0.9,181.027,M,26.200,M,,0000*5C
$GPRMC,182555.200,A,5029.3147683,N,03025.1779838,E,000.00,000.00,220418,,,A*62
$GPVTG,000.00,T,,M,000.00,N,000.00,K,A*3D
$PSTI,030,182555.200,A,5029.3147683,N,03025.1779838,E,181.027,0.00,0.01,-0.02,220418,A,0.0,0.0*3B
$GPGGA,182555.400,5029.3146895,N,03025.1780928,E,1,12,0.9,181.629,M,26.200,M,,0000*5C
$GPRMC,182555.400,A,5029.3146895,N,03025.1780928,E,000.00,000.00,220418,,,A*6A
$GPVTG,000.00,T,,M,000.00,N,000.00,K,A*3D
$PSTI,030,182555.400,A,5029.3146895,N,03025.1780928,E,181.629,-0.00,0.00,-0.01,220418,A,0.0,0.0*14
$GPGGA,182555.600,5029.3146109,N,03025.1781675,E,1,12,0.9,182.140,M,26.200,M,,0000*5F
$GPRMC,182555.600,A,5029.3146109,N,03025.1781675,E,000.00,000.00,220418,,,A*62
$GPVTG,000.00,T,,M,000.00,N,000.00,K,A*3D
$PSTI,030,182555.600,A,5029.3146109,N,03025.1781675,E,182.140,-0.01,0.02,-0.02,220418,A,0.0,0.0*17
$GPGGA,182555.800,5029.3145297,N,03025.1782414,E,1,12,0.9,182.614,M,26.200,M,,0000*56
$GPRMC,182555.800,A,5029.3145297,N,03025.1782414,E,000.00,000.00,220418,,,A*6D
$GPVTG,000.00,T,,M,000.00,N,000.00,K,A*3D
$PSTI,030,182555.800,A,5029.3145297,N,03025.1782414,E,182.614,-0.01,0.00,-0.02,220418,A,0.0,0.0*1C
$GPGGA,182556.000,5029.3144458,N,03025.1783218,E,1,12,0.9,183.051,M,26.200,M,,0000*54
$GPGLL,5029.3144458,N,03025.1783218,E,182556.000,A,A*53
$GPGSA,A,3,16,27,21,29,10,15,,,,,,,1.7,0.9,1.5*36
$GLGSA,A,3,70,86,77,76,85,71,,,,,,,1.7,0.9,1.5*26
$GPRMC,182556.000,A,5029.3144458,N,03025.1783218,E,000.00,000.00,220418,,,A*69
$GPVTG,000.00,T,,M,000.00,N,000.00,K,A*3D
$GPZDA,182556.000,22,04,2018,00,00*54
$GPGST,182556.000,6.676,4.938,3.071,8.9,4.902,3.129,9.865*6D
$PSTI,030,182556.000,A,5029.3144458,N,03025.1783218,E,183.051,-0.01,-0.00,-0.02,220418,A,0.0,0.0*33
$PSTI,032,182556.000,220418,V,,,,,,,,,,,*4B
$GPGGA,182556.200,5029.3143826,N,03025.1783376,E,1,12,0.9,183.420,M,26.200,M,,0000*5F
$GPRMC,182556.200,A,5029.3143826,N,03025.1783376,E,000.00,000.00,220418,,,A*60
$GPVTG,000.00,T,,M,000.00,N,000.00,K,A*3D
$PSTI,030,182556.200,A,5029.3143826,N,03025.1783376,E,183.420,-0.00,0.01,-0.01,220418,A,0.0,0.0*16
$GPGGA,182556.400,5029.3142819,N,03025.1783458,E,1,12,0.9,183.814,M,26.200,M,,0000*54
$GPRMC,182556.400,A,5029.3142819,N,03025.1783458,E,000.00,000.00,220418,,,A*60
$GPVTG,000.00,T,,M,000.00,N,000.00,K,A*3D
$PSTI,030,182556.400,A,5029.3142819,N,03025.1783458,E,183.814,-0.00,0.00,-0.00,220418,A,0.0,0.0*1D
$GPGGA,182556.600,5029.3142013,N,03025.1783900,E,1,12,0.9,184.215,M,26.200,M,,0000*58
$GPRMC,182556.600,A,5029.3142013,N,03025.1783900,E,000.00,000.00,220418,,,A*60
$GPVTG,000.00,T,,M,000.00,N,000.00,K,A*3D
$PSTI,030,182556.600,A,5029.3142013,N,03025.1783900,E,184.215,-0.00,0.01,-0.01,220418,A,0.0,0.0*11
$GPGGA,182556.800,5029.3141554,N,03025.1784619,E,1,12,0.9,184.646,M,26.200,M,,0000*51
$GPRMC,182556.800,A,5029.3141554,N,03025.1784619,E,000.00,000.00,220418,,,A*6B
$GPVTG,000.00,T,,M,000.00,N,000.00,K,A*3D
$PSTI,030,182556.800,A,5029.3141554,N,03025.1784619,E,184.646,-0.01,0.01,-0.01,220418,A,0.0,0.0*19
$GPGGA,182557.000,5029.3141005,N,03025.1785410,E,1,12,0.9,185.015,M,26.200,M,,0000*52
$GPGLL,5029.3141005,N,03025.1785410,E,182557.000,A,A*53
$GPGSA,A,3,16,27,21,29,10,15,,,,,,,1.7,0.9,1.5*36
$GLGSA,A,3,70,86,77,76,85,71,,,,,,,1.7,0.9,1.5*26
$GPGSV,4,1,13,21,73,066,48,20,60,090,23,16,54,258,48,26,41,215,23*7A
$GPGSV,4,2,13,27,39,300,48,10,33,189,45,04,33,197,43,15,21,083,44*7D
$GPGSV,4,3,13,29,17,119,44,13,14,050,40,193,10,051,35,07,05,338,46*4E
$GPGSV,4,4,13,08,02,302,*40
$GLGSV,3,1,09,86,66,333,51,70,50,077,38,85,42,084,48,71,34,149,45*69
$GLGSV,3,2,09,77,28,310,41,76,21,246,39,69,14,023,,87,14,290,42*64
$GLGSV,3,3,09,78,06,354,31*55
$GPRMC,182557.000,A,5029.3141005,N,03025.1785410,E,000.00,000.00,220418,,,A*69
$GPVTG,000.00,T,,M,000.00,N,000.00,K,A*3D
$GPZDA,182557.000,22,04,2018,00,00*55
$GPGST,182557.000,5.986,4.428,2.754,8.9,4.395,2.805,8.844*62
$PSTI,030,182557.000,A,5029.3141005,N,03025.1785410,E,185.015,0.00,0.00,0.00,220418,A,0.0,0.0*1B
$PSTI,032,182557.000,220418,V,,,,,,,,,,,*4A
$GPGGA,182557.200,5029.3140838,N,03025.1786008,E,1,12,0.9,185.332,M,26.200,M,,0000*5F
$GPRMC,182557.200,A,5029.3140838,N,03025.1786008,E,000.00,000.00,220418,,,A*62
$GPVTG,000.00,T,,M,000.00,N,000.00,K,A*3D
$PSTI,030,182557.200,A,5029.3140838,N,03025.1786008,E,185.332,-0.01,0.01,-0.02,220418,A,0.0,0.0*14
$GPGGA,182557.400,5029.3140969,N,03025.1786716,E,1,12,0.9,185.772,M,26.200,M,,0000*54
$GPRMC,182557.400,A,5029.3140969,N,03025.1786716,E,000.00,000.00,220418,,,A*69
$GPVTG,000.00,T,,M,000.00,N,000.00,K,A*3D
$PSTI,030,182557.400,A,5029.3140969,N,03025.1786716,E,185.772,0.00,-0.01,-0.01,220418,A,0.0,0.0*1D
$GPGGA,182557.600,5029.3140734,N,03025.1787425,E,1,12,0.9,186.147,M,26.200,M,,0000*51
$GPRMC,182557.600,A,5029.3140734,N,03025.1787425,E,000.00,000.00,220418,,,A*6F
$GPVTG,000.00,T,,M,000.00,N,000.00,K,A*3D
$PSTI,030,182557.600,A,5029.3140734,N,03025.1787425,E,186.147,-0.01,0.00,-0.00,220418,A,0.0,0.0*19
$GPGGA,182557.800,5029.3140431,N,03025.1787839,E,1,12,0.9,186.454,M,26.200,M,,0000*5F
$GPRMC,182557.800,A,5029.3140431,N,03025.1787839,E,000.00,000.00,220418,,,A*66
$GPVTG,000.00,T,,M,000.00,N,000.00,K,A*3D
$PSTI,030,182557.800,A,5029.3140431,N,03025.1787839,E,186.454,-0.00,0.00,-0.01,220418,A,0.0,0.0*17
$GPGGA,182558.000,5029.3140497,N,03025.1788129,E,1,12,0.9,186.711,M,26.200,M,,0000*51
$GPGLL,5029.3140497,N,03025.1788129,E,182558.000,A,A*50
$GPGSA,A,3,16,27,21,29,10,15,,,,,,,1.7,0.9,1.5*36
$GLGSA,A,3,70,86,77,76,85,71,,,,,,,1.7,0.9,1.5*26
$GPRMC,182558.000,A,5029.3140497,N,03025.1788129,E,000.00,000.00,220418,,,A*6A
$GPVTG,000.00,T,,M,000.00,N,000.00,K,A*3D
$GPZDA,182558.000,22,04,2018,00,00*5A
$GPGST,182558.000,5.479,4.053,2.521,8.9,4.023,2.568,8.095*64
$PSTI,030,182558.000,A,5029.3140497,N,03025.1788129,E,186.711,0.00,0.00,0.00,220418,A,0.0,0.0*18
$PSTI,032,182558.000,220418,V,,,,,,,,,,,*45
$GPGGA,182558.200,5029.3140777,N,03025.1788352,E,1,12,0.9,186.951,M,26.200,M,,0000*5A
$GPRMC,182558.200,A,5029.3140777,N,03025.1788352,E,000.00,000.00,220418,,,A*6B
$GPVTG,000.00,T,,M,000.00,N,000.00,K,A*3D
$PSTI,030,182558.200,A,5029.3140777,N,03025.1788352,E,186.951,-0.00,0.00,-0.01,220418,A,0.0,0.0*12
$GPGGA,182558.400,5029.3141167,N,03025.1788453,E,1,12,0.9,187.142,M,26.200,M,,0000*57
$GPRMC,182558.400,A,5029.3141167,N,03025.1788453,E,000.00,000.00,220418,,,A*6D
$GPVTG,000.00,T,,M,000.00,N,000.00,K,A*3D
$PSTI,030,182558.400,A,5029.3141167,N,03025.1788453,E,187.142,-0.00,0.01,0.00,220418,A,0.0,0.0*32
$GPGGA,182558.600,5029.3141486,N,03025.1788752,E,1,12,0.9,187.341,M,26.200,M,,0000*5C
$GPRMC,182558.600,A,5029.3141486,N,03025.1788752,E,000.00,000.00,220418,,,A*67
$GPVTG,000.00,T,,M,000.00,N,000.00,K,A*3D
$PSTI,030,182558.600,A,5029.3141486,N,03025.1788752,E,187.341,0.00,0.01,0.01,220418,A,0.0,0.0*15
$GPGGA,182558.800,5029.3141841,N,03025.1788976,E,1,12,0.9,187.538,M,26.200,M,,0000*55
$GPRMC,182558.800,A,5029.3141841,N,03025.1788976,E,000.00,000.00,220418,,,A*66
$GPVTG,000.00,T,,M,000.00,N,000.00,K,A*3D
$PSTI,030,182558.800,A,5029.3141841,N,03025.1788976,E,187.538,0.00,0.00,-0.00,220418,A,0.0,0.0*31
$GPGGA,182559.000,5029.3142106,N,03025.1789233,E,1,12,0.9,187.748,M,26.200,M,,0000*5B
$GPGLL,5029.3142106,N,03025.1789233,E,182559.000,A,A*57
$GPGSA,A,3,16,27,21,29,10,15,,,,,,,1.7,0.9,1.5*36
$GLGSA,A,3,70,86,77,76,85,71,,,,,,,1.7,0.9,1.5*26
$GPRMC,182559.000,A,5029.3142106,N,03025.1789233,E,000.00,000.00,220418,,,A*6D
$GPVTG,000.00,T,,M,000.00,N,000.00,K,A*3D
$GPZDA,182559.000,22,04,2018,00,00*5B
$GPGST,182559.000,2.542,1.880,1.169,8.9,1.866,1.191,3.755*6E
$PSTI,030,182559.000,A,5029.3142106,N,03025.1789233,E,187.748,0.00,-0.01,0.01,220418,A,0.0,0.0*3F
$PSTI,032,182559.000,220418,V,,,,,,,,,,,*44
$GPGGA,182559.200,5029.3142458,N,03025.1789522,E,1,12,0.9,187.967,M,26.200,M,,0000*53
$GPRMC,182559.200,A,5029.3142458,N,03025.1789522,E,000.00,000.00,220418,,,A*66
$GPVTG,000.00,T,,M,000.00,N,000.00,K,A*3D
$PSTI,030,182559.200,A,5029.3142458,N,03025.1789522,E,187.967,0.00,0.01,-0.00,220418,A,0.0,0.0*36
$GPGGA,182559.400,5029.3142826,N,03025.1789872,E,1,12,0.9,188.176,M,26.200,M,,0000*5F
$GPRMC,182559.400,A,5029.3142826,N,03025.1789872,E,000.00,000.00,220418,,,A*6D
$GPVTG,000.00,T,,M,000.00,N,000.00,K,A*3D
$PSTI,030,182559.400,A,5029.3142826,N,03025.1789872,E,188.176,-0.01,0.01,-0.00,220418,A,0.0,0.0*16
$GPGGA,182559.600,5029.3143153,N,03025.1790130,E,1,12,0.9,188.393,M,26.200,M,,0000*59
$GPRMC,182559.600,A,5029.3143153,N,03025.1790130,E,000.00,000.00,220418,,,A*62
$GPVTG,000.00,T,,M,000.00,N,000.00,K,A*3D
$PSTI,030,182559.600,A,5029.3143153,N,03025.1790130,E,188.393,0.00,0.01,0.00,220418,A,0.0,0.0*11
$GPGGA,182559.800,5029.3143430,N,03025.1790296,E,1,12,0.9,188.593,M,26.200,M,,0000*5E
$GPRMC,182559.800,A,5029.3143430,N,03025.1790296,E,000.00,000.00,220418,,,A*63
$GPVTG,000.00,T,,M,000.00,N,000.00,K,A*3D
$PSTI,030,182559.800,A,5029.3143430,N,03025.1790296,E,188.593,-0.01,-0.00,-0.00,220418,A,0.0,0.0*3B
$GPGGA,182600.000,5029.3143827,N,03025.1790296,E,1,12,0.9,188.769,M,26.200,M,,0000*54
$GPGLL,5029.3143827,N,03025.1790296,E,182600.000,A,A*54
$GPGSA,A,3,16,27,21,29,10,15,,,,,,,1.7,0.9,1.5*36
$GLGSA,A,3,70,86,77,76,85,71,,,,,,,1.7,0.9,1.5*26
$GPGSV,4,1,13,21,73,066,48,20,60,090,23,16,54,258,48,26,41,215,23*7A
$GPGSV,4,2,13,27,39,300,48,10,33,189,45,04,33,197,43,15,21,083,44*7D
$GPGSV,4,3,13,29,17,119,44,13,14,050,40,193,10,051,35,07,05,338,46*4E
$GPGSV,4,4,13,08,02,302,*40
$GLGSV,3,1,09,86,66,333,51,70,50,077,38,85,42,084,48,71,34,149,44*68
$GLGSV,3,2,09,77,28,310,41,76,21,246,40,69,14,023,,87,14,290,42*6A
$GLGSV,3,3,09,78,06,354,32*56
$GPRMC,182600.000,A,5029.3143827,N,03025.1790296,E,000.00,000.00,220418,,,A*6E
$GPVTG,000.00,T,,M,000.00,N,000.00,K,A*3D
$GPZDA,182600.000,22,04,2018,00,00*54
$GPGST,182600.000,1.040,0.769,0.478,8.8,0.763,0.487,1.536*64
$PSTI,030,182600.000,A,5029.3143827,N,03025.1790296,E,188.769,0.00,-0.01,0.00,220418,A,0.0,0.0*31
$PSTI,032,182600.000,220418,V,,,,,,,,,,,*4B
$GPGGA,182600.200,5029.3144129,N,03025.1790211,E,1,12,0.9,188.915,M,26.200,M,,0000*5C
$GPRMC,182600.200,A,5029.3144129,N,03025.1790211,E,000.00,000.00,220418,,,A*63
$GPVTG,000.00,T,,M,000.00,N,000.00,K,A*3D
$PSTI,030,182600.200,A,5029.3144129,N,03025.1790211,E,188.915,-0.01,0.00,0.01,220418,A,0.0,0.0*38
$GPGGA,182600.400,5029.3144499,N,03025.1790179,E,1,12,0.9,189.076,M,26.200,M,,0000*54
$GPRMC,182600.400,A,5029.3144499,N,03025.1790179,E,000.00,000.00,220418,,,A*66
$GPVTG,000.00,T,,M,000.00,N,000.00,K,A*3D
$PSTI,030,182600.400,A,5029.3144499,N,03025.1790179,E,189.076,0.00,0.00,-0.01,220418,A,0.0,0.0*31
$GPGGA,182600.600,5029.3144710,N,03025.1789983,E,1,12,0.9,189.200,M,26.200,M,,0000*52
$GPRMC,182600.600,A,5029.3144710,N,03025.1789983,E,000.00,000.00,220418,,,A*63
$GPVTG,000.00,T,,M,000.00,N,000.00,K,A*3D
$PSTI,030,182600.600,A,5029.3144710,N,03025.1789983,E,189.200,0.00,0.01,0.00,220418,A,0.0,0.0*1A
$GPGGA,182600.800,5029.3144993,N,03025.1789962,E,1,12,0.9,189.333,M,26.200,M,,0000*57
$GPRMC,182600.800,A,5029.3144993,N,03025.1789962,E,000.00,000.00,220418,,,A*67
$GPVTG,000.00,T,,M,000.00,N,000.00,K,A*3D
$PSTI,030,182600.800,A,5029.3144993,N,03025.1789962,E,189.333,-0.01,0.01,0.01,220418,A,0.0,0.0*32
$GPGGA,182601.000,5029.3145364,N,03025.1790029,E,1,12,0.9,189.504,M,26.200,M,,0000*51
$GPGLL,5029.3145364,N,03025.1790029,E,182601.000,A,A*59
$GPGSA,A,3,16,27,21,29,10,15,,,,,,,1.7,0.9,1.5*36
$GLGSA,A,3,70,86,77,76,85,71,,,,,,,1.7,0.9,1.5*26
$GPRMC,182601.000,A,5029.3145364,N,03025.1790029,E,000.00,000.00,220418,,,A*63
$GPVTG,000.00,T,,M,000.00,N,000.00,K,A*3D
$GPZDA,182601.000,22,04,2018,00,00*55
$GPGST,182601.000,0.986,0.729,0.453,8.8,0.724,0.462,1.456*65
$PSTI,030,182601.000,A,5029.3145364,N,03025.1790029,E,189.504,0.00,-0.00,-0.01,220418,A,0.0,0.0*19
$PSTI,032,182601.000,220418,V,,,,,,,,,,,*4A
$GPGGA,182601.200,5029.3145686,N,03025.1790027,E,1,12,0.9,189.661,M,26.200,M,,0000*54
$GPRMC,182601.200,A,5029.3145686,N,03025.1790027,E,000.00,000.00,220418,,,A*66
$GPVTG,000.00,T,,M,000.00,N,000.00,K,A*3D
$PSTI,030,182601.200,A,5029.3145686,N,03025.1790027,E,189.661,-0.01,-0.00,-0.00,220418,A,0.0,0.0*31
$GPGGA,182601.400,5029.3146099,N,03025.1789980,E,1,12,0.9,189.832,M,26.200,M,,0000*5D
$GPRMC,182601.400,A,5029.3146099,N,03025.1789980,E,000.00,000.00,220418,,,A*67
$GPVTG,000.00,T,,M,000.00,N,000.00,K,A*3D
$PSTI,030,182601.400,A,5029.3146099,N,03025.1789980,E,189.832,0.00,0.01,0.00,220418,A,0.0,0.0*15
$GPGGA,182601.600,5029.3146559,N,03025.1789851,E,1,12,0.9,189.988,M,26.200,M,,0000*5B
$GPRMC,182601.600,A,5029.3146559,N,03025.1789851,E,000.00,000.00,220418,,,A*61
$GPVTG,000.00,T,,M,000.00,N,000.00,K,A*3D
$PSTI,030,182601.600,A,5029.3146559,N,03025.1789851,E,189.988,-0.01,0.00,-0.00,220418,A,0.0,0.0*13
$GPGGA,182601.800,5029.3146967,N,03025.1789692,E,1,12,0.9,190.123,M,26.200,M,,0000*54
$GPRMC,182601.800,A,5029.3146967,N,03025.1789692,E,000.00,000.00,220418,,,A*6F
$GPVTG,000.00,T,,M,000.00,N,000.00,K,A*3D
$PSTI,030,182601.800,A,5029.3146967,N,03025.1789692,E,190.123,0.00,-0.00,0.02,220418,A,0.0,0.0*32
$GPGGA,182602.000,5029.3147282,N,03025.1789553,E,1,12,0.9,190.255,M,26.200,M,,0000*52
$GPGLL,5029.3147282,N,03025.1789553,E,182602.000,A,A*51
$GPGSA,A,3,16,27,21,29,10,15,,,,,,,1.7,0.9,1.5*36
$GLGSA,A,3,70,86,77,76,85,71,,,,,,,1.7,0.9,1.5*26
$GPRMC,182602.000,A,5029.3147282,N,03025.1789553,E,000.00,000.00,220418,,,A*6B
$GPVTG,000.00,T,,M,000.00,N,000.00,K,A*3D
$GPZDA,182602.000,22,04,2018,00,00*56
$GPGST,182602.000,0.971,0.718,0.447,8.8,0.713,0.455,1.434*6D
$PSTI,030,182602.000,A,5029.3147282,N,03025.1789553,E,190.255,0.00,0.00,0.01,220418,A,0.0,0.0*1A
$PSTI,032,182602.000,220418,V,,,,,,,,,,,*49
$GPGGA,182602.200,5029.3147484,N,03025.1789347,E,1,12,0.9,190.386,M,26.200,M,,0000*5C
$GPRMC,182602.200,A,5029.3147484,N,03025.1789347,E,000.00,000.00,220418,,,A*6A
$GPVTG,000.00,T,,M,000.00,N,000.00,K,A*3D
$PSTI,030,182602.200,A,5029.3147484,N,03025.1789347,E,190.386,0.00,-0.00,0.02,220418,A,0.0,0.0*3A
$GPGGA,182602.400,5029.3147699,N,03025.1789116,E,1,12,0.9,190.506,M,26.200,M,,0000*5C
$GPRMC,182602.400,A,5029.3147699,N,03025.1789116,E,000.00,000.00,220418,,,A*64
$GPVTG,000.00,T,,M,000.00,N,000.00,K,A*3D
$PSTI,030,182602.400,A,5029.3147699,N,03025.1789116,E,190.506,-0.00,-0.01,0.00,220418,A,0.0,0.0*14
$GPGGA,182602.600,5029.3147918,N,03025.1788879,E,1,12,0.9,190.628,M,26.200,M,,0000*56
$GPRMC,182602.600,A,5029.3147918,N,03025.1788879,E,000.00,000.00,220418,,,A*61
$GPVTG,000.00,T,,M,000.00,N,000.00,K,A*3D
$PSTI,030,182602.600,A,5029.3147918,N,03025.1788879,E,190.628,0.00,-0.00,0.01,220418,A,0.0,0.0*33
$GPGGA,182602.800,5029.3148106,N,03025.1788605,E,1,12,0.9,190.730,M,26.200,M,,0000*5D
$GPRMC,182602.800,A,5029.3148106,N,03025.1788605,E,000.00,000.00,220418,,,A*62
$GPVTG,000.00,T,,M,000.00,N,000.00,K,A*3D
$PSTI,030,182602.800,A,5029.3148106,N,03025.1788605,E,190.730,-0.00,0.00,0.02,220418,A,0.0,0.0*3B
$GPGGA,182603.000,5029.3148262,N,03025.1788361,E,1,12,0.9,190.827,M,26.200,M,,0000*5B
$GPGLL,5029.3148262,N,03025.1788361,E,182603.000,A,A*57
$GPGSA,A,3,16,27,21,29,10,15,,,,,,,1.7,0.9,1.5*36
$GLGSA,A,3,70,86,77,76,85,71,,,,,,,1.7,0.9,1.5*26
$GPGSV,4,1,13,21,73,066,48,20,60,090,23,16,54,258,48,26,41,215,23*7A
$GPGSV,4,2,13,27,39,300,48,10,33,189,46,04,33,197,43,15,21,083,44*7E
$GPGSV,4,3,13,29,17,119,44,13,14,050,40,193,10,051,35,07,05,338,46*4E
$GPGSV,4,4,13,08,02,302,*40
$GLGSV,3,1,09,86,66,333,50,70,50,077,38,85,42,084,48,71,34,149,45*68
$GLGSV,3,2,09,77,28,310,41,76,21,246,40,69,14,023,,87,14,290,42*6A
$GLGSV,3,3,09,78,06,354,29*5C
$GPRMC,182603.000,A,5029.3148262,N,03025.1788361,E,000.00,000.00,220418,,,A*6D
$GPVTG,000.00,T,,M,000.00,N,000.00,K,A*3D
$GPZDA,182603.000,22,04,2018,00,00*57
$GPGST,182603.000,0.945,0.699,0.435,8.8,0.694,0.443,1.396*60
$PSTI,030,182603.000,A,5029.3148262,N,03025.1788361,E,190.827,-0.00,-0.00,0.01,220418,A,0.0,0.0*13
$PSTI,032,182603.000,220418,V,,,,,,,,,,,*48
$GPGGA,182603.200,5029.3148451,N,03025.1788086,E,1,12,0.9,190.918,M,26.200,M,,0000*58
$GPRMC,182603.200,A,5029.3148451,N,03025.1788086,E,000.00,000.00,220418,,,A*63
$GPVTG,000.00,T,,M,000.00,N,000.00,K,A*3D
$PSTI,030,182603.200,A,5029.3148451,N,03025.1788086,E,190.918,-0.00,0.01,0.00,220418,A,0.0,0.0*3D
$GPGGA,182603.400,5029.3148577,N,03025.1787746,E,1,12,0.9,191.007,M,26.200,M,,0000*59
$GPRMC,182603.400,A,5029.3148577,N,03025.1787746,E,000.00,000.00,220418,,,A*64
$GPVTG,000.00,T,,M,000.00,N,000.00,K,A*3D
$PSTI,030,182603.400,A,5029.3148577,N,03025.1787746,E,191.007,-0.00,0.00,0.00,220418,A,0.0,0.0*3D
$GPGGA,182603.600,5029.3148673,N,03025.1787470,E,1,12,0.9,191.098,M,26.200,M,,0000*5C
$GPRMC,182603.600,A,5029.3148673,N,03025.1787470,E,000.00,000.00,220418,,,A*67
$GPVTG,000.00,T,,M,000.00,N,000.00,K,A*3D
$PSTI,030,182603.600,A,5029.3148673,N,03025.1787470,E,191.098,0.00,-0.00,0.02,220418,A,0.0,0.0*3A
$GPGGA,182603.800,5029.3148634,N,03025.1787260,E,1,12,0.9,191.174,M,26.200,M,,0000*55
$GPRMC,182603.800,A,5029.3148634,N,03025.1787260,E,000.00,000.00,220418,,,A*6D
$GPVTG,000.00,T,,M,000.00,N,000.00,K,A*3D
$PSTI,030,182603.800,A,5029.3148634,N,03025.1787260,E,191.174,0.00,0.01,-0.00,220418,A,0.0,0.0*30
$GPGGA,182604.000,5029.3148564,N,03025.1787027,E,1,12,0.9,191.239,M,26.200,M,,0000*57
$GPGLL,5029.3148564,N,03025.1787027,E,182604.000,A,A*5F
$GPGSA,A,3,16,27,21,29,10,15,,,,,,,1.7,0.9,1.5*36
$GLGSA,A,3,70,86,77,76,85,71,,,,,,,1.7,0.9,1.5*26
$GPRMC,182604.000,A,5029.3148564,N,03025.1787027,E,000.00,000.00,220418,,,A*65
$GPVTG,000.00,T,,M,000.00,N,000.00,K,A*3D
$GPZDA,182604.000,22,04,2018,00,00*50
$GPGST,182604.000,0.890,0.659,0.410,8.8,0.654,0.417,1.315*63
$PSTI,030,182604.000,A,5029.3148564,N,03025.1787027,E,191.239,-0.01,0.00,-0.01,220418,A,0.0,0.0*1E
$PSTI,032,182604.000,220418,V,,,,,,,,,,,*4F
$GPGGA,182604.200,5029.3148388,N,03025.1786835,E,1,12,0.9,191.287,M,26.200,M,,0000*5E
$GPRMC,182604.200,A,5029.3148388,N,03025.1786835,E,000.00,000.00,220418,,,A*69
$GPVTG,000.00,T,,M,000.00,N,000.00,K,A*3D
$PSTI,030,182604.200,A,5029.3148388,N,03025.1786835,E,191.287,0.00,-0.00,-0.00,220418,A,0.0,0.0*17
$GPGGA,182604.400,5029.3148175,N,03025.1786630,E,1,12,0.9,191.323,M,26.200,M,,0000*5C
$GPRMC,182604.400,A,5029.3148175,N,03025.1786630,E,000.00,000.00,220418,,,A*64
$GPVTG,000.00,T,,M,000.00,N,000.00,K,A*3D
$PSTI,030,182604.400,A,5029.3148175,N,03025.1786630,E,191.323,-0.00,0.01,0.00,220418,A,0.0,0.0*39
$GPGGA,182604.600,5029.3147931,N,03025.1786550,E,1,12,0.9,191.357,M,26.200,M,,0000*5F
$GPRMC,182604.600,A,5029.3147931,N,03025.1786550,E,000.00,000.00,220418,,,A*64
$GPVTG,000.00,T,,M,000.00,N,000.00,K,A*3D
$PSTI,030,182604.600,A,5029.3147931,N,03025.1786550,E,191.357,-0.00,0.00,0.00,220418,A,0.0,0.0*3B
$GPGGA,182604.800,5029.3147670,N,03025.1786538,E,1,12,0.9,191.374,M,26.200,M,,0000*54
$GPRMC,182604.800,A,5029.3147670,N,03025.1786538,E,000.00,000.00,220418,,,A*6E
$GPVTG,000.00,T,,M,000.00,N,000.00,K,A*3D
$PSTI,030,182604.800,A,5029.3147670,N,03025.1786538,E,191.374,-0.00,0.00,-0.00,220418,A,0.0,0.0*1D
$GPGGA,182605.000,5029.3147464,N,03025.1786528,E,1,12,0.9,191.367,M,26.200,M,,0000*59
$GPGLL,5029.3147464,N,03025.1786528,E,182605.000,A,A*5B
$GPGSA,A,3,16,27,21,29,10,15,,,,,,,1.7,0.9,1.5*36
$GLGSA,A,3,70,86,77,76,85,71,,,,,,,1.7,0.9,1.5*26
$GPRMC,182605.000,A,5029.3147464,N,03025.1786528,E,000.00,000.00,220418,,,A*61
$GPVTG,000.00,T,,M,000.00,N,000.00,K,A*3D
$GPZDA,182605.000,22,04,2018,00,00*51
$GPGST,182605.000,0.829,0.613,0.381,8.8,0.609,0.388,1.224*6B
$PSTI,030,182605.000,A,5029.3147464,N,03025.1786528,E,191.367,-0.00,0.00,0.01,220418,A,0.0,0.0*3C
$PSTI,032,182605.000,220418,V,,,,,,,,,,,*4E
$GPGGA,182605.200,5029.3147236,N,03025.1786516,E,1,12,0.9,191.357,M,26.200,M,,0000*54
$GPRMC,182605.200,A,5029.3147236,N,03025.1786516,E,000.00,000.00,220418,,,A*6F
$GPVTG,000.00,T,,M,000.00,N,000.00,K,A*3D
$PSTI,030,182605.200,A,5029.3147236,N,03025.1786516,E,191.357,-0.00,-0.00,-0.00,220418,A,0.0,0.0*30
$GPGGA,182605.400,5029.3147027,N,03025.1786429,E,1,12,0.9,191.337,M,26.200,M,,0000*5B
$GPRMC,182605.400,A,5029.3147027,N,03025.1786429,E,000.00,000.00,220418,,,A*66
$GPVTG,000.00,T,,M,000.00,N,000.00,K,A*3D
$PSTI,030,182605.400,A,5029.3147027,N,03025.1786429,E,191.337,-0.01,0.00,0.00,220418,A,0.0,0.0*3E
$GPGGA,182605.600,5029.3146867,N,03025.1786376,E,1,12,0.9,191.307,M,26.200,M,,0000*5A
$GPRMC,182605.600,A,5029.3146867,N,03025.1786376,E,000.00,000.00,220418,,,A*64
$GPVTG,000.00,T,,M,000.00,N,000.00,K,A*3D
$PSTI,030,182605.600,A,5029.3146867,N,03025.1786376,E,191.307,-0.00,-0.00,0.00,220418,A,0.0,0.0*13
$GPGGA,182605.800,5029.3146684,N,03025.1786280,E,1,12,0.9,191.263,M,26.200,M,,0000*5C
$GPRMC,182605.800,A,5029.3146684,N,03025.1786280,E,000.00,000.00,220418,,,A*61
$GPVTG,000.00,T,,M,000.00,N,000.00,K,A*3D
$PSTI,030,182605.800,A,5029.3146684,N,03025.1786280,E,191.263,-0.00,-0.00,-0.00,220418,A,0.0,0.0*38
$GPGGA,182606.000,5029.3146559,N,03025.1786205,E,1,12,0.9,191.220,M,26.200,M,,0000*5E
$GPGLL,5029.3146559,N,03025.1786205,E,182606.000,A,A*5E
$GPGSA,A,3,16,27,21,29,10,15,,,,,,,1.7,0.9,1.5*36
$GLGSA,A,3,70,86,77,76,85,71,,,,,,,1.7,0.9,1.5*26
$GPGSV,4,1,13,21,73,066,48,20,60,090,23,16,54,258,48,26,41,215,23*7A
$GPGSV,4,2,13,27,39,300,48,10,33,189,45,04,33,197,43,15,21,083,44*7D
$GPGSV,4,3,13,29,17,119,44,13,14,050,40,193,10,051,35,07,05,338,46*4E
$GPGSV,4,4,13,08,02,302,*40
$GLGSV,3,1,09,86,66,333,50,70,50,077,38,85,42,084,48,71,34,149,45*68
$GLGSV,3,2,09,77,28,310,41,76,21,246,39,69,14,023,,87,14,290,42*64
$GLGSV,3,3,09,78,06,354,34*50
$GPRMC,182606.000,A,5029.3146559,N,03025.1786205,E,000.00,000.00,220418,,,A*64
$GPVTG,000.00,T,,M,000.00,N,000.00,K,A*3D
$GPZDA,182606.000,22,04,2018,00,00*52
$GPGST,182606.000,0.741,0.548,0.341,8.8,0.544,0.347,1.094*68
$PSTI,030,182606.000,A,5029.3146559,N,03025.1786205,E,191.220,-0.01,0.01,0.01,220418,A,0.0,0.0*3B
$PSTI,032,182606.000,220418,V,,,,,,,,,,,*4D
$GPGGA,182606.200,5029.3146419,N,03025.1786151,E,1,12,0.9,191.169,M,26.200,M,,0000*55
$GPRMC,182606.200,A,5029.3146419,N,03025.1786151,E,000.00,000.00,220418,,,A*61
$GPVTG,000.00,T,,M,000.00,N,000.00,K,A*3D
$PSTI,030,182606.200,A,5029.3146419,N,03025.1786151,E,191.169,-0.00,-0.00,0.01,220418,A,0.0,0.0*1D
$GPGGA,182606.400,5029.3146252,N,03025.1786157,E,1,12,0.9,191.109,M,26.200,M,,0000*5A
$GPRMC,182606.400,A,5029.3146252,N,03025.1786157,E,000.00,000.00,220418,,,A*68
$GPVTG,000.00,T,,M,000.00,N,000.00,K,A*3D
$PSTI,030,182606.400,A,5029.3146252,N,03025.1786157,E,191.109,0.00,-0.00,0.00,220418,A,0.0,0.0*3E
$GPGGA,182606.600,5029.3146057,N,03025.1786149,E,1,12,0.9,191.041,M,26.200,M,,0000*5D
$GPRMC,182606.600,A,5029.3146057,N,03025.1786149,E,000.00,000.00,220418,,,A*62
$GPVTG,000.00,T,,M,000.00,N,000.00,K,A*3D
$PSTI,030,182606.600,A,5029.3146057,N,03025.1786149,E,191.041,0.00,0.00,0.01,220418,A,0.0,0.0*15
$GPGGA,182606.800,5029.3145834,N,03025.1786110,E,1,12,0.9,190.977,M,26.200,M,,0000*5C
$GPRMC,182606.800,A,5029.3145834,N,03025.1786110,E,000.00,000.00,220418,,,A*6E
$GPVTG,000.00,T,,M,000.00,N,000.00,K,A*3D
$PSTI,030,182606.800,A,5029.3145834,N,03025.1786110,E,190.977,0.00,0.00,-0.00,220418,A,0.0,0.0*38
$GPGGA,182607.000,5029.3145597,N,03025.1786138,E,1,12,0.9,190.907,M,26.200,M,,0000*5C
$GPGLL,5029.3145597,N,03025.1786138,E,182607.000,A,A*53
$GPGSA,A,3,16,27,21,29,10,15,,,,,,,1.7,0.9,1.5*36
$GLGSA,A,3,70,86,77,76,85,71,,,,,,,1.7,0.9,1.5*26
$GPRMC,182607.000,A,5029.3145597,N,03025.1786138,E,000.00,000.00,220418,,,A*69
$GPVTG,000.00,T,,M,000.00,N,000.00,K,A*3D
$GPZDA,182607.000,22,04,2018,00,00*53
$GPGST,182607.000,0.672,0.497,0.309,8.8,0.494,0.315,0.992*62
$PSTI,030,182607.000,A,5029.3145597,N,03025.1786138,E,190.907,0.01,0.00,0.01,220418,A,0.0,0.0*15
$PSTI,032,182607.000,220418,V,,,,,,,,,,,*4C
$GPGGA,182607.200,5029.3145373,N,03025.1786220,E,1,12,0.9,190.842,M,26.200,M,,0000*58
$GPRMC,182607.200,A,5029.3145373,N,03025.1786220,E,000.00,000.00,220418,,,A*6D
$GPVTG,000.00,T,,M,000.00,N,000.00,K,A*3D
$PSTI,030,182607.200,A,5029.3145373,N,03025.1786220,E,190.842,-0.00,0.00,0.01,220418,A,0.0,0.0*3D
$GPGGA,182607.400,5029.3145163,N,03025.1786323,E,1,12,0.9,190.764,M,26.200,M,,0000*54
$GPRMC,182607.400,A,5029.3145163,N,03025.1786323,E,000.00,000.00,220418,,,A*6A
$GPVTG,000.00,T,,M,000.00,N,000.00,K,A*3D
$PSTI,030,182607.400,A,5029.3145163,N,03025.1786323,E,190.764,0.01,0.00,-0.00,220418,A,0.0,0.0*31
$GPGGA,182607.600,5029.3144943,N,03025.1786499,E,1,12,0.9,190.692,M,26.200,M,,0000*53
$GPRMC,182607.600,A,5029.3144943,N,03025.1786499,E,000.00,000.00,220418,,,A*65
$GPVTG,000.00,T,,M,000.00,N,000.00,K,A*3D
$PSTI,030,182607.600,A,5029.3144943,N,03025.1786499,E,190.692,-0.00,0.00,0.01,220418,A,0.0,0.0*36
$GPGGA,182607.800,5029.3144721,N,03025.1786667,E,1,12,0.9,190.615,M,26.200,M,,0000*5B
$GPRMC,182607.800,A,5029.3144721,N,03025.1786667,E,000.00,000.00,220418,,,A*62
$GPVTG,000.00,T,,M,000.00,N,000.00,K,A*3D
$PSTI,030,182607.800,A,5029.3144721,N,03025.1786667,E,190.615,-0.00,-0.00,0.00,220418,A,0.0,0.0*12
$GPGGA,182608.000,5029.3144510,N,03025.1786911,E,1,12,0.9,190.548,M,26.200,M,,0000*59
$GPGLL,5029.3144510,N,03025.1786911,E,182608.000,A,A*51
$GPGSA,A,3,16,27,21,29,10,15,,,,,,,1.7,0.9,1.5*36
$GLGSA,A,3,70,86,77,76,85,71,,,,,,,1.7,0.9,1.5*26
$GPRMC,182608.000,A,5029.3144510,N,03025.1786911,E,000.00,000.00,220418,,,A*6B
$GPVTG,000.00,T,,M,000.00,N,000.00,K,A*3D
$GPZDA,182608.000,22,04,2018,00,00*5C
$GPGST,182608.000,0.611,0.452,0.281,8.8,0.448,0.286,0.902*63
$PSTI,030,182608.000,A,5029.3144510,N,03025.1786911,E,190.548,0.01,0.00,0.00,220418,A,0.0,0.0*11
$PSTI,032,182608.000,220418,V,,,,,,,,,,,*43
$GPGGA,182608.200,5029.3144286,N,03025.1787131,E,1,12,0.9,190.485,M,26.200,M,,0000*58
$GPRMC,182608.200,A,5029.3144286,N,03025.1787131,E,000.00,000.00,220418,,,A*6A
$GPVTG,000.00,T,,M,000.00,N,000.00,K,A*3D
$PSTI,030,182608.200,A,5029.3144286,N,03025.1787131,E,190.485,0.00,0.01,0.01,220418,A,0.0,0.0*11
$GPGGA,182608.400,5029.3144107,N,03025.1787432,E,1,12,0.9,190.435,M,26.200,M,,0000*59
$GPRMC,182608.400,A,5029.3144107,N,03025.1787432,E,000.00,000.00,220418,,,A*60
$GPVTG,000.00,T,,M,000.00,N,000.00,K,A*3D
$PSTI,030,182608.400,A,5029.3144107,N,03025.1787432,E,190.435,-0.00,-0.00,0.01,220418,A,0.0,0.0*11
$GPGGA,182608.600,5029.3143939,N,03025.1787759,E,1,12,0.9,190.387,M,26.200,M,,0000*59
$GPRMC,182608.600,A,5029.3143939,N,03025.1787759,E,000.00,000.00,220418,,,A*6E
$GPVTG,000.00,T,,M,000.00,N,000.00,K,A*3D
$PSTI,030,182608.600,A,5029.3143939,N,03025.1787759,E,190.387,-0.00,-0.00,0.00,220418,A,0.0,0.0*10
$GPGGA,182608.800,5029.3143740,N,03025.1787972,E,1,12,0.9,190.324,M,26.200,M,,0000*59
$GPRMC,182608.800,A,5029.3143740,N,03025.1787972,E,000.00,000.00,220418,,,A*67
$GPVTG,000.00,T,,M,000.00,N,000.00,K,A*3D
$PSTI,030,182608.800,A,5029.3143740,N,03025.1787972,E,190.324,-0.01,-0.00,0.01,220418,A,0.0,0.0*10
$GPGGA,182609.000,5029.3143537,N,03025.1788251,E,1,12,0.9,190.257,M,26.200,M,,0000*52
$GPGLL,5029.3143537,N,03025.1788251,E,182609.000,A,A*53
$GPGSA,A,3,16,27,21,29,10,15,,,,,,,1.7,0.9,1.5*36
$GLGSA,A,3,70,86,77,76,85,71,,,,,,,1.7,0.9,1.5*26
$GPGSV,4,1,13,21,73,066,48,20,60,090,23,16,54,258,48,26,41,215,23*7A
$GPGSV,4,2,13,27,39,300,48,10,33,189,45,04,33,197,43,15,21,083,43*7A
$GPGSV,4,3,13,29,17,119,44,13,14,050,39,193,10,051,35,07,05,338,47*41
$GPGSV,4,4,13,08,02,302,*40
$GLGSV,3,1,09,86,66,333,50,70,50,077,38,85,42,084,47,71,34,149,46*64
$GLGSV,3,2,09,77,28,310,41,76,21,246,40,69,14,023,,87,14,290,42*6A
$GLGSV,3,3,09,78,06,354,32*56
$GPRMC,182609.000,A,5029.3143537,N,03025.1788251,E,000.00,000.00,220418,,,A*69
$GPVTG,000.00,T,,M,000.00,N,000.00,K,A*3D
$GPZDA,182609.000,22,04,2018,00,00*5D
$GPGST,182609.000,0.593,0.439,0.273,8.8,0.435,0.278,0.875*61
$PSTI,030,182609.000,A,5029.3143537,N,03025.1788251,E,190.257,0.00,0.01,0.01,220418,A,0.0,0.0*1B
$PSTI,032,182609.000,220418,V,,,,,,,,,,,*42
$GPGGA,182609.200,5029.3143328,N,03025.1788510,E,1,12,0.9,190.195,M,26.200,M,,0000*57
$GPRMC,182609.200,A,5029.3143328,N,03025.1788510,E,000.00,000.00,220418,,,A*61
$GPVTG,000.00,T,,M,000.00,N,000.00,K,A*3D
$PSTI,030,182609.200,A,5029.3143328,N,03025.1788510,E,190.195,0.00,-0.00,0.00,220418,A,0.0,0.0*33
$GPGGA,182609.400,5029.3143154,N,03025.1788786,E,1,12,0.9,190.150,M,26.200,M,,0000*5C
$GPRMC,182609.400,A,5029.3143154,N,03025.1788786,E,000.00,000.00,220418,,,A*63
$GPVTG,000.00,T,,M,000.00,N,000.00,K,A*3D
$PSTI,030,182609.400,A,5029.3143154,N,03025.1788786,E,190.150,-0.00,0.00,0.01,220418,A,0.0,0.0*39
$GPGGA,182609.600,5029.3142980,N,03025.1789048,E,1,12,0.9,190.095,M,26.200,M,,0000*52
$GPRMC,182609.600,A,5029.3142980,N,03025.1789048,E,000.00,000.00,220418,,,A*65
$GPVTG,000.00,T,,M,000.00,N,000.00,K,A*3D
$PSTI,030,182609.600,A,5029.3142980,N,03025.1789048,E,190.095,-0.00,-0.01,0.01,220418,A,0.0,0.0*1B
$GPGGA,182609.800,5029.3142803,N,03025.1789317,E,1,12,0.9,190.044,M,26.200,M,,0000*53
$GPRMC,182609.800,A,5029.3142803,N,03025.1789317,E,000.00,000.00,220418,,,A*68
$GPVTG,000.00,T,,M,000.00,N,000.00,K,A*3D
$PSTI,030,182609.800,A,5029.3142803,N,03025.1789317,E,190.044,-0.00,0.01,0.01,220418,A,0.0,0.0*37
$GPGGA,182610.000,5029.3142552,N,03025.1789483,E,1,12,0.9,190.004,M,26.200,M,,0000*54
$GPGLL,5029.3142552,N,03025.1789483,E,182610.000,A,A*51
$GPGSA,A,3,16,27,21,29,10,15,,,,,,,1.7,0.9,1.5*36
$GLGSA,A,3,70,86,77,76,85,71,,,,,,,1.7,0.9,1.5*26
$GPRMC,182610.000,A,5029.3142552,N,03025.1789483,E,000.00,000.00,220418,,,A*6B
$GPVTG,000.00,T,,M,000.00,N,000.00,K,A*3D
$GPZDA,182610.000,22,04,2018,00,00*55
$GPGST,182610.000,0.623,0.461,0.286,8.8,0.457,0.292,0.919*6D
$PSTI,030,182610.000,A,5029.3142552,N,03025.1789483,E,190.004,-0.00,0.00,0.00,220418,A,0.0,0.0*30
$PSTI,032,182610.000,220418,V,,,,,,,,,,,*4A
$GPGGA,182610.200,5029.3142284,N,03025.1789594,E,1,12,0.9,189.968,M,26.200,M,,0000*56
$GPRMC,182610.200,A,5029.3142284,N,03025.1789594,E,000.00,000.00,220418,,,A*62
$GPVTG,000.00,T,,M,000.00,N,000.00,K,A*3D
$PSTI,030,182610.200,A,5029.3142284,N,03025.1789594,E,189.968,-0.01,-0.00,0.00,220418,A,0.0,0.0*1E
$GPGGA,182610.400,5029.3142013,N,03025.1789722,E,1,12,0.9,189.937,M,26.200,M,,0000*59
$GPRMC,182610.400,A,5029.3142013,N,03025.1789722,E,000.00,000.00,220418,,,A*67
$GPVTG,000.00,T,,M,000.00,N,000.00,K,A*3D
$PSTI,030,182610.400,A,5029.3142013,N,03025.1789722,E,189.937,-0.00,0.00,0.00,220418,A,0.0,0.0*3D
$GPGGA,182610.600,5029.3141691,N,03025.1789834,E,1,12,0.9,189.911,M,26.200,M,,0000*58
$GPRMC,182610.600,A,5029.3141691,N,03025.1789834,E,000.00,000.00,220418,,,A*62
$GPVTG,000.00,T,,M,000.00,N,000.00,K,A*3D
$PSTI,030,182610.600,A,5029.3141691,N,03025.1789834,E,189.911,0.00,0.00,0.01,220418,A,0.0,0.0*10
$GPGGA,182610.800,5029.3141378,N,03025.1789932,E,1,12,0.9,189.893,M,26.200,M,,0000*58
$GPRMC,182610.800,A,5029.3141378,N,03025.1789932,E,000.00,000.00,220418,,,A*69
$GPVTG,000.00,T,,M,000.00,N,000.00,K,A*3D
$PSTI,030,182610.800,A,5029.3141378,N,03025.1789932,E,189.893,0.00,-0.01,0.01,220418,A,0.0,0.0*3C
$GPGGA,182611.000,5029.3141088,N,03025.1790028,E,1,12,0.9,189.883,M,26.200,M,,0000*56
$GPGLL,5029.3141088,N,03025.1790028,E,182611.000,A,A*5C
$GPGSA,A,3,16,27,21,29,10,15,,,,,,,1.7,0.9,1.5*36
$GLGSA,A,3,70,86,77,76,85,71,,,,,,,1.7,0.9,1.5*26
$GPRMC,182611.000,A,5029.3141088,N,03025.1790028,E,000.00,000.00,220418,,,A*66
$GPVTG,000.00,T,,M,000.00,N,000.00,K,A*3D
$GPZDA,182611.000,22,04,2018,00,00*54
$GPGST,182611.000,0.668,0.494,0.307,8.8,0.491,0.313,0.987*64
$PSTI,030,182611.000,A,5029.3141088,N,03025.1790028,E,189.883,-0.01,0.00,0.00,220418,A,0.0,0.0*33
$PSTI,032,182611.000,220418,V,,,,,,,,,,,*4B
$GPGGA,182611.200,5029.3140814,N,03025.1790111,E,1,12,0.9,189.874,M,26.200,M,,0000*5B
$GPRMC,182611.200,A,5029.3140814,N,03025.1790111,E,000.00,000.00,220418,,,A*63
$GPVTG,000.00,T,,M,000.00,N,000.00,K,A*3D
$PSTI,030,182611.200,A,5029.3140814,N,03025.1790111,E,189.874,0.00,-0.00,0.00,220418,A,0.0,0.0*3F
$GPGGA,182611.400,5029.3140545,N,03025.1790204,E,1,12,0.9,189.869,M,26.200,M,,0000*5F
$GPRMC,182611.400,A,5029.3140545,N,03025.1790204,E,000.00,000.00,220418,,,A*6B
$GPVTG,000.00,T,,M,000.00,N,000.00,K,A*3D
$PSTI,030,182611.400,A,5029.3140545,N,03025.1790204,E,189.869,0.00,0.00,-0.00,220418,A,0.0,0.0*3B
$GPGGA,182611.600,5029.3140282,N,03025.1790280,E,1,12,0.9,189.870,M,26.200,M,,0000*55
$GPRMC,182611.600,A,5029.3140282,N,03025.1790280,E,000.00,000.00,220418,,,A*69
$GPVTG,000.00,T,,M,000.00,N,000.00,K,A*3D
$PSTI,030,182611.600,A,5029.3140282,N,03025.1790280,E,189.870,-0.00,0.00,0.01,220418,A,0.0,0.0*30
$GPGGA,182611.800,5029.3140049,N,03025.1790328,E,1,12,0.9,189.874,M,26.200,M,,0000*59
$GPRMC,182611.800,A,5029.3140049,N,03025.1790328,E,000.00,000.00,220418,,,A*61
$GPVTG,000.00,T,,M,000.00,N,000.00,K,A*3D
$PSTI,030,182611.800,A,5029.3140049,N,03025.1790328,E,189.874,-0.00,-0.01,0.01,220418,A,0.0,0.0*10
$GPGGA,182612.000,5029.3139821,N,03025.1790399,E,1,12,0.9,189.885,M,26.200,M,,0000*5E
$GPGLL,5029.3139821,N,03025.1790399,E,182612.000,A,A*52
$GPGSA,A,3,16,27,21,29,10,15,,,,,,,1.7,0.9,1.5*36
$GLGSA,A,3,70,86,77,76,85,71,,,,,,,1.7,0.9,1.5*26
$GPGSV,4,1,13,21,72,067,48,20,60,090,23,16,54,258,48,26,41,215,23*7A
$GPGSV,4,2,13,27,39,300,48,10,33,189,45,04,33,197,43,15,21,083,43*7A
$GPGSV,4,3,13,29,17,119,45,13,14,050,40,193,10,051,34,07,05,338,47*4F
$GPGSV,4,4,13,08,02,302,*40
$GLGSV,3,1,09,86,66,333,50,70,50,077,38,85,42,084,48,71,34,149,46*6B
$GLGSV,3,2,09,77,28,310,41,76,21,246,39,69,14,023,,87,14,290,42*64
$GLGSV,3,3,09,78,06,354,34*50
$GPRMC,182612.000,A,5029.3139821,N,03025.1790399,E,000.00,000.00,220418,,,A*68
$GPVTG,000.00,T,,M,000.00,N,000.00,K,A*3D
$GPZDA,182612.000,22,04,2018,00,00*57
$GPGST,182612.000,0.720,0.532,0.331,8.8,0.529,0.337,1.062*65
$PSTI,030,182612.000,A,5029.3139821,N,03025.1790399,E,189.885,-0.00,-0.00,0.01,220418,A,0.0,0.0*16
$PSTI,032,182612.000,220418,V,,,,,,,,,,,*48
$GPGGA,182612.200,5029.3139573,N,03025.1790450,E,1,12,0.9,189.897,M,26.200,M,,0000*57
$GPRMC,182612.200,A,5029.3139573,N,03025.1790450,E,000.00,000.00,220418,,,A*62
$GPVTG,000.00,T,,M,000.00,N,000.00,K,A*3D
$PSTI,030,182612.200,A,5029.3139573,N,03025.1790450,E,189.897,0.00,0.00,0.01,220418,A,0.0,0.0*1F
$GPGGA,182612.400,5029.3139382,N,03025.1790500,E,1,12,0.9,189.904,M,26.200,M,,0000*56
$GPRMC,182612.400,A,5029.3139382,N,03025.1790500,E,000.00,000.00,220418,,,A*68
$GPVTG,000.00,T,,M,000.00,N,000.00,K,A*3D
$PSTI,030,182612.400,A,5029.3139382,N,03025.1790500,E,189.904,-0.00,-0.00,0.01,220418,A,0.0,0.0*1E
$GPGGA,182612.600,5029.3139200,N,03025.1790529,E,1,12,0.9,189.908,M,26.200,M,,0000*58
$GPRMC,182612.600,A,5029.3139200,N,03025.1790529,E,000.00,000.00,220418,,,A*6A
$GPVTG,000.00,T,,M,000.00,N,000.00,K,A*3D
$PSTI,030,182612.600,A,5029.3139200,N,03025.1790529,E,189.908,0.00,-0.01,0.00,220418,A,0.0,0.0*3D
$GPGGA,182612.800,5029.3139040,N,03025.1790526,E,1,12,0.9,189.909,M,26.200,M,,0000*5E
$GPRMC,182612.800,A,5029.3139040,N,03025.1790526,E,000.00,000.00,220418,,,A*6D
$GPVTG,000.00,T,,M,000.00,N,000.00,K,A*3D
$PSTI,030,182612.800,A,5029.3139040,N,03025.1790526,E,189.909,-0.00,0.00,0.01,220418,A,0.0,0.0*3B
$GPGGA,182613.000,5029.3138871,N,03025.1790481,E,1,12,0.9,189.910,M,26.200,M,,0000*58
$GPGLL,5029.3138871,N,03025.1790481,E,182613.000,A,A*59
$GPGSA,A,3,16,27,21,29,10,15,,,,,,,1.7,0.9,1.5*36
$GLGSA,A,3,70,86,77,76,85,71,,,,,,,1.7,0.9,1.5*26
$GPRMC,182613.000,A,5029.3138871,N,03025.1790481,E,000.00,000.00,220418,,,A*63
$GPVTG,000.00,T,,M,000.00,N,000.00,K,A*3D
$GPZDA,182613.000,22,04,2018,00,00*56
$GPGST,182613.000,0.777,0.575,0.358,8.7,0.571,0.364,1.148*67
$PSTI,030,182613.000,A,5029.3138871,N,03025.1790481,E,189.910,-0.00,0.00,-0.00,220418,A,0.0,0.0*11
$PSTI,032,182613.000,220418,V,,,,,,,,,,,*49
$GPGGA,182613.200,5029.3138709,N,03025.1790434,E,1,12,0.9,189.912,M,26.200,M,,0000*56
$GPRMC,182613.200,A,5029.3138709,N,03025.1790434,E,000.00,000.00,220418,,,A*6F
$GPVTG,000.00,T,,M,000.00,N,000.00,K,A*3D
$PSTI,030,182613.200,A,5029.3138709,N,03025.1790434,E,189.912,-0.00,-0.00,0.01,220418,A,0.0,0.0*1E
$GPGGA,182613.400,5029.3138517,N,03025.1790325,E,1,12,0.9,189.909,M,26.200,M,,0000*50
$GPRMC,182613.400,A,5029.3138517,N,03025.1790325,E,000.00,000.00,220418,,,A*63
$GPVTG,000.00,T,,M,000.00,N,000.00,K,A*3D
$PSTI,030,182613.400,A,5029.3138517,N,03025.1790325,E,189.909,-0.01,-0.00,0.00,220418,A,0.0,0.0*18
$GPGGA,182613.600,5029.3138334,N,03025.1790208,E,1,12,0.9,189.909,M,26.200,M,,0000*5B
$GPRMC,182613.600,A,5029.3138334,N,03025.1790208,E,000.00,000.00,220418,,,A*68
$GPVTG,000.00,T,,M,000.00,N,000.00,K,A*3D
$PSTI,030,182613.600,A,5029.3138334,N,03025.1790208,E,189.909,0.00,0.00,0.01,220418,A,0.0,0.0*13
$GPGGA,182613.800,5029.3138154,N,03025.1790085,E,1,12,0.9,189.908,M,26.200,M,,0000*57
$GPRMC,182613.800,A,5029.3138154,N,03025.1790085,E,000.00,000.00,220418,,,A*65
$GPVTG,000.00,T,,M,000.00,N,000.00,K,A*3D
$PSTI,030,182613.800,A,5029.3138154,N,03025.1790085,E,189.908,0.01,0.00,0.01,220418,A,0.0,0.0*1E
$GPGGA,182614.000,5029.3138002,N,03025.1790027,E,1,12,0.9,189.890,M,26.200,M,,0000*52
$GPGLL,5029.3138002,N,03025.1790027,E,182614.000,A,A*5A
$GPGSA,A,3,16,27,21,29,10,15,,,,,,,1.7,0.9,1.5*36
$GLGSA,A,3,70,86,77,76,85,71,,,,,,,1.7,0.9,1.5*26
$GPRMC,182614.000,A,5029.3138002,N,03025.1790027,E,000.00,000.00,220418,,,A*60
$GPVTG,000.00,T,,M,000.00,N,000.00,K,A*3D
$GPZDA,182614.000,22,04,2018,00,00*51
$GPGST,182614.000,0.821,0.607,0.378,8.7,0.603,0.384,1.211*6F
$PSTI,030,182614.000,A,5029.3138002,N,03025.1790027,E,189.890,0.00,-0.00,0.01,220418,A,0.0,0.0*37
$PSTI,032,182614.000,220418,V,,,,,,,,,,,*4E
$GPGGA,182614.200,5029.3137850,N,03025.1790006,E,1,12,0.9,189.878,M,26.200,M,,0000*55
$GPRMC,182614.200,A,5029.3137850,N,03025.1790006,E,000.00,000.00,220418,,,A*61
$GPVTG,000.00,T,,M,000.00,N,000.00,K,A*3D
$PSTI,030,182614.200,A,5029.3137850,N,03025.1790006,E,189.878,-0.01,-0.00,0.01,220418,A,0.0,0.0*1C
$GPGGA,182614.400,5029.3137684,N,03025.1789994,E,1,12,0.9,189.870,M,26.200,M,,0000*56
$GPRMC,182614.400,A,5029.3137684,N,03025.1789994,E,000.00,000.00,220418,,,A*6A
$GPVTG,000.00,T,,M,000.00,N,000.00,K,A*3D
$PSTI,030,182614.400,A,5029.3137684,N,03025.1789994,E,189.870,-0.01,0.00,0.01,220418,A,0.0,0.0*32
$GPGGA,182614.600,5029.3137528,N,03025.1789995,E,1,12,0.9,189.857,M,26.200,M,,0000*55
$GPRMC,182614.600,A,5029.3137528,N,03025.1789995,E,000.00,000.00,220418,,,A*6C
$GPVTG,000.00,T,,M,000.00,N,000.00,K,A*3D
$PSTI,030,182614.600,A,5029.3137528,N,03025.1789995,E,189.857,-0.01,-0.00,0.00,220418,A,0.0,0.0*1D
$GPGGA,182614.800,5029.3137361,N,03025.1789958,E,1,12,0.9,189.848,M,26.200,M,,0000*5F
$GPRMC,182614.800,A,5029.3137361,N,03025.1789958,E,000.00,000.00,220418,,,A*68
$GPVTG,000.00,T,,M,000.00,N,000.00,K,A*3D
$PSTI,030,182614.800,A,5029.3137361,N,03025.1789958,E,189.848,0.00,0.01,0.02,220418,A,0.0,0.0*15
$GPGGA,182615.000,5029.3137181,N,03025.1789893,E,1,12,0.9,189.837,M,26.200,M,,0000*54
$GPGLL,5029.3137181,N,03025.1789893,E,182615.000,A,A*51
$GPGSA,A,3,16,27,21,29,10,15,,,,,,,1.7,0.9,1.5*36
$GLGSA,A,3,70,86,77,76,85,71,,,,,,,1.7,0.9,1.5*26
$GPGSV,4,1,13,21,72,067,48,20,60,090,22,16,54,258,48,26,41,215,23*7B
$GPGSV,4,2,13,27,39,300,48,10,33,189,45,04,33,197,43,15,21,083,43*7A
$GPGSV,4,3,13,29,17,119,45,13,14,050,40,193,10,051,34,07,05,338,47*4F
$GPGSV,4,4,13,08,02,302,*40
$GLGSV,3,1,09,86,66,333,50,70,50,077,38,85,42,084,48,71,34,149,46*6B
$GLGSV,3,2,09,77,28,310,41,76,21,246,39,69,14,023,,87,14,290,42*64
$GLGSV,3,3,09,78,06,354,34*50
$GPRMC,182615.000,A,5029.3137181,N,03025.1789893,E,000.00,000.00,220418,,,A*6B
$GPVTG,000.00,T,,M,000.00,N,000.00,K,A*3D
$GPZDA,182615.000,22,04,2018,00,00*50
$GPGST,182615.000,0.859,0.635,0.395,8.7,0.631,0.402,1.267*6A
$PSTI,030,182615.000,A,5029.3137181,N,03025.1789893,E,189.837,-0.00,0.00,0.01,220418,A,0.0,0.0*31
$PSTI,032,182615.000,220418,V,,,,,,,,,,,*4F
$GPGGA,182615.200,5029.3136998,N,03025.1789819,E,1,12,0.9,189.828,M,26.200,M,,0000*5B
$GPRMC,182615.200,A,5029.3136998,N,03025.1789819,E,000.00,000.00,220418,,,A*6A
$GPVTG,000.00,T,,M,000.00,N,000.00,K,A*3D
$PSTI,030,182615.200,A,5029.3136998,N,03025.1789819,E,189.828,-0.00,-0.00,0.01,220418,A,0.0,0.0*13
$GPGGA,182615.400,5029.3136824,N,03025.1789779,E,1,12,0.9,189.816,M,26.200,M,,0000*5F
$GPRMC,182615.400,A,5029.3136824,N,03025.1789779,E,000.00,000.00,220418,,,A*63
$GPVTG,000.00,T,,M,000.00,N,000.00,K,A*3D
$PSTI,030,182615.400,A,5029.3136824,N,03025.1789779,E,189.816,0.01,0.00,0.01,220418,A,0.0,0.0*16
$GPGGA,182615.600,5029.3136614,N,03025.1789730,E,1,12,0.9,189.814,M,26.200,M,,0000*5F
$GPRMC,182615.600,A,5029.3136614,N,03025.1789730,E,000.00,000.00,220418,,,A*61
$GPVTG,000.00,T,,M,000.00,N,000.00,K,A*3D
$PSTI,030,182615.600,A,5029.3136614,N,03025.1789730,E,189.814,-0.01,-0.01,0.01,220418,A,0.0,0.0*17
$GPGGA,182615.800,5029.3136374,N,03025.1789711,E,1,12,0.9,189.815,M,26.200,M,,0000*50
$GPRMC,182615.800,A,5029.3136374,N,03025.1789711,E,000.00,000.00,220418,,,A*6F
$GPVTG,000.00,T,,M,000.00,N,000.00,K,A*3D
$PSTI,030,182615.800,A,5029.3136374,N,03025.1789711,E,189.815,0.00,0.00,0.01,220418,A,0.0,0.0*18
$GPGGA,182616.000,5029.3136114,N,03025.1789644,E,1,12,0.9,189.814,M,26.200,M,,0000*5F
$GPGLL,5029.3136114,N,03025.1789644,E,182616.000,A,A*5B
$GPGSA,A,3,16,27,21,29,10,15,,,,,,,1.7,0.9,1.5*36
$GLGSA,A,3,70,86,77,76,85,71,,,,,,,1.7,0.9,1.5*26
$GPRMC,182616.000,A,5029.3136114,N,03025.1789644,E,000.00,000.00,220418,,,A*61
$GPVTG,000.00,T,,M,000.00,N,000.00,K,A*3D
$GPZDA,182616.000,22,04,2018,00,00*53
$GPGST,182616.000,0.886,0.656,0.408,8.7,0.651,0.415,1.308*65
$PSTI,030,182616.000,A,5029.3136114,N,03025.1789644,E,189.814,-0.01,0.01,0.01,220418,A,0.0,0.0*3A
$PSTI,032,182616.000,220418,V,,,,,,,,,,,*4C
$GPGGA,182616.200,5029.3135855,N,03025.1789600,E,1,12,0.9,189.819,M,26.200,M,,0000*5F
$GPRMC,182616.200,A,5029.3135855,N,03025.1789600,E,000.00,000.00,220418,,,A*6C
$GPVTG,000.00,T,,M,000.00,N,000.00,K,A*3D
$PSTI,030,182616.200,A,5029.3135855,N,03025.1789600,E,189.819,0.00,0.00,0.01,220418,A,0.0,0.0*17
$GPGGA,182616.400,5029.3135593,N,03025.1789577,E,1,12,0.9,189.819,M,26.200,M,,0000*5D
$GPRMC,182616.400,A,5029.3135593,N,03025.1789577,E,000.00,000.00,220418,,,A*6E
$GPVTG,000.00,T,,M,000.00,N,000.00,K,A*3D
$PSTI,030,182616.400,A,5029.3135593,N,03025.1789577,E,189.819,-0.00,-0.00,0.01,220418,A,0.0,0.0*15
$GPGGA,182616.600,5029.3135305,N,03025.1789542,E,1,12,0.9,189.810,M,26.200,M,,0000*59
$GPRMC,182616.600,A,5029.3135305,N,03025.1789542,E,000.00,000.00,220418,,,A*63
$GPVTG,000.00,T,,M,000.00,N,000.00,K,A*3D
$PSTI,030,182616.600,A,5029.3135305,N,03025.1789542,E,189.810,-0.00,0.01,0.01,220418,A,0.0,0.0*3D
$GPGGA,182616.800,5029.3135040,N,03025.1789552,E,1,12,0.9,189.804,M,26.200,M,,0000*51
$GPRMC,182616.800,A,5029.3135040,N,03025.1789552,E,000.00,000.00,220418,,,A*6E
$GPVTG,000.00,T,,M,000.00,N,000.00,K,A*3D
$PSTI,030,182616.800,A,5029.3135040,N,03025.1789552,E,189.804,0.01,0.00,0.00,220418,A,0.0,0.0*19
$GPGGA,182617.000,5029.3134801,N,03025.1789499,E,1,12,0.9,189.811,M,26.200,M,,0000*56
$GPGLL,5029.3134801,N,03025.1789499,E,182617.000,A,A*57
$GPGSA,A,3,16,27,21,29,10,15,,,,,,,1.7,0.9,1.5*36
$GLGSA,A,3,70,86,77,76,85,71,,,,,,,1.7,0.9,1.5*26
$GPRMC,182617.000,A,5029.3134801,N,03025.1789499,E,000.00,000.00,220418,,,A*6D
$GPVTG,000.00,T,,M,000.00,N,000.00,K,A*3D
$GPZDA,182617.000,22,04,2018,00,00*52
$GPGST,182617.000,0.921,0.681,0.424,8.7,0.677,0.431,1.359*6A
$PSTI,030,182617.000,A,5029.3134801,N,03025.1789499,E,189.811,-0.00,-0.00,0.00,220418,A,0.0,0.0*1F
$PSTI,032,182617.000,220418,V,,,,,,,,,,,*4D
$GPGGA,182617.200,5029.3134568,N,03025.1789437,E,1,12,0.9,189.827,M,26.200,M,,0000*57
$GPRMC,182617.200,A,5029.3134568,N,03025.1789437,E,000.00,000.00,220418,,,A*69
$GPVTG,000.00,T,,M,000.00,N,000.00,K,A*3D
$PSTI,030,182617.200,A,5029.3134568,N,03025.1789437,E,189.827,-0.00,0.01,0.01,220418,A,0.0,0.0*33
$GPGGA,182617.400,5029.3134317,N,03025.1789370,E,1,12,0.9,189.847,M,26.200,M,,0000*5D
$GPRMC,182617.400,A,5029.3134317,N,03025.1789370,E,000.00,000.00,220418,,,A*65
$GPVTG,000.00,T,,M,000.00,N,000.00,K,A*3D
$PSTI,030,182617.400,A,5029.3134317,N,03025.1789370,E,189.847,-0.00,-0.00,0.01,220418,A,0.0,0.0*15
$GPGGA,182617.600,5029.3142432,N,03025.1840844,E,2,12,1.8,180.963,M,26.200,M,0.0,0000*7B
$GPRMC,182617.600,A,5029.3142432,N,03025.1840844,E,000.00,000.00,220418,,,D*65
$GPVTG,000.00,T,,M,000.00,N,000.00,K,D*38
$PSTI,030,182617.600,A,5029.3142432,N,03025.1840844,E,180.963,0.01,0.02,-0.09,220418,D,0.0,0.0*3D
$GPGGA,182617.800,5029.3137682,N,03025.1837599,E,2,12,1.8,181.809,M,26.200,M,0.0,0000*7F
$GPRMC,182617.800,A,5029.3137682,N,03025.1837599,E,000.00,000.00,220418,,,D*6D
$GPVTG,000.00,T,,M,000.00,N,000.00,K,D*38
$PSTI,030,182617.800,A,5029.3137682,N,03025.1837599,E,181.809,-0.01,-0.03,0.10,220418,D,0.0,0.0*1D
$GPGGA,182618.000,5029.3136076,N,03025.1826887,E,2,12,1.8,187.272,M,26.200,M,0.0,0000*76
$GPGLL,5029.3136076,N,03025.1826887,E,182618.000,A,D*5E
$GPGSA,A,3,16,27,21,29,10,15,,,,,,,3.7,1.8,3.3*30
$GLGSA,A,3,70,86,77,76,85,71,,,,,,,3.7,1.8,3.3*20
$GPGSV,4,1,13,21,72,067,48,20,60,090,22,16,54,258,48,26,41,215,22*7A
$GPGSV,4,2,13,27,40,300,49,10,33,189,45,04,33,197,43,15,21,083,43*75
$GPGSV,4,3,13,29,17,119,45,13,14,050,40,193,10,051,34,07,05,338,47*4F
$GPGSV,4,4,13,08,02,302,*40
$GLGSV,3,1,09,86,66,333,51,70,50,077,38,85,42,084,48,71,34,149,46*6A
$GLGSV,3,2,09,77,28,310,41,76,21,246,39,69,14,023,,87,14,290,42*64
$GLGSV,3,3,09,78,06,354,35*51
$GPRMC,182618.000,A,5029.3136076,N,03025.1826887,E,000.00,000.00,220418,,,D*64
$GPVTG,000.00,T,,M,000.00,N,000.00,K,D*38
$GPZDA,182618.000,22,04,2018,00,00*5D
$GPGST,182618.000,1.068,1.755,0.775,36.4,1.485,1.213,3.492*5B
$PSTI,030,182618.000,A,5029.3136076,N,03025.1826887,E,187.272,0.02,0.04,-0.06,220418,D,0.0,0.0*3A
$PSTI,032,182618.000,220418,V,,,,,,,,,,,*42
$GPGGA,182618.200,5029.3135989,N,03025.1827148,E,1,12,1.6,187.108,M,26.200,M,,0000*58
$GPRMC,182618.200,A,5029.3135989,N,03025.1827148,E,000.00,000.00,220418,,,A*62
$GPVTG,000.00,T,,M,000.00,N,000.00,K,A*3D
$PSTI,030,182618.200,A,5029.3135989,N,03025.1827148,E,187.108,0.00,-0.01,0.00,220418,A,0.0,0.0*33
$GPGGA,182618.400,5029.3135978,N,03025.1827380,E,2,12,1.8,186.917,M,26.200,M,0.0,0000*72
$GPRMC,182618.400,A,5029.3135978,N,03025.1827380,E,000.00,000.00,220418,,,D*69
$GPVTG,000.00,T,,M,000.00,N,000.00,K,D*38
$PSTI,030,182618.400,A,5029.3135978,N,03025.1827380,E,186.917,-0.03,-0.04,0.01,220418,D,0.0,0.0*15
$GPGGA,182618.600,5029.3135959,N,03025.1827687,E,2,12,1.8,186.754,M,26.200,M,0.0,0000*78
$GPRMC,182618.600,A,5029.3135959,N,03025.1827687,E,000.00,000.00,220418,,,D*6A
$GPVTG,000.00,T,,M,000.00,N,000.00,K,D*38
$PSTI,030,182618.600,A,5029.3135959,N,03025.1827687,E,186.754,-0.01,0.02,-0.05,220418,D,0.0,0.0*1F
$GPGGA,182618.800,5029.3135912,N,03025.1827887,E,1,12,1.6,186.582,M,26.200,M,,0000*5D
$GPRMC,182618.800,A,5029.3135912,N,03025.1827887,E,000.00,000.00,220418,,,A*60
$GPVTG,000.00,T,,M,000.00,N,000.00,K,A*3D
$PSTI,030,182618.800,A,5029.3135912,N,03025.1827887,E,186.582,0.00,0.00,0.00,220418,A,0.0,0.0*1A
$GPGGA,182619.000,5029.3135918,N,03025.1828056,E,1,12,1.6,186.355,M,26.200,M,,0000*59
$GPGLL,5029.3135918,N,03025.1828056,E,182619.000,A,A*52
$GPGSA,A,3,16,27,21,29,10,15,,,,,,,1.9,1.6,1.0*33
$GLGSA,A,3,70,86,77,76,85,71,,,,,,,1.9,1.6,1.0*23
$GPRMC,182619.000,A,5029.3135918,N,03025.1828056,E,000.00,000.00,220418,,,A*68
$GPVTG,000.00,T,,M,000.00,N,000.00,K,A*3D
$GPZDA,182619.000,22,04,2018,00,00*5C
$GPGST,182619.000,1.509,2.236,1.091,35.2,1.932,1.568,1.443*56
$PSTI,030,182619.000,A,5029.3135918,N,03025.1828056,E,186.355,-0.02,0.00,-0.01,220418,A,0.0,0.0*1D
$PSTI,032,182619.000,220418,V,,,,,,,,,,,*43
$GPGGA,182619.200,5029.3135771,N,03025.1828018,E,2,12,1.8,186.150,M,26.200,M,1.0,0000*75
$GPRMC,182619.200,A,5029.3135771,N,03025.1828018,E,000.00,000.00,220418,,,D*64
$GPVTG,000.00,T,,M,000.00,N,000.00,K,D*38
$PSTI,030,182619.200,A,5029.3135771,N,03025.1828018,E,186.150,-0.00,-0.03,0.04,220418,D,0.0,0.0*12
$GPGGA,182619.400,5029.3135621,N,03025.1827981,E,2,12,1.8,185.935,M,26.200,M,1.0,0000*79
$GPRMC,182619.400,A,5029.3135621,N,03025.1827981,E,000.00,000.00,220418,,,D*60
$GPVTG,000.00,T,,M,000.00,N,000.00,K,D*38
$PSTI,030,182619.400,A,5029.3135621,N,03025.1827981,E,185.935,0.01,0.01,0.02,220418,D,0.0,0.0*1B
$GPGGA,182619.600,5029.3135418,N,03025.1827799,E,2,12,1.8,185.699,M,26.200,M,1.0,0000*7D
$GPRMC,182619.600,A,5029.3135418,N,03025.1827799,E,000.00,000.00,220418,,,D*6D
$GPVTG,000.00,T,,M,000.00,N,000.00,K,D*38
$PSTI,030,182619.600,A,5029.3135418,N,03025.1827799,E,185.699,-0.02,0.00,-0.05,220418,D,0.0,0.0*1A
$GPGGA,182619.800,5029.3135274,N,03025.1827744,E,1,12,1.6,185.509,M,26.200,M,,0000*57
$GPRMC,182619.800,A,5029.3135274,N,03025.1827744,E,000.00,000.00,220418,,,A*6A
$GPVTG,000.00,T,,M,000.00,N,000.00,K,A*3D
$PSTI,030,182619.800,A,5029.3135274,N,03025.1827744,E,185.509,-0.02,-0.03,0.00,220418,A,0.0,0.0*11
$GPGGA,182620.000,5029.3135192,N,03025.1827817,E,2,12,1.8,185.351,M,26.200,M,2.0,0000*7D
$GPGLL,5029.3135192,N,03025.1827817,E,182620.000,A,D*55
$GPGSA,A,3,16,27,21,29,10,15,,,,,,,3.7,1.8,3.3*30
$GLGSA,A,3,70,86,77,76,85,71,,,,,,,3.7,1.8,3.3*20
$GPRMC,182620.000,A,5029.3135192,N,03025.1827817,E,000.00,000.00,220418,,,D*6F
$GPVTG,000.00,T,,M,000.00,N,000.00,K,D*38
$GPZDA,182620.000,22,04,2018,00,00*56
$GPGST,182620.000,1.798,2.953,1.304,36.4,2.500,2.042,5.876*5A
$PSTI,030,182620.000,A,5029.3135192,N,03025.1827817,E,185.351,-0.00,0.01,-0.03,220418,D,0.0,0.0*1C
$PSTI,032,182620.000,220418,V,,,,,,,,,,,*49
$GPGGA,182620.200,5029.3134954,N,03025.1827595,E,2,12,1.8,185.172,M,26.200,M,2.0,0000*78
$GPRMC,182620.200,A,5029.3134954,N,03025.1827595,E,000.00,000.00,220418,,,D*69
$GPVTG,000.00,T,,M,000.00,N,000.00,K,D*38
$PSTI,030,182620.200,A,5029.3134954,N,03025.1827595,E,185.172,0.01,-0.00,0.01,220418,D,0.0,0.0*36
$GPGGA,182620.400,5029.3134704,N,03025.1827393,E,1,12,1.6,185.016,M,26.200,M,,0000*57
$GPRMC,182620.400,A,5029.3134704,N,03025.1827393,E,000.00,000.00,220418,,,A*61
$GPVTG,000.00,T,,M,000.00,N,000.00,K,A*3D
$PSTI,030,182620.400,A,5029.3134704,N,03025.1827393,E,185.016,0.01,0.02,-0.00,220418,A,0.0,0.0*3E
$GPGGA,182620.600,5029.3135009,N,03025.1828450,E,2,12,1.8,185.078,M,26.200,M,2.0,0000*70
$GPRMC,182620.600,A,5029.3135009,N,03025.1828450,E,000.00,000.00,220418,,,D*6A
$GPVTG,000.00,T,,M,000.00,N,000.00,K,D*38
$PSTI,030,182620.600,A,5029.3135009,N,03025.1828450,E,185.078,0.00,0.01,-0.02,220418,D,0.0,0.0*3D
$GPGGA,182620.800,5029.3135319,N,03025.1829424,E,2,12,1.8,185.109,M,26.200,M,2.0,0000*79
$GPRMC,182620.800,A,5029.3135319,N,03025.1829424,E,000.00,000.00,220418,,,D*64
$GPVTG,000.00,T,,M,000.00,N,000.00,K,D*38
$PSTI,030,182620.800,A,5029.3135319,N,03025.1829424,E,185.109,-0.00,0.00,-0.00,220418,D,0.0,0.0*1A
$GPGGA,182621.000,5029.3135629,N,03025.1830292,E,2,12,1.8,185.101,M,26.200,M,3.0,0000*7C
$GPGLL,5029.3135629,N,03025.1830292,E,182621.000,A,D*52
$GPGSA,A,3,16,27,21,29,10,15,,,,,,,3.7,1.8,3.3*30
$GLGSA,A,3,70,86,77,76,85,71,,,,,,,3.7,1.8,3.3*20
$GPGSV,4,1,13,21,72,067,48,20,60,090,23,16,54,258,48,26,41,215,23*7A
$GPGSV,4,2,13,27,40,300,49,10,33,189,45,04,33,197,43,15,21,083,43*75
$GPGSV,4,3,13,29,17,119,44,13,14,050,39,193,10,051,34,07,05,338,46*41
$GPGSV,4,4,13,08,02,302,*40
$GLGSV,3,1,09,86,66,333,51,70,50,077,38,85,42,084,49,71,34,149,46*6B
$GLGSV,3,2,09,77,28,310,41,76,21,246,39,69,14,023,,87,14,290,42*64
$GLGSV,3,3,09,78,06,354,34*50
$GPRMC,182621.000,A,5029.3135629,N,03025.1830292,E,000.00,000.00,220418,,,D*68
$GPVTG,000.00,T,,M,000.00,N,000.00,K,D*38
$GPZDA,182621.000,22,04,2018,00,00*57
$GPGST,182621.000,1.902,3.125,1.380,36.4,2.646,2.160,6.219*52
$PSTI,030,182621.000,A,5029.3135629,N,03025.1830292,E,185.101,0.00,0.01,-0.02,220418,D,0.0,0.0*30
$PSTI,032,182621.000,220418,V,,,,,,,,,,,*48
$GPGGA,182621.200,5029.3135790,N,03025.1830999,E,2,12,1.8,185.093,M,26.200,M,3.0,0000*77
$GPRMC,182621.200,A,5029.3135790,N,03025.1830999,E,000.00,000.00,220418,,,D*69
$GPVTG,000.00,T,,M,000.00,N,000.00,K,D*38
$PSTI,030,182621.200,A,5029.3135790,N,03025.1830999,E,185.093,-0.01,0.01,-0.01,220418,D,0.0,0.0*14
$GPGGA,182621.400,5029.3136006,N,03025.1831207,E,2,12,1.8,185.067,M,26.200,M,3.0,0000*7C
$GPRMC,182621.400,A,5029.3136006,N,03025.1831207,E,000.00,000.00,220418,,,D*69
$GPVTG,000.00,T,,M,000.00,N,000.00,K,D*38
$PSTI,030,182621.400,A,5029.3136006,N,03025.1831207,E,185.067,-0.00,-0.01,-0.00,220418,D,0.0,0.0*32
$GPGGA,182621.600,5029.3136285,N,03025.1831750,E,2,12,1.8,185.045,M,26.200,M,3.0,0000*70
$GPRMC,182621.600,A,5029.3136285,N,03025.1831750,E,000.00,000.00,220418,,,D*65
$GPVTG,000.00,T,,M,000.00,N,000.00,K,D*38
$PSTI,030,182621.600,A,5029.3136285,N,03025.1831750,E,185.045,-0.00,0.01,-0.02,220418,D,0.0,0.0*11
$GPGGA,182621.800,5029.3136518,N,03025.1832186,E,2,12,1.8,185.017,M,26.200,M,3.0,0000*74
$GPRMC,182621.800,A,5029.3136518,N,03025.1832186,E,000.00,000.00,220418,,,D*66
$GPVTG,000.00,T,,M,000.00,N,000.00,K,D*38
$PSTI,030,182621.800,A,5029.3136518,N,03025.1832186,E,185.017,-0.00,0.00,-0.01,220418,D,0.0,0.0*17
$GPGGA,182622.000,5029.3136716,N,03025.1832493,E,2,12,1.8,184.979,M,26.200,M,4.0,0000*75
$GPGLL,5029.3136716,N,03025.1832493,E,182622.000,A,D*5A
$GPGSA,A,3,16,27,21,29,10,15,,,,,,,3.7,1.8,3.3*30
$GLGSA,A,3,70,86,77,76,85,71,,,,,,,3.7,1.8,3.3*20
$GPRMC,182622.000,A,5029.3136716,N,03025.1832493,E,000.00,000.00,220418,,,D*60
$GPVTG,000.00,T,,M,000.00,N,000.00,K,D*38
$GPZDA,182622.000,22,04,2018,00,00*54
$GPGST,182622.000,1.897,3.115,1.376,36.4,2.638,2.154,6.200*50
$PSTI,030,182622.000,A,5029.3136716,N,03025.1832493,E,184.979,0.00,0.00,-0.02,220418,D,0.0,0.0*3F
$PSTI,032,182622.000,220418,V,,,,,,,,,,,*4B
$GPGGA,182622.200,5029.3136872,N,03025.1832695,E,2,12,1.8,184.941,M,26.200,M,4.0,0000*75
$GPRMC,182622.200,A,5029.3136872,N,03025.1832695,E,000.00,000.00,220418,,,D*6B
$GPVTG,000.00,T,,M,000.00,N,000.00,K,D*38
$PSTI,030,182622.200,A,5029.3136872,N,03025.1832695,E,184.941,-0.01,0.01,0.00,220418,D,0.0,0.0*3D
$GPGGA,182622.400,5029.3137003,N,03025.1832802,E,2,12,1.8,184.894,M,26.200,M,4.0,0000*75
$GPRMC,182622.400,A,5029.3137003,N,03025.1832802,E,000.00,000.00,220418,,,D*62
$GPVTG,000.00,T,,M,000.00,N,000.00,K,D*38
$PSTI,030,182622.400,A,5029.3137003,N,03025.1832802,E,184.894,-0.00,-0.00,-0.00,220418,D,0.0,0.0*3D
$GPGGA,182622.600,5029.3137106,N,03025.1832806,E,2,12,1.8,184.839,M,26.200,M,4.0,0000*70
$GPRMC,182622.600,A,5029.3137106,N,03025.1832806,E,000.00,000.00,220418,,,D*60
$GPVTG,000.00,T,,M,000.00,N,000.00,K,D*38
$PSTI,030,182622.600,A,5029.3137106,N,03025.1832806,E,184.839,-0.00,-0.01,-0.01,220418,D,0.0,0.0*38
$GPGGA,182622.800,5029.3137188,N,03025.1832721,E,2,12,1.8,184.779,M,26.200,M,4.0,0000*79
$GPRMC,182622.800,A,5029.3137188,N,03025.1832721,E,000.00,000.00,220418,,,D*62
$GPVTG,000.00,T,,M,000.00,N,000.00,K,D*38
$PSTI,030,182622.800,A,5029.3137188,N,03025.1832721,E,184.779,0.00,-0.00,-0.00,220418,D,0.0,0.0*1C
$GPGGA,182623.000,5029.3137242,N,03025.1832549,E,2,12,1.8,184.712,M,26.200,M,5.0,0000*75
$GPGLL,5029.3137242,N,03025.1832549,E,182623.000,A,D*58
$GPGSA,A,3,16,27,21,29,10,15,,,,,,,3.7,1.8,3.3*30
$GLGSA,A,3,70,86,77,76,85,71,,,,,,,3.7,1.8,3.3*20
$GPRMC,182623.000,A,5029.3137242,N,03025.1832549,E,000.00,000.00,220418,,,D*62
$GPVTG,000.00,T,,M,000.00,N,000.00,K,D*38
$GPZDA,182623.000,22,04,2018,00,00*55
$GPGST,182623.000,1.883,3.093,1.366,36.4,2.620,2.138,6.156*59
$PSTI,030,182623.000,A,5029.3137242,N,03025.1832549,E,184.712,-0.00,-0.01,-0.01,220418,D,0.0,0.0*3C
$PSTI,032,182623.000,220418,V,,,,,,,,,,,*4A
$GPGGA,182623.200,5029.3137269,N,03025.1832356,E,2,12,1.8,184.646,M,26.200,M,5.0,0000*76
$GPRMC,182623.200,A,5029.3137269,N,03025.1832356,E,000.00,000.00,220418,,,D*61
$GPVTG,000.00,T,,M,000.00,N,000.00,K,D*38
$PSTI,030,182623.200,A,5029.3137269,N,03025.1832356,E,184.646,0.00,0.01,-0.01,220418,D,0.0,0.0*3F
$GPGGA,182623.400,5029.3137271,N,03025.1832143,E,2,12,1.8,184.577,M,26.200,M,5.0,0000*7E
$GPRMC,182623.400,A,5029.3137271,N,03025.1832143,E,000.00,000.00,220418,,,D*68
$GPVTG,000.00,T,,M,000.00,N,000.00,K,D*38
$PSTI,030,182623.400,A,5029.3137271,N,03025.1832143,E,184.577,0.01,-0.00,-0.02,220418,D,0.0,0.0*19
$GPGGA,182623.600,5029.3137262,N,03025.1831902,E,2,12,1.8,184.506,M,26.200,M,5.0,0000*76
$GPRMC,182623.600,A,5029.3137262,N,03025.1831902,E,000.00,000.00,220418,,,D*66
$GPVTG,000.00,T,,M,000.00,N,000.00,K,D*38
$PSTI,030,182623.600,A,5029.3137262,N,03025.1831902,E,184.506,-0.01,0.00,-0.01,220418,D,0.0,0.0*12
$GPGGA,182623.800,5029.3137242,N,03025.1831676,E,2,12,1.8,184.434,M,26.200,M,5.0,0000*76
$GPRMC,182623.800,A,5029.3137242,N,03025.1831676,E,000.00,000.00,220418,,,D*66
$GPVTG,000.00,T,,M,000.00,N,000.00,K,D*38
$PSTI,030,182623.800,A,5029.3137242,N,03025.1831676,E,184.434,-0.00,-0.00,-0.01,220418,D,0.0,0.0*3E
