09998,E,1,12,0.8,214.762,M,26.200,M,,0000*52
$GPRMC,184214.800,A,5029.3086486,N,03025.1809998,E,000.00,000.00,220418,,,A*64
$GPVTG,000.00,T,,M,000.00,N,000.00,K,A*3D
$PSTI,030,184214.800,A,5029.3086486,N,03025.1809998,E,214.762,0.01,-0.01,-0.03,220418,A,0.0,0.0*19
$GPGGA,184215.000,5029.3079591,N,03025.1812228,E,1,12,0.8,218.812,M,26.200,M,,0000*52
$GPGLL,5029.3079591,N,03025.1812228,E,184215.000,A,A*5A
$GPGSA,A,3,21,20,16,27,10,26,15,,,,,,1.8,0.8,1.6*36
$GLGSA,A,3,86,77,87,85,71,,,,,,,,1.8,0.8,1.6*22
$GPGSV,4,1,14,21,66,071,48,20,57,077,46,16,51,246,48,27,47,301,49*74
$GPGSV,4,2,14,10,40,189,45,26,34,211,45,04,26,195,42,15,23,076,44*71
$GPGSV,4,3,14,13,14,044,38,29,10,123,44,193,09,051,,08,08,304,35*4A
$GPGSV,4,4,14,07,05,332,46,30,00,356,*7D
$GLGSV,3,1,10,86,71,354,51,70,49,064,,71,43,145,48,85,35,092,44*6D
$GLGSV,3,2,10,77,28,301,41,87,21,296,40,76,14,241,37,78,11,349,45*6A
$GLGSV,3,3,10,69,07,020,,72,04,179,36*65
$GPRMC,184215.000,A,5029.3079591,N,03025.1812228,E,000.00,000.00,220418,,,A*60
$GPVTG,000.00,T,,M,000.00,N,000.00,K,A*3D
$GPZDA,184215.000,22,04,2018,00,00*52
$GPGST,184215.000,2.875,1.967,1.414,8.5,1.957,1.428,4.564*66
$PSTI,030,184215.000,A,5029.3079591,N,03025.1812228,E,218.812,0.01,-0.00,-0.03,220418,A,0.0,0.0*18
$PSTI,032,184215.000,220418,V,,,,,,,,,,,*4D
$GPGGA,184215.200,5029.3073741,N,03025.1812849,E,1,12,0.8,222.679,M,26.200,M,,0000*52
$GPRMC,184215.200,A,5029.3073741,N,03025.1812849,E,000.00,000.00,220418,,,A*6A
$GPVTG,000.00,T,,M,000.00,N,000.00,K,A*3D
$PSTI,030,184215.200,A,5029.3073741,N,03025.1812849,E,222.679,-0.00,-0.00,-0.02,220418,A,0.0,0.0*35
$GPGGA,184215.400,5029.3068713,N,03025.1812817,E,1,12,0.8,226.384,M,26.200,M,,0000*51
$GPRMC,184215.400,A,5029.3068713,N,03025.1812817,E,000.00,000.00,220418,,,A*6A
$GPVTG,000.00,T,,M,000.00,N,000.00,K,A*3D
$PSTI,030,184215.400,A,5029.3068713,N,03025.1812817,E,226.384,-0.00,0.00,-0.02,220418,A,0.0,0.0*1B
$GPGGA,184215.600,5029.3064062,N,03025.1812312,E,1,12,0.8,229.968,M,26.200,M,,0000*57
$GPRMC,184215.600,A,5029.3064062,N,03025.1812312,E,000.00,000.00,220418,,,A*6B
$GPVTG,000.00,T,,M,000.00,N,000.00,K,A*3D
$PSTI,030,184215.600,A,5029.3064062,N,03025.1812312,E,229.968,0.01,0.01,-0.02,220418,A,0.0,0.0*30
$GPGGA,184215.800,5029.3059819,N,03025.1811376,E,1,12,0.8,233.415,M,26.200,M,,0000*5E
$GPRMC,184215.800,A,5029.3059819,N,03025.1811376,E,000.00,000.00,220418,,,A*6E
$GPVTG,000.00,T,,M,000.00,N,000.00,K,A*3D
$PSTI,030,184215.800,A,5029.3059819,N,03025.1811376,E,233.415,0.01,-0.00,-0.01,220418,A,0.0,0.0*16
$GPGGA,184216.000,5029.3056323,N,03025.1809654,E,1,12,0.8,236.585,M,26.200,M,,0000*59
$GPGLL,5029.3056323,N,03025.1809654,E,184216.000,A,A*5E
$GPGSA,A,3,21,20,16,27,10,26,15,,,,,,1.8,0.8,1.6*36
$GLGSA,A,3,86,77,87,85,71,,,,,,,,1.8,0.8,1.6*22
$GPRMC,184216.000,A,5029.3056323,N,03025.1809654,E,000.00,000.00,220418,,,A*64
$GPVTG,000.00,T,,M,000.00,N,000.00,K,A*3D
$GPZDA,184216.000,22,04,2018,00,00*51
$GPGST,184216.000,3.279,2.244,1.613,8.5,2.232,1.629,5.206*64
$PSTI,030,184216.000,A,5029.3056323,N,03025.1809654,E,236.585,0.00,0.00,-0.01,220418,A,0.0,0.0*3D
$PSTI,032,184216.000,220418,V,,,,,,,,,,,*4E
$GPGGA,184216.200,5029.3053250,N,03025.1807705,E,1,12,0.8,239.525,M,26.200,M,,0000*55
$GPRMC,184216.200,A,5029.3053250,N,03025.1807705,E,000.00,000.00,220418,,,A*6D
$GPVTG,000.00,T,,M,000.00,N,000.00,K,A*3D
$PSTI,030,184216.200,A,5029.3053250,N,03025.1807705,E,239.525,0.00,-0.00,-0.02,220418,A,0.0,0.0*1F
$GPGGA,184216.400,5029.3050925,N,03025.1805944,E,1,12,0.8,242.187,M,26.200,M,,0000*50
$GPRMC,184216.400,A,5029.3050925,N,03025.1805944,E,000.00,000.00,220418,,,A*68
$GPVTG,000.00,T,,M,000.00,N,000.00,K,A*3D
$PSTI,030,184216.400,A,5029.3050925,N,03025.1805944,E,242.187,0.00,-0.00,-0.01,220418,A,0.0,0.0*19
$GPGGA,184216.600,5029.3049166,N,03025.1804077,E,1,12,0.8,244.578,M,26.200,M,,0000*5F
$GPRMC,184216.600,A,5029.3049166,N,03025.1804077,E,000.00,000.00,220418,,,A*65
$GPVTG,000.00,T,,M,000.00,N,000.00,K,A*3D
$PSTI,030,184216.600,A,5029.3049166,N,03025.1804077,E,244.578,0.00,0.00,-0.00,220418,A,0.0,0.0*3A
$GPGGA,184216.800,5029.3047659,N,03025.1802338,E,1,12,0.8,246.774,M,26.200,M,,0000*56
$GPRMC,184216.800,A,5029.3047659,N,03025.1802338,E,000.00,000.00,220418,,,A*60
$GPVTG,000.00,T,,M,000.00,N,000.00,K,A*3D
$PSTI,030,184216.800,A,5029.3047659,N,03025.1802338,E,246.774,0.00,0.00,-0.01,220418,A,0.0,0.0*32
$GPGGA,184217.000,5029.3046062,N,03025.1800611,E,1,12,0.8,248.803,M,26.200,M,,0000*5D
$GPGLL,5029.3046062,N,03025.1800611,E,184217.000,A,A*50
$GPGSA,A,3,21,20,16,27,10,26,15,,,,,,1.8,0.8,1.6*36
$GLGSA,A,3,86,77,87,85,71,,,,,,,,1.8,0.8,1.6*22
$GPRMC,184217.000,A,5029.3046062,N,03025.1800611,E,000.00,000.00,220418,,,A*6A
$GPVTG,000.00,T,,M,000.00,N,000.00,K,A*3D
$GPZDA,184217.000,22,04,2018,00,00*50
$GPGST,184217.000,3.420,2.340,1.682,8.5,2.328,1.699,5.430*60
$PSTI,030,184217.000,A,5029.3046062,N,03025.1800611,E,248.803,0.00,0.00,-0.02,220418,A,0.0,0.0*3A
$PSTI,032,184217.000,220418,V,,,,,,,,,,,*4F
$GPGGA,184217.200,5029.3046925,N,03025.1802235,E,1,13,0.8,248.224,M,26.200,M,,0000*5B
$GPRMC,184217.200,A,5029.3046925,N,03025.1802235,E,000.00,000.00,220418,,,A*62
$GPVTG,000.00,T,,M,000.00,N,000.00,K,A*3D
$PSTI,030,184217.200,A,5029.3046925,N,03025.1802235,E,248.224,-0.01,0.01,-0.02,220418,A,0.0,0.0*10
$GPGGA,184217.400,5029.3059161,N,03025.1821199,E,1,13,0.8,240.471,M,26.200,M,,0000*51
$GPRMC,184217.400,A,5029.3059161,N,03025.1821199,E,000.00,000.00,220418,,,A*66
$GPVTG,000.00,T,,M,000.00,N,000.00,K,A*3D
$PSTI,030,184217.400,A,5029.3059161,N,03025.1821199,E,240.471,0.01,0.01,-0.01,220418,A,0.0,0.0*34
$GPGGA,184217.600,5029.3068131,N,03025.1831928,E,1,13,0.8,234.960,M,26.200,M,,0000*59
$GPRMC,184217.600,A,5029.3068131,N,03025.1831928,E,000.00,000.00,220418,,,A*60
$GPVTG,000.00,T,,M,000.00,N,000.00,K,A*3D
$PSTI,030,184217.600,A,5029.3068131,N,03025.1831928,E,234.960,-0.00,0.00,-0.00,220418,A,0.0,0.0*10
$GPGGA,184217.800,5029.3074906,N,03025.1837833,E,1,13,0.8,230.792,M,26.200,M,,0000*5C
$GPRMC,184217.800,A,5029.3074906,N,03025.1837833,E,000.00,000.00,220418,,,A*62
$GPVTG,000.00,T,,M,000.00,N,000.00,K,A*3D
$PSTI,030,184217.800,A,5029.3074906,N,03025.1837833,E,230.792,0.00,0.00,-0.01,220418,A,0.0,0.0*39
$GPGGA,184218.000,5029.3080122,N,03025.1840956,E,1,13,0.8,227.460,M,26.200,M,,0000*54
$GPGLL,5029.3080122,N,03025.1840956,E,184218.000,A,A*58
$GPGSA,A,3,21,20,16,27,10,26,15,,,,,,1.8,0.8,1.6*36
$GLGSA,A,3,70,86,77,87,85,71,,,,,,,1.8,0.8,1.6*25
$GPGSV,4,1,14,21,66,071,48,20,57,077,46,16,51,246,48,27,47,301,49*74
$GPGSV,4,2,14,10,40,189,45,26,34,211,45,04,26,195,42,15,23,076,44*71
$GPGSV,4,3,14,13,14,044,38,29,10,123,44,193,09,051,,08,08,304,35*4A
$GPGSV,4,4,14,07,05,332,46,30,00,356,*7D
$GLGSV,3,1,10,86,71,354,51,70,49,064,37,71,43,145,48,85,35,092,46*6B
$GLGSV,3,2,10,77,28,301,41,87,21,296,41,76,14,241,36,78,11,349,45*6A
$GLGSV,3,3,10,69,07,020,,72,04,179,37*64
$GPRMC,184218.000,A,5029.3080122,N,03025.1840956,E,000.00,000.00,220418,,,A*62
$GPVTG,000.00,T,,M,000.00,N,000.00,K,A*3D
$GPZDA,184218.000,22,04,2018,00,00*5F
$GPGST,184218.000,3.460,2.295,1.653,3.4,2.293,1.656,5.463*60
$PSTI,030,184218.000,A,5029.3080122,N,03025.1840956,E,227.460,0.00,0.01,-0.02,220418,A,0.0,0.0*33
$PSTI,032,184218.000,220418,V,,,,,,,,,,,*40
$GPGGA,184218.200,5029.3084058,N,03025.1842536,E,1,13,0.8,224.657,M,26.200,M,,0000*53
$GPRMC,184218.200,A,5029.3084058,N,03025.1842536,E,000.00,000.00,220418,,,A*60
$GPVTG,000.00,T,,M,000.00,N,000.00,K,A*3D
$PSTI,030,184218.200,A,5029.3084058,N,03025.1842536,E,224.657,-0.00,0.01,-0.01,220418,A,0.0,0.0*1A
$GPGGA,184218.400,5029.3087139,N,03025.1843313,E,1,13,0.8,222.246,M,26.200,M,,0000*52
$GPRMC,184218.400,A,5029.3087139,N,03025.1843313,E,000.00,000.00,220418,,,A*63
$GPVTG,000.00,T,,M,000.00,N,000.00,K,A*3D
$PSTI,030,184218.400,A,5029.3087139,N,03025.1843313,E,222.246,0.01,-0.00,-0.01,220418,A,0.0,0.0*1B
$GPGGA,184218.600,5029.3089722,N,03025.1844328,E,1,13,0.8,220.213,M,26.200,M,,0000*5F
$GPRMC,184218.600,A,5029.3089722,N,03025.1844328,E,000.00,000.00,220418,,,A*6C
$GPVTG,000.00,T,,M,000.00,N,000.00,K,A*3D
$PSTI,030,184218.600,A,5029.3089722,N,03025.1844328,E,220.213,-0.00,0.00,-0.01,220418,A,0.0,0.0*17
$GPGGA,184218.800,5029.3091676,N,03025.1844388,E,1,13,0.8,218.392,M,26.200,M,,0000*51
$GPRMC,184218.800,A,5029.3091676,N,03025.1844388,E,000.00,000.00,220418,,,A*61
$GPVTG,000.00,T,,M,000.00,N,000.00,K,A*3D
$PSTI,030,184218.800,A,5029.3091676,N,03025.1844388,E,218.392,0.00,-0.00,-0.02,220418,A,0.0,0.0*1A
$GPGGA,184219.000,5029.3093630,N,03025.1843159,E,1,13,0.8,216.723,M,26.200,M,,0000*51
$GPGLL,5029.3093630,N,03025.1843159,E,184219.000,A,A*5B
$GPGSA,A,3,21,20,16,27,10,26,15,,,,,,1.8,0.8,1.6*36
$GLGSA,A,3,70,86,77,87,85,71,,,,,,,1.8,0.8,1.6*25
$GPRMC,184219.000,A,5029.3093630,N,03025.1843159,E,000.00,000.00,220418,,,A*61
$GPVTG,000.00,T,,M,000.00,N,000.00,K,A*3D
$GPZDA,184219.000,22,04,2018,00,00*5E
$GPGST,184219.000,3.249,2.155,1.553,3.4,2.153,1.555,5.131*6D
$PSTI,030,184219.000,A,5029.3093630,N,03025.1843159,E,216.723,0.01,0.01,-0.01,220418,A,0.0,0.0*34
$PSTI,032,184219.000,220418,V,,,,,,,,,,,*41
$GPGGA,184219.200,5029.3095316,N,03025.1842030,E,1,13,0.8,215.344,M,26.200,M,,0000*5D
$GPRMC,184219.200,A,5029.3095316,N,03025.1842030,E,000.00,000.00,220418,,,A*6B
$GPVTG,000.00,T,,M,000.00,N,000.00,K,A*3D
$PSTI,030,184219.200,A,5029.3095316,N,03025.1842030,E,215.344,0.00,0.00,-0.02,220418,A,0.0,0.0*3B
$GPGGA,184219.400,5029.3096734,N,03025.1840982,E,1,13,0.8,214.086,M,26.200,M,,0000*52
$GPRMC,184219.400,A,5029.3096734,N,03025.1840982,E,000.00,000.00,220418,,,A*68
$GPVTG,000.00,T,,M,000.00,N,000.00,K,A*3D
$PSTI,030,184219.400,A,5029.3096734,N,03025.1840982,E,214.086,-0.01,0.00,-0.01,220418,A,0.0,0.0*1B
$GPGGA,184219.600,5029.3098091,N,03025.1839902,E,1,13,0.8,212.978,M,26.200,M,,0000*5E
$GPRMC,184219.600,A,5029.3098091,N,03025.1839902,E,000.00,000.00,220418,,,A*6A
$GPVTG,000.00,T,,M,000.00,N,000.00,K,A*3D
$PSTI,030,184219.600,A,5029.3098091,N,03025.1839902,E,212.978,0.00,-0.00,-0.02,220418,A,0.0,0.0*15
$GPGGA,184219.800,5029.3099347,N,03025.1838964,E,1,13,0.8,211.965,M,26.200,M,,0000*57
$GPRMC,184219.800,A,5029.3099347,N,03025.1838964,E,000.00,000.00,220418,,,A*6C
$GPVTG,000.00,T,,M,000.00,N,000.00,K,A*3D
$PSTI,030,184219.800,A,5029.3099347,N,03025.1838964,E,211.965,0.00,0.00,-0.00,220418,A,0.0,0.0*33
$GPGGA,184220.000,5029.3100428,N,03025.1838133,E,1,13,0.8,211.044,M,26.200,M,,0000*5A
$GPGLL,5029.3100428,N,03025.1838133,E,184220.000,A,A*51
$GPGSA,A,3,21,20,16,27,10,26,15,,,,,,1.8,0.8,1.6*36
$GLGSA,A,3,70,86,77,87,85,71,,,,,,,1.8,0.8,1.6*25
$GPRMC,184220.000,A,5029.3100428,N,03025.1838133,E,000.00,000.00,220418,,,A*6B
$GPVTG,000.00,T,,M,000.00,N,000.00,K,A*3D
$GPZDA,184220.000,22,04,2018,00,00*54
$GPGST,184220.000,3.201,2.123,1.530,3.4,2.121,1.532,5.056*6B
$PSTI,030,184220.000,A,5029.3100428,N,03025.1838133,E,211.044,0.01,-0.00,0.00,220418,A,0.0,0.0*3F
$PSTI,032,184220.000,220418,V,,,,,,,,,,,*4B
$GPGGA,184220.200,5029.3101431,N,03025.1837313,E,1,13,0.8,210.206,M,26.200,M,,0000*5B
$GPRMC,184220.200,A,5029.3101431,N,03025.1837313,E,000.00,000.00,220418,,,A*6F
$GPVTG,000.00,T,,M,000.00,N,000.00,K,A*3D
$PSTI,030,184220.200,A,5029.3101431,N,03025.1837313,E,210.206,-0.01,0.00,0.01,220418,A,0.0,0.0*3F
$GPGGA,184220.400,5029.3102882,N,03025.1835545,E,1,13,0.8,208.662,M,26.200,M,,0000*52
$GPRMC,184220.400,A,5029.3102882,N,03025.1835545,E,000.00,000.00,220418,,,A*69
$GPVTG,000.00,T,,M,000.00,N,000.00,K,A*3D
$PSTI,030,184220.400,A,5029.3102882,N,03025.1835545,E,208.662,0.00,0.00,0.00,220418,A,0.0,0.0*1B
$GPGGA,184220.600,5029.3104254,N,03025.1833460,E,1,13,0.8,207.878,M,26.200,M,,0000*5D
$GPRMC,184220.600,A,5029.3104254,N,03025.1833460,E,000.00,000.00,220418,,,A*6C
$GPVTG,000.00,T,,M,000.00,N,000.00,K,A*3D
$PSTI,030,184220.600,A,5029.3104254,N,03025.1833460,E,207.878,0.01,-0.00,-0.01,220418,A,0.0,0.0*14
$GPGGA,184220.800,5029.3105511,N,03025.1831288,E,1,13,0.8,206.676,M,26.200,M,,0000*57
$GPRMC,184220.800,A,5029.3105511,N,03025.1831288,E,000.00,000.00,220418,,,A*67
$GPVTG,000.00,T,,M,000.00,N,000.00,K,A*3D
$PSTI,030,184220.800,A,5029.3105511,N,03025.1831288,E,206.676,-0.00,-0.00,-0.01,220418,A,0.0,0.0*32
$GPGGA,184221.000,5029.3107794,N,03025.1828482,E,1,13,0.8,205.498,M,26.200,M,,0000*56
$GPGLL,5029.3107794,N,03025.1828482,E,184221.000,A,A*5D
$GPGSA,A,3,21,20,16,27,10,26,15,,,,,,1.8,0.8,1.6*36
$GLGSA,A,3,70,86,77,87,85,71,,,,,,,1.8,0.8,1.6*25
$GPGSV,4,1,14,21,66,071,48,20,57,077,46,16,51,246,48,27,47,301,49*74
$GPGSV,4,2,14,10,40,189,45,26,34,211,45,04,26,195,42,15,23,076,44*71
$GPGSV,4,3,14,13,14,044,38,29,10,123,44,193,09,051,,08,08,304,36*49
$GPGSV,4,4,14,07,05,332,46,30,00,356,*7D
$GLGSV,3,1,10,86,71,354,51,70,49,064,39,71,43,145,49,85,35,092,46*64
$GLGSV,3,2,10,77,28,301,41,87,21,296,41,76,14,241,37,78,11,349,44*6A
$GLGSV,3,3,10,69,07,020,,72,04,179,37*64
$GPRMC,184221.000,A,5029.3107794,N,03025.1828482,E,000.00,000.00,220418,,,A*67
$GPVTG,000.00,T,,M,000.00,N,000.00,K,A*3D
$GPZDA,184221.000,22,04,2018,00,00*55
$GPGST,184221.000,2.894,1.919,1.383,3.4,1.918,1.385,4.570*6A
$PSTI,030,184221.000,A,5029.3107794,N,03025.1828482,E,205.498,0.01,-0.01,-0.01,220418,A,0.0,0.0*1E
$PSTI,032,184221.000,220418,V,,,,,,,,,,,*4A
$GPGGA,184221.200,5029.3109355,N,03025.1826413,E,1,13,0.8,204.531,M,26.200,M,,0000*56
$GPRMC,184221.200,A,5029.3109355,N,03025.1826413,E,000.00,000.00,220418,,,A*64
$GPVTG,000.00,T,,M,000.00,N,000.00,K,A*3D
$PSTI,030,184221.200,A,5029.3109355,N,03025.1826413,E,204.531,-0.00,-0.01,0.00,220418,A,0.0,0.0*1E
$GPGGA,184221.400,5029.3110400,N,03025.1824693,E,1,13,0.8,203.711,M,26.200,M,,0000*50
$GPRMC,184221.400,A,5029.3110400,N,03025.1824693,E,000.00,000.00,220418,,,A*65
$GPVTG,000.00,T,,M,000.00,N,000.00,K,A*3D
$PSTI,030,184221.400,A,5029.3110400,N,03025.1824693,E,203.711,-0.00,0.00,-0.01,220418,A,0.0,0.0*18
$GPGGA,184221.600,5029.3111068,N,03025.1823455,E,1,13,0.8,202.986,M,26.200,M,,0000*57
$GPRMC,184221.600,A,5029.3111068,N,03025.1823455,E,000.00,000.00,220418,,,A*63
$GPVTG,000.00,T,,M,000.00,N,000.00,K,A*3D
$PSTI,030,184221.600,A,5029.3111068,N,03025.1823455,E,202.986,0.00,-0.00,-0.00,220418,A,0.0,0.0*1E
$GPGGA,184221.800,5029.3111553,N,03025.1822660,E,1,13,0.8,202.349,M,26.200,M,,0000*58
$GPRMC,184221.800,A,5029.3111553,N,03025.1822660,E,000.00,000.00,220418,,,A*65
$GPVTG,000.00,T,,M,000.00,N,000.00,K,A*3D
$PSTI,030,184221.800,A,5029.3111553,N,03025.1822660,E,202.349,-0.00,0.01,-0.01,220418,A,0.0,0.0*11
$GPGGA,184222.000,5029.3111940,N,03025.1822037,E,1,13,0.8,201.773,M,26.200,M,,0000*57
$GPGLL,5029.3111940,N,03025.1822037,E,184222.000,A,A*5E
$GPGSA,A,3,21,20,16,27,10,26,15,,,,,,1.8,0.8,1.6*36
$GLGSA,A,3,70,86,77,87,85,71,,,,,,,1.8,0.8,1.6*25
$GPRMC,184222.000,A,5029.3111940,N,03025.1822037,E,000.00,000.00,220418,,,A*64
$GPVTG,000.00,T,,M,000.00,N,000.00,K,A*3D
$GPZDA,184222.000,22,04,2018,00,00*56
$GPGST,184222.000,2.437,1.616,1.164,3.4,1.615,1.166,3.849*6A
$PSTI,030,184222.000,A,5029.3111940,N,03025.1822037,E,201.773,0.01,-0.00,-0.00,220418,A,0.0,0.0*1F
$PSTI,032,184222.000,220418,V,,,,,,,,,,,*49
$GPGGA,184222.200,5029.3112289,N,03025.1821387,E,1,13,0.8,201.260,M,26.200,M,,0000*54
$GPRMC,184222.200,A,5029.3112289,N,03025.1821387,E,000.00,000.00,220418,,,A*60
$GPVTG,000.00,T,,M,000.00,N,000.00,K,A*3D
$PSTI,030,184222.200,A,5029.3112289,N,03025.1821387,E,201.260,0.00,-0.00,-0.01,220418,A,0.0,0.0*1C
$GPGGA,184222.400,5029.3112373,N,03025.1820829,E,1,13,0.8,200.837,M,26.200,M,,0000*51
$GPRMC,184222.400,A,5029.3112373,N,03025.1820829,E,000.00,000.00,220418,,,A*6C
$GPVTG,000.00,T,,M,000.00,N,000.00,K,A*3D
$PSTI,030,184222.400,A,5029.3112373,N,03025.1820829,E,200.837,0.00,0.00,-0.00,220418,A,0.0,0.0*35
$GPGGA,184222.600,5029.3112466,N,03025.1820151,E,1,13,0.8,200.441,M,26.200,M,,0000*5B
$GPRMC,184222.600,A,5029.3112466,N,03025.1820151,E,000.00,000.00,220418,,,A*6B
$GPVTG,000.00,T,,M,000.00,N,000.00,K,A*3D
$PSTI,030,184222.600,A,5029.3112466,N,03025.1820151,E,200.441,-0.00,-0.01,-0.00,220418,A,0.0,0.0*3E
$GPGGA,184222.800,5029.3112551,N,03025.1819489,E,1,13,0.8,200.106,M,26.200,M,,0000*5C
$GPRMC,184222.800,A,5029.3112551,N,03025.1819489,E,000.00,000.00,220418,,,A*6A
$GPVTG,000.00,T,,M,000.00,N,000.00,K,A*3D
$PSTI,030,184222.800,A,5029.3112551,N,03025.1819489,E,200.106,0.00,0.00,0.01,220418,A,0.0,0.0*14
$GPGGA,184223.000,5029.3112525,N,03025.1818925,E,1,13,0.8,199.796,M,26.200,M,,0000*50
$GPGLL,5029.3112525,N,03025.1818925,E,184223.000,A,A*50
$GPGSA,A,3,21,20,16,27,10,26,15,,,,,,1.8,0.8,1.6*36
$GLGSA,A,3,70,86,77,87,85,71,,,,,,,1.8,0.8,1.6*25
$GPRMC,184223.000,A,5029.3112525,N,03025.1818925,E,000.00,000.00,220418,,,A*6A
$GPVTG,000.00,T,,M,000.00,N,000.00,K,A*3D
$GPZDA,184223.000,22,04,2018,00,00*57
$GPGST,184223.000,1.910,1.267,0.913,3.4,1.266,0.914,3.017*64
$PSTI,030,184223.000,A,5029.3112525,N,03025.1818925,E,199.796,0.01,0.00,0.00,220418,A,0.0,0.0*18
$PSTI,032,184223.000,220418,V,,,,,,,,,,,*48
$GPGGA,184223.200,5029.3112521,N,03025.1818512,E,1,13,0.8,199.516,M,26.200,M,,0000*54
$GPRMC,184223.200,A,5029.3112521,N,03025.1818512,E,000.00,000.00,220418,,,A*64
$GPVTG,000.00,T,,M,000.00,N,000.00,K,A*3D
$PSTI,030,184223.200,A,5029.3112521,N,03025.1818512,E,199.516,-0.01,-0.00,-0.00,220418,A,0.0,0.0*31
$GPGGA,184223.400,5029.3112535,N,03025.1818103,E,1,13,0.8,199.283,M,26.200,M,,0000*58
$GPRMC,184223.400,A,5029.3112535,N,03025.1818103,E,000.00,000.00,220418,,,A*63
$GPVTG,000.00,T,,M,000.00,N,000.00,K,A*3D
$PSTI,030,184223.400,A,5029.3112535,N,03025.1818103,E,199.283,0.00,0.01,-0.01,220418,A,0.0,0.0*3C
$GPGGA,184223.600,5029.3112611,N,03025.1817800,E,1,13,0.8,199.072,M,26.200,M,,0000*56
$GPRMC,184223.600,A,5029.3112611,N,03025.1817800,E,000.00,000.00,220418,,,A*61
$GPVTG,000.00,T,,M,000.00,N,000.00,K,A*3D
$PSTI,030,184223.600,A,5029.3112611,N,03025.1817800,E,199.072,0.01,-0.00,-0.01,220418,A,0.0,0.0*1F
$GPGGA,184223.800,5029.3112700,N,03025.1817569,E,1,13,0.8,198.898,M,26.200,M,,0000*56
$GPRMC,184223.800,A,5029.3112700,N,03025.1817569,E,000.00,000.00,220418,,,A*6C
$GPVTG,000.00,T,,M,000.00,N,000.00,K,A*3D
$PSTI,030,184223.800,A,5029.3112700,N,03025.1817569,E,198.898,-0.00,0.00,0.01,220418,A,0.0,0.0*33
$GPGGA,184224.000,5029.3112811,N,03025.1817437,E,1,13,0.8,198.736,M,26.200,M,,0000*57
$GPGLL,5029.3112811,N,03025.1817437,E,184224.000,A,A*5C
$GPGSA,A,3,21,20,16,27,10,26,15,,,,,,1.8,0.8,1.6*36
$GLGSA,A,3,70,86,77,87,85,71,,,,,,,1.8,0.8,1.6*25
$GPGSV,4,1,14,21,66,071,48,20,57,077,46,16,51,246,48,27,47,301,49*74
$GPGSV,4,2,14,10,40,189,45,26,34,211,45,40,28,149,40,04,26,195,42*73
$GPGSV,4,3,14,15,23,076,44,13,14,043,38,29,10,123,44,193,09,051,*48
$GPGSV,4,4,14,08,08,304,36,07,05,332,46*7C
$GLGSV,3,1,10,86,71,354,50,70,49,064,39,71,43,145,49,85,35,092,46*65
$GLGSV,3,2,10,77,28,301,41,87,21,296,41,76,14,241,38,78,11,349,44*65
$GLGSV,3,3,10,69,07,020,,72,04,179,37*64
$GPRMC,184224.000,A,5029.3112811,N,03025.1817437,E,000.00,000.00,220418,,,A*66
$GPVTG,000.00,T,,M,000.00,N,000.00,K,A*3D
$GPZDA,184224.000,22,04,2018,00,00*50
$GPGST,184224.000,1.256,0.833,0.600,3.3,0.833,0.601,1.985*6A
$PSTI,030,184224.000,A,5029.3112811,N,03025.1817437,E,198.736,0.01,-0.00,0.00,220418,A,0.0,0.0*32
$PSTI,032,184224.000,220418,V,,,,,,,,,,,*4F
$GPGGA,184224.200,5029.3112894,N,03025.1817322,E,1,13,0.8,198.597,M,26.200,M,,0000*52
$GPRMC,184224.200,A,5029.3112894,N,03025.1817322,E,000.00,000.00,220418,,,A*6A
$GPVTG,000.00,T,,M,000.00,N,000.00,K,A*3D
$PSTI,030,184224.200,A,5029.3112894,N,03025.1817322,E,198.597,-0.00,0.01,-0.00,220418,A,0.0,0.0*1A
$GPGGA,184224.400,5029.3113034,N,03025.1817204,E,1,13,0.8,198.456,M,26.200,M,,0000*5E
$GPRMC,184224.400,A,5029.3113034,N,03025.1817204,E,000.00,000.00,220418,,,A*6A
$GPVTG,000.00,T,,M,000.00,N,000.00,K,A*3D
$PSTI,030,184224.400,A,5029.3113034,N,03025.1817204,E,198.456,-0.00,0.00,0.01,220418,A,0.0,0.0*3B
$GPGGA,184224.600,5029.3113289,N,03025.1817091,E,1,13,0.8,198.276,M,26.200,M,,0000*52
$GPRMC,184224.600,A,5029.3113289,N,03025.1817091,E,000.00,000.00,220418,,,A*62
$GPVTG,000.00,T,,M,000.00,N,000.00,K,A*3D
$PSTI,030,184224.600,A,5029.3113289,N,03025.1817091,E,198.276,-0.00,-0.01,-0.01,220418,A,0.0,0.0*36
$GPGGA,184224.800,5029.3113518,N,03025.1817115,E,1,13,0.8,198.115,M,26.200,M,,0000*58
$GPRMC,184224.800,A,5029.3113518,N,03025.1817115,E,000.00,000.00,220418,,,A*6E
$GPVTG,000.00,T,,M,000.00,N,000.00,K,A*3D
$PSTI,030,184224.800,A,5029.3113518,N,03025.1817115,E,198.115,0.00,0.01,0.00,220418,A,0.0,0.0*10
$GPGGA,184225.000,5029.3113711,N,03025.1817244,E,1,13,0.8,197.979,M,26.200,M,,0000*50
$GPGLL,5029.3113711,N,03025.1817244,E,184225.000,A,A*51
$GPGSA,A,3,21,20,16,27,10,26,15,,,,,,1.8,0.8,1.6*36
$GLGSA,A,3,70,86,77,87,85,71,,,,,,,1.8,0.8,1.6*25
$GPRMC,184225.000,A,5029.3113711,N,03025.1817244,E,000.00,000.00,220418,,,A*6B
$GPVTG,000.00,T,,M,000.00,N,000.00,K,A*3D
$GPZDA,184225.000,22,04,2018,00,00*51
$GPGST,184225.000,1.036,0.687,0.495,3.3,0.687,0.496,1.637*6B
$PSTI,030,184225.000,A,5029.3113711,N,03025.1817244,E,197.979,-0.00,0.00,0.01,220418,A,0.0,0.0*35
$PSTI,032,184225.000,220418,V,,,,,,,,,,,*4E
$GPGGA,184225.200,5029.3113835,N,03025.1817421,E,1,13,0.8,197.845,M,26.200,M,,0000*50
$GPRMC,184225.200,A,5029.3113835,N,03025.1817421,E,000.00,000.00,220418,,,A*65
$GPVTG,000.00,T,,M,000.00,N,000.00,K,A*3D
$PSTI,030,184225.200,A,5029.3113835,N,03025.1817421,E,197.845,0.01,0.01,0.00,220418,A,0.0,0.0*19
$GPGGA,184225.400,5029.3113917,N,03025.1817738,E,1,13,0.8,197.711,M,26.200,M,,0000*52
$GPRMC,184225.400,A,5029.3113917,N,03025.1817738,E,000.00,000.00,220418,,,A*69
$GPVTG,000.00,T,,M,000.00,N,000.00,K,A*3D
$PSTI,030,184225.400,A,5029.3113917,N,03025.1817738,E,197.711,-0.01,-0.00,0.00,220418,A,0.0,0.0*1A
$GPGGA,184225.600,5029.3113883,N,03025.1818076,E,1,13,0.8,197.607,M,26.200,M,,0000*58
$GPRMC,184225.600,A,5029.3113883,N,03025.1818076,E,000.00,000.00,220418,,,A*65
$GPVTG,000.00,T,,M,000.00,N,000.00,K,A*3D
$PSTI,030,184225.600,A,5029.3113883,N,03025.1818076,E,197.607,-0.00,0.00,-0.01,220418,A,0.0,0.0*10
$GPGGA,184225.800,5029.3113961,N,03025.1818362,E,1,13,0.8,197.463,M,26.200,M,,0000*5D
$GPRMC,184225.800,A,5029.3113961,N,03025.1818362,E,000.00,000.00,220418,,,A*60
$GPVTG,000.00,T,,M,000.00,N,000.00,K,A*3D
$PSTI,030,184225.800,A,5029.3113961,N,03025.1818362,E,197.463,0.01,0.00,0.01,220418,A,0.0,0.0*14
$GPGGA,184226.000,5029.3114053,N,03025.1818607,E,1,13,0.8,197.323,M,26.200,M,,0000*5C
$GPGLL,5029.3114053,N,03025.1818607,E,184226.000,A,A*58
$GPGSA,A,3,21,20,16,27,10,26,15,,,,,,1.8,0.8,1.6*36
$GLGSA,A,3,70,86,77,87,85,71,,,,,,,1.8,0.8,1.6*25
$GPRMC,184226.000,A,5029.3114053,N,03025.1818607,E,000.00,000.00,220418,,,A*62
$GPVTG,000.00,T,,M,000.00,N,000.00,K,A*3D
$GPZDA,184226.000,22,04,2018,00,00*52
$GPGST,184226.000,0.928,0.616,0.444,3.3,0.615,0.444,1.467*68
$PSTI,030,184226.000,A,5029.3114053,N,03025.1818607,E,197.323,0.00,0.00,-0.00,220418,A,0.0,0.0*38
$PSTI,032,184226.000,220418,V,,,,,,,,,,,*4D
$GPGGA,184226.200,5029.3114114,N,03025.1818789,E,1,13,0.8,197.178,M,26.200,M,,0000*57
$GPRMC,184226.200,A,5029.3114114,N,03025.1818789,E,000.00,000.00,220418,,,A*65
$GPVTG,000.00,T,,M,000.00,N,000.00,K,A*3D
$PSTI,030,184226.200,A,5029.3114114,N,03025.1818789,E,197.178,0.00,0.00,-0.00,220418,A,0.0,0.0*33
$GPGGA,184226.400,5029.3114158,N,03025.1818835,E,1,13,0.8,197.049,M,26.200,M,,0000*52
$GPRMC,184226.400,A,5029.3114158,N,03025.1818835,E,000.00,000.00,220418,,,A*63
$GPVTG,000.00,T,,M,000.00,N,000.00,K,A*3D
$PSTI,030,184226.400,A,5029.3114158,N,03025.1818835,E,197.049,0.00,-0.00,-0.01,220418,A,0.0,0.0*1A
$GPGGA,184226.600,5029.3114237,N,03025.1818731,E,1,13,0.8,196.930,M,26.200,M,,0000*57
$GPRMC,184226.600,A,5029.3114237,N,03025.1818731,E,000.00,000.00,220418,,,A*60
$GPVTG,000.00,T,,M,000.00,N,000.00,K,A*3D
$PSTI,030,184226.600,A,5029.3114237,N,03025.1818731,E,196.930,0.00,-0.00,-0.01,220418,A,0.0,0.0*1F
$GPGGA,184226.800,5029.3114321,N,03025.1818622,E,1,13,0.8,196.812,M,26.200,M,,0000*5D
$GPRMC,184226.800,A,5029.3114321,N,03025.1818622,E,000.00,000.00,220418,,,A*6B
$GPVTG,000.00,T,,M,000.00,N,000.00,K,A*3D
$PSTI,030,184226.800,A,5029.3114321,N,03025.1818622,E,196.812,0.01,-0.00,0.00,220418,A,0.0,0.0*38
$GPGGA,184227.000,5029.3114422,N,03025.1818470,E,1,13,0.8,196.708,M,26.200,M,,0000*51
$GPGLL,5029.3114422,N,03025.1818470,E,184227.000,A,A*59
$GPGSA,A,3,21,20,16,27,10,26,15,,,,,,1.8,0.8,1.6*36
$GLGSA,A,3,70,86,77,87,85,71,,,,,,,1.8,0.8,1.6*25
$GPGSV,4,1,14,21,66,071,48,20,57,077,46,16,51,246,48,27,47,301,49*74
$GPGSV,4,2,14,10,40,189,45,26,34,211,45,40,28,149,40,04,26,195,42*73
$GPGSV,4,3,14,15,23,076,44,13,14,043,38,29,10,123,44,193,09,051,*48
$GPGSV,4,4,14,08,08,304,36,07,05,332,46*7C
$GLGSV,3,1,10,86,71,354,50,70,49,064,39,71,43,145,49,85,35,092,47*64
$GLGSV,3,2,10,77,28,301,41,87,21,296,41,76,14,241,37,78,11,349,44*6A
$GLGSV,3,3,10,69,07,020,,72,04,179,36*65
$GPRMC,184227.000,A,5029.3114422,N,03025.1818470,E,000.00,000.00,220418,,,A*63
$GPVTG,000.00,T,,M,000.00,N,000.00,K,A*3D
$GPZDA,184227.000,22,04,2018,00,00*53
$GPGST,184227.000,0.783,0.519,0.374,3.3,0.519,0.375,1.238*68
$PSTI,030,184227.000,A,5029.3114422,N,03025.1818470,E,196.708,0.01,0.01,-0.01,220418,A,0.0,0.0*34
$PSTI,032,184227.000,220418,V,,,,,,,,,,,*4C
$GPGGA,184227.200,5029.3114445,N,03025.1818288,E,1,13,0.8,196.636,M,26.200,M,,0000*5F
$GPRMC,184227.200,A,5029.3114445,N,03025.1818288,E,000.00,000.00,220418,,,A*61
$GPVTG,000.00,T,,M,000.00,N,000.00,K,A*3D
$PSTI,030,184227.200,A,5029.3114445,N,03025.1818288,E,196.636,0.00,-0.00,-0.01,220418,A,0.0,0.0*17
$GPGGA,184227.400,5029.3114479,N,03025.1818224,E,1,13,0.8,196.580,M,26.200,M,,0000*5E
$GPRMC,184227.400,A,5029.3114479,N,03025.1818224,E,000.00,000.00,220418,,,A*6E
$GPVTG,000.00,T,,M,000.00,N,000.00,K,A*3D
$PSTI,030,184227.400,A,5029.3114479,N,03025.1818224,E,196.580,0.00,-0.00,-0.01,220418,A,0.0,0.0*16
$GPGGA,184227.600,5029.3114553,N,03025.1818184,E,1,13,0.8,196.531,M,26.200,M,,0000*56
$GPRMC,184227.600,A,5029.3114553,N,03025.1818184,E,000.00,000.00,220418,,,A*6C
$GPVTG,000.00,T,,M,000.00,N,000.00,K,A*3D
$PSTI,030,184227.600,A,5029.3114553,N,03025.1818184,E,196.531,0.00,0.00,-0.01,220418,A,0.0,0.0*33
$GPGGA,184227.800,5029.3114612,N,03025.1818074,E,1,13,0.8,196.487,M,26.200,M,,0000*5C
$GPRMC,184227.800,A,5029.3114612,N,03025.1818074,E,000.00,000.00,220418,,,A*6A
$GPVTG,000.00,T,,M,000.00,N,000.00,K,A*3D
$PSTI,030,184227.800,A,5029.3114612,N,03025.1818074,E,196.487,0.01,-0.00,-0.01,220418,A,0.0,0.0*15
$GPGGA,184228.000,5029.3114696,N,03025.1817886,E,1,13,0.8,196.443,M,26.200,M,,0000*55
$GPGLL,5029.3114696,N,03025.1817886,E,184228.000,A,A*51
$GPGSA,A,3,21,20,16,27,10,26,15,,,,,,1.8,0.8,1.6*36
$GLGSA,A,3,70,86,77,87,85,71,,,,,,,1.8,0.8,1.6*25
$GPRMC,184228.000,A,5029.3114696,N,03025.1817886,E,000.00,000.00,220418,,,A*6B
$GPVTG,000.00,T,,M,000.00,N,000.00,K,A*3D
$GPZDA,184228.000,22,04,2018,00,00*5C
$GPGST,184228.000,0.682,0.452,0.326,3.3,0.452,0.326,1.077*6F
$PSTI,030,184228.000,A,5029.3114696,N,03025.1817886,E,196.443,0.01,0.00,-0.00,220418,A,0.0,0.0*30
$PSTI,032,184228.000,220418,V,,,,,,,,,,,*43
$GPGGA,184228.200,5029.3114832,N,03025.1817689,E,1,13,0.8,196.390,M,26.200,M,,0000*5F
$GPRMC,184228.200,A,5029.3114832,N,03025.1817689,E,000.00,000.00,220418,,,A*68
$GPVTG,000.00,T,,M,000.00,N,000.00,K,A*3D
$PSTI,030,184228.200,A,5029.3114832,N,03025.1817689,E,196.390,-0.00,0.00,-0.01,220418,A,0.0,0.0*17
$GPGGA,184228.400,5029.3114970,N,03025.1817490,E,1,13,0.8,196.339,M,26.200,M,,0000*57
$GPRMC,184228.400,A,5029.3114970,N,03025.1817490,E,000.00,000.00,220418,,,A*63
$GPVTG,000.00,T,,M,000.00,N,000.00,K,A*3D
$PSTI,030,184228.400,A,5029.3114970,N,03025.1817490,E,196.339,0.01,0.01,-0.01,220418,A,0.0,0.0*32
$GPGGA,184228.600,5029.3115089,N,03025.1817262,E,1,13,0.8,196.290,M,26.200,M,,0000*52
$GPRMC,184228.600,A,5029.3115089,N,03025.1817262,E,000.00,000.00,220418,,,A*64
$GPVTG,000.00,T,,M,000.00,N,000.00,K,A*3D
$PSTI,030,184228.600,A,5029.3115089,N,03025.1817262,E,196.290,-0.00,-0.00,-0.01,220418,A,0.0,0.0*37
$GPGGA,184228.800,5029.3115279,N,03025.1817075,E,1,13,0.8,196.229,M,26.200,M,,0000*57
$GPRMC,184228.800,A,5029.3115279,N,03025.1817075,E,000.00,000.00,220418,,,A*63
$GPVTG,000.00,T,,M,000.00,N,000.00,K,A*3D
$PSTI,030,184228.800,A,5029.3115279,N,03025.1817075,E,196.229,-0.01,0.00,-0.01,220418,A,0.0,0.0*1E
$GPGGA,184229.000,5029.3115443,N,03025.1816961,E,1,13,0.8,196.178,M,26.200,M,,0000*5B
$GPGLL,5029.3115443,N,03025.1816961,E,184229.000,A,A*52
$GPGSA,A,3,21,20,16,27,10,26,15,,,,,,1.8,0.8,1.6*36
$GLGSA,A,3,70,86,77,87,85,71,,,,,,,1.8,0.8,1.6*25
$GPRMC,184229.000,A,5029.3115443,N,03025.1816961,E,000.00,000.00,220418,,,A*68
$GPVTG,000.00,T,,M,000.00,N,000.00,K,A*3D
$GPZDA,184229.000,22,04,2018,00,00*5D
$GPGST,184229.000,0.611,0.405,0.292,3.3,0.405,0.292,0.965*6F
$PSTI,030,184229.000,A,5029.3115443,N,03025.1816961,E,196.178,0.01,0.00,-0.01,220418,A,0.0,0.0*3F
$PSTI,032,184229.000,220418,V,,,,,,,,,,,*42
$GPGGA,184229.200,5029.3115608,N,03025.1816866,E,1,13,0.8,196.134,M,26.200,M,,0000*5A
$GPRMC,184229.200,A,5029.3115608,N,03025.1816866,E,000.00,000.00,220418,,,A*61
$GPVTG,000.00,T,,M,000.00,N,000.00,K,A*3D
$PSTI,030,184229.200,A,5029.3115608,N,03025.1816866,E,196.134,-0.00,0.01,0.01,220418,A,0.0,0.0*3E
$GPGGA,184229.400,5029.3115701,N,03025.1816739,E,1,13,0.8,196.126,M,26.200,M,,0000*52
$GPRMC,184229.400,A,5029.3115701,N,03025.1816739,E,000.00,000.00,220418,,,A*6A
$GPVTG,000.00,T,,M,000.00,N,000.00,K,A*3D
$PSTI,030,184229.400,A,5029.3115701,N,03025.1816739,E,196.126,0.00,-0.01,-0.00,220418,A,0.0,0.0*1A
$GPGGA,184229.600,5029.3115818,N,03025.1816592,E,1,13,0.8,196.112,M,26.200,M,,0000*53
$GPRMC,184229.600,A,5029.3115818,N,03025.1816592,E,000.00,000.00,220418,,,A*6C
$GPVTG,000.00,T,,M,000.00,N,000.00,K,A*3D
$PSTI,030,184229.600,A,5029.3115818,N,03025.1816592,E,196.112,0.01,0.00,-0.01,220418,A,0.0,0.0*37
$GPGGA,184229.800,5029.3115953,N,03025.1816419,E,1,13,0.8,196.099,M,26.200,M,,0000*53
$GPRMC,184229.800,A,5029.3115953,N,03025.1816419,E,000.00,000.00,220418,,,A*6E
$GPVTG,000.00,T,,M,000.00,N,000.00,K,A*3D
$PSTI,030,184229.800,A,5029.3115953,N,03025.1816419,E,196.099,-0.01,-0.00,0.01,220418,A,0.0,0.0*1A
$GPGGA,184230.000,5029.3116084,N,03025.1816261,E,1,13,0.8,196.080,M,26.200,M,,0000*52
$GPGLL,5029.3116084,N,03025.1816261,E,184230.000,A,A*5D
$GPGSA,A,3,21,20,16,27,10,26,15,,,,,,1.8,0.8,1.6*36
$GLGSA,A,3,70,86,77,87,85,71,,,,,,,1.8,0.8,1.6*25
$GPGSV,4,1,14,21,66,071,48,20,57,077,46,16,51,246,48,27,47,301,49*74
$GPGSV,4,2,14,10,40,189,45,26,34,211,45,40,28,149,40,04,26,195,42*73
$GPGSV,4,3,14,15,23,076,44,13,14,043,38,29,10,123,44,193,09,051,*48
$GPGSV,4,4,14,08,08,304,36,07,05,332,46*7C
$GLGSV,3,1,10,86,71,354,51,70,49,064,39,71,43,145,49,85,35,092,48*6A
$GLGSV,3,2,10,77,28,301,41,87,21,296,41,76,14,241,37,78,11,349,41*6F
$GLGSV,3,3,10,69,07,020,,72,04,179,36*65
$GPRMC,184230.000,A,5029.3116084,N,03025.1816261,E,000.00,000.00,220418,,,A*67
$GPVTG,000.00,T,,M,000.00,N,000.00,K,A*3D
$GPZDA,184230.000,22,04,2018,00,00*55
$GPGST,184230.000,0.565,0.375,0.270,3.3,0.375,0.270,0.893*6F
$PSTI,030,184230.000,A,5029.3116084,N,03025.1816261,E,196.080,0.00,-0.00,0.00,220418,A,0.0,0.0*36
$PSTI,032,184230.000,220418,V,,,,,,,,,,,*4A
$GPGGA,184230.200,5029.3116285,N,03025.1816100,E,1,13,0.8,196.029,M,26.200,M,,0000*54
$GPRMC,184230.200,A,5029.3116285,N,03025.1816100,E,000.00,000.00,220418,,,A*62
$GPVTG,000.00,T,,M,000.00,N,000.00,K,A*3D
$PSTI,030,184230.200,A,5029.3116285,N,03025.1816100,E,196.029,0.00,-0.00,0.01,220418,A,0.0,0.0*31
$GPGGA,184230.400,5029.3116487,N,03025.1815884,E,1,13,0.8,195.989,M,26.200,M,,0000*50
$GPRMC,184230.400,A,5029.3116487,N,03025.1815884,E,000.00,000.00,220418,,,A*66
$GPVTG,000.00,T,,M,000.00,N,000.00,K,A*3D
$PSTI,030,184230.400,A,5029.3116487,N,03025.1815884,E,195.989,0.00,0.00,0.00,220418,A,0.0,0.0*19
$GPGGA,184230.600,5029.3116695,N,03025.1815603,E,1,13,0.8,195.944,M,26.200,M,,0000*53
$GPRMC,184230.600,A,5029.3116695,N,03025.1815603,E,000.00,000.00,220418,,,A*64
$GPVTG,000.00,T,,M,000.00,N,000.00,K,A*3D
$PSTI,030,184230.600,A,5029.3116695,N,03025.1815603,E,195.944,0.00,0.01,-0.00,220418,A,0.0,0.0*36
$GPGGA,184230.800,5029.3116943,N,03025.1815286,E,1,13,0.8,195.900,M,26.200,M,,0000*50
$GPRMC,184230.800,A,5029.3116943,N,03025.1815286,E,000.00,000.00,220418,,,A*67
$GPVTG,000.00,T,,M,000.00,N,000.00,K,A*3D
$PSTI,030,184230.800,A,5029.3116943,N,03025.1815286,E,195.900,-0.00,-0.01,-0.00,220418,A,0.0,0.0*35
$GPGGA,184231.000,5029.3117174,N,03025.1814886,E,1,13,0.8,195.877,M,26.200,M,,0000*5E
$GPGLL,5029.3117174,N,03025.1814886,E,184231.000,A,A*52
$GPGSA,A,3,21,20,16,27,10,26,15,,,,,,1.8,0.8,1.6*36
$GLGSA,A,3,70,86,77,87,85,71,,,,,,,1.8,0.8,1.6*25
$GPRMC,184231.000,A,5029.3117174,N,03025.1814886,E,000.00,000.00,220418,,,A*68
$GPVTG,000.00,T,,M,000.00,N,000.00,K,A*3D
$GPZDA,184231.000,22,04,2018,00,00*54
$GPGST,184231.000,0.547,0.363,0.261,3.3,0.363,0.262,0.865*64
$PSTI,030,184231.000,A,5029.3117174,N,03025.1814886,E,195.877,0.00,0.00,0.01,220418,A,0.0,0.0*16
$PSTI,032,184231.000,220418,V,,,,,,,,,,,*4B
$GPGGA,184231.200,5029.3117430,N,03025.1814450,E,1,13,0.8,195.852,M,26.200,M,,0000*59
$GPRMC,184231.200,A,5029.3117430,N,03025.1814450,E,000.00,000.00,220418,,,A*68
$GPVTG,000.00,T,,M,000.00,N,000.00,K,A*3D
$PSTI,030,184231.200,A,5029.3117430,N,03025.1814450,E,195.852,0.00,0.01,0.01,220418,A,0.0,0.0*10
$GPGGA,184231.400,5029.3117674,N,03025.1813989,E,1,13,0.8,195.825,M,26.200,M,,0000*53
$GPRMC,184231.400,A,5029.3117674,N,03025.1813989,E,000.00,000.00,220418,,,A*62
$GPVTG,000.00,T,,M,000.00,N,000.00,K,A*3D
$PSTI,030,184231.400,A,5029.3117674,N,03025.1813989,E,195.825,0.01,-0.01,0.00,220418,A,0.0,0.0*37
$GPGGA,184231.600,5029.3117932,N,03025.1813494,E,1,13,0.8,195.799,M,26.200,M,,0000*55
$GPRMC,184231.600,A,5029.3117932,N,03025.1813494,E,000.00,000.00,220418,,,A*6C
$GPVTG,000.00,T,,M,000.00,N,000.00,K,A*3D
$PSTI,030,184231.600,A,5029.3117932,N,03025.1813494,E,195.799,-0.00,0.01,0.01,220418,A,0.0,0.0*31
$GPGGA,184231.800,5029.3118195,N,03025.1812970,E,1,13,0.8,195.769,M,26.200,M,,0000*58
$GPRMC,184231.800,A,5029.3118195,N,03025.1812970,E,000.00,000.00,220418,,,A*6E
$GPVTG,000.00,T,,M,000.00,N,000.00,K,A*3D
$PSTI,030,184231.800,A,5029.3118195,N,03025.1812970,E,195.769,0.00,-0.00,-0.01,220418,A,0.0,0.0*10
$GPGGA,184232.000,5029.3118424,N,03025.1812414,E,1,13,0.8,195.740,M,26.200,M,,0000*58
$GPGLL,5029.3118424,N,03025.1812414,E,184232.000,A,A*5F
$GPGSA,A,3,21,20,16,27,10,26,15,,,,,,1.8,0.8,1.6*36
$GLGSA,A,3,70,86,77,87,85,71,,,,,,,1.8,0.8,1.6*25
$GPRMC,184232.000,A,5029.3118424,N,03025.1812414,E,000.00,000.00,220418,,,A*65
$GPVTG,000.00,T,,M,000.00,N,000.00,K,A*3D
$GPZDA,184232.000,22,04,2018,00,00*57
$GPGST,184232.000,0.553,0.367,0.264,3.2,0.367,0.265,0.874*61
$PSTI,030,184232.000,A,5029.3118424,N,03025.1812414,E,195.740,0.00,0.00,-0.00,220418,A,0.0,0.0*3C
$PSTI,032,184232.000,220418,V,,,,,,,,,,,*48
$GPGGA,184232.200,5029.3118646,N,03025.1811811,E,1,13,0.8,195.720,M,26.200,M,,0000*50
$GPRMC,184232.200,A,5029.3118646,N,03025.1811811,E,000.00,000.00,220418,,,A*6B
$GPVTG,000.00,T,,M,000.00,N,000.00,K,A*3D
$PSTI,030,184232.200,A,5029.3118646,N,03025.1811811,E,195.720,0.00,-0.01,0.00,220418,A,0.0,0.0*35
$GPGGA,184232.400,5029.3118903,N,03025.1811216,E,1,13,0.8,195.701,M,26.200,M,,0000*56
$GPRMC,184232.400,A,5029.3118903,N,03025.1811216,E,000.00,000.00,220418,,,A*6E
$GPVTG,000.00,T,,M,000.00,N,000.00,K,A*3D
$PSTI,030,184232.400,A,5029.3118903,N,03025.1811216,E,195.701,0.01,0.00,0.00,220418,A,0.0,0.0*1E
$GPGGA,184232.600,5029.3119227,N,03025.1810654,E,1,13,0.8,195.673,M,26.200,M,,0000*5F
$GPRMC,184232.600,A,5029.3119227,N,03025.1810654,E,000.00,000.00,220418,,,A*63
$GPVTG,000.00,T,,M,000.00,N,000.00,K,A*3D
$PSTI,030,184232.600,A,5029.3119227,N,03025.1810654,E,195.673,-0.00,-0.00,-0.00,220418,A,0.0,0.0*3B
$GPGGA,184232.800,5029.3119536,N,03025.1810118,E,1,13,0.8,195.655,M,26.200,M,,0000*5D
$GPRMC,184232.800,A,5029.3119536,N,03025.1810118,E,000.00,000.00,220418,,,A*65
$GPVTG,000.00,T,,M,000.00,N,000.00,K,A*3D
$PSTI,030,184232.800,A,5029.3119536,N,03025.1810118,E,195.655,0.01,-0.01,0.00,220418,A,0.0,0.0*39
$GPGGA,184233.000,5029.3119850,N,03025.1809624,E,1,13,0.8,195.644,M,26.200,M,,0000*59
$GPGLL,5029.3119850,N,03025.1809624,E,184233.000,A,A*5B
$GPGSA,A,3,21,20,16,27,10,26,15,,,,,,1.8,0.8,1.6*36
$GLGSA,A,3,70,86,77,87,85,71,,,,,,,1.8,0.8,1.6*25
$GPGSV,4,1,14,21,66,071,48,20,57,077,46,16,51,246,48,27,47,301,49*74
$GPGSV,4,2,14,10,40,189,45,26,34,211,44,40,28,149,40,04,26,195,42*72
$GPGSV,4,3,14,15,23,076,45,13,14,043,37,29,10,123,43,193,09,051,*41
$GPGSV,4,4,14,08,08,304,36,07,05,332,46*7C
$GLGSV,3,1,10,86,71,354,51,70,49,064,39,71,43,145,49,85,35,092,48*6A
$GLGSV,3,2,10,77,28,301,40,87,21,296,41,76,14,241,36,78,11,349,42*6C
$GLGSV,3,3,10,69,07,020,,72,04,179,36*65
$GPRMC,184233.000,A,5029.3119850,N,03025.1809624,E,000.00,000.00,220418,,,A*61
$GPVTG,000.00,T,,M,000.00,N,000.00,K,A*3D
$GPZDA,184233.000,22,04,2018,00,00*56
$GPGST,184233.000,0.569,0.377,0.272,3.2,0.377,0.272,0.899*6B
$PSTI,030,184233.000,A,5029.3119850,N,03025.1809624,E,195.644,0.00,-0.01,-0.00,220418,A,0.0,0.0*11
$PSTI,032,184233.000,220418,V,,,,,,,,,,,*49
$GPGGA,184233.200,5029.3120141,N,03025.1809150,E,1,13,0.8,195.640,M,26.200,M,,0000*58
$GPRMC,184233.200,A,5029.3120141,N,03025.1809150,E,000.00,000.00,220418,,,A*64
$GPVTG,000.00,T,,M,000.00,N,000.00,K,A*3D
$PSTI,030,184233.200,A,5029.3120141,N,03025.1809150,E,195.640,0.00,-0.00,0.00,220418,A,0.0,0.0*3C
$GPGGA,184233.400,5029.3120436,N,03025.1808665,E,1,13,0.8,195.636,M,26.200,M,,0000*5A
$GPRMC,184233.400,A,5029.3120436,N,03025.1808665,E,000.00,000.00,220418,,,A*67
$GPVTG,000.00,T,,M,000.00,N,000.00,K,A*3D
$PSTI,030,184233.400,A,5029.3120436,N,03025.1808665,E,195.636,0.00,0.00,-0.00,220418,A,0.0,0.0*3E
$GPGGA,184233.600,5029.3120724,N,03025.1808186,E,1,13,0.8,195.623,M,26.200,M,,0000*56
$GPRMC,184233.600,A,5029.3120724,N,03025.1808186,E,000.00,000.00,220418,,,A*6F
$GPVTG,000.00,T,,M,000.00,N,000.00,K,A*3D
$PSTI,030,184233.600,A,5029.3120724,N,03025.1808186,E,195.623,0.00,-0.00,0.01,220418,A,0.0,0.0*33
$GPGGA,184233.800,5029.3121034,N,03025.1807733,E,1,13,0.8,195.605,M,26.200,M,,0000*5C
$GPRMC,184233.800,A,5029.3121034,N,03025.1807733,E,000.00,000.00,220418,,,A*61
$GPVTG,000.00,T,,M,000.00,N,000.00,K,A*3D
$PSTI,030,184233.800,A,5029.3121034,N,03025.1807733,E,195.605,0.00,-0.00,-0.00,220418,A,0.0,0.0*15
$GPGGA,184234.000,5029.3121401,N,03025.1807316,E,1,13,0.8,195.587,M,26.200,M,,0000*5B
$GPGLL,5029.3121401,N,03025.1807316,E,184234.000,A,A*55
$GPGSA,A,3,21,20,16,27,10,26,15,,,,,,1.8,0.8,1.6*36
$GLGSA,A,3,70,86,77,87,85,71,,,,,,,1.8,0.8,1.6*25
$GPRMC,184234.000,A,5029.3121401,N,03025.1807316,E,000.00,000.00,220418,,,A*6F
$GPVTG,000.00,T,,M,000.00,N,000.00,K,A*3D
$GPZDA,184234.000,22,04,2018,00,00*51
$GPGST,184234.000,0.600,0.398,0.287,3.2,0.398,0.287,0.948*6D
$PSTI,030,184234.000,A,5029.3121401,N,03025.1807316,E,195.587,-0.00,-0.01,-0.00,220418,A,0.0,0.0*3E
$PSTI,032,184234.000,220418,V,,,,,,,,,,,*4E
$GPGGA,184234.200,5029.3121782,N,03025.1806910,E,1,13,0.8,195.563,M,26.200,M,,0000*56
$GPRMC,184234.200,A,5029.3121782,N,03025.1806910,E,000.00,000.00,220418,,,A*68
$GPVTG,000.00,T,,M,000.00,N,000.00,K,A*3D
$PSTI,030,184234.200,A,5029.3121782,N,03025.1806910,E,195.563,0.00,-0.00,0.00,220418,A,0.0,0.0*32
$GPGGA,184234.400,5029.3122184,N,03025.1806498,E,1,13,0.8,195.533,M,26.200,M,,0000*5B
$GPRMC,184234.400,A,5029.3122184,N,03025.1806498,E,000.00,000.00,220418,,,A*60
$GPVTG,000.00,T,,M,000.00,N,000.00,K,A*3D
$PSTI,030,184234.400,A,5029.3122184,N,03025.1806498,E,195.533,-0.00,0.00,0.00,220418,A,0.0,0.0*3F
$GPGGA,184234.600,5029.3122599,N,03025.1806086,E,1,13,0.8,195.501,M,26.200,M,,0000*5B
$GPRMC,184234.600,A,5029.3122599,N,03025.1806086,E,000.00,000.00,220418,,,A*61
$GPVTG,000.00,T,,M,000.00,N,000.00,K,A*3D
$PSTI,030,184234.600,A,5029.3122599,N,03025.1806086,E,195.501,-0.00,0.00,-0.01,220418,A,0.0,0.0*13
$GPGGA,184234.800,5029.3123028,N,03025.1805669,E,1,13,0.8,195.464,M,26.200,M,,0000*5D
$GPRMC,184234.800,A,5029.3123028,N,03025.1805669,E,000.00,000.00,220418,,,A*65
$GPVTG,000.00,T,,M,000.00,N,000.00,K,A*3D
$PSTI,030,184234.800,A,5029.3123028,N,03025.1805669,E,195.464,0.00,-0.00,0.00,220418,A,0.0,0.0*39
$GPGGA,184235.000,5029.3123459,N,03025.1805244,E,1,13,0.8,195.419,M,26.200,M,,0000*57
$GPGLL,5029.3123459,N,03025.1805244,E,184235.000,A,A*5F
$GPGSA,A,3,21,20,16,27,10,26,15,,,,,,1.8,0.8,1.6*36
$GLGSA,A,3,70,86,77,87,85,71,,,,,,,1.8,0.8,1.6*25
$GPRMC,184235.000,A,5029.3123459,N,03025.1805244,E,000.00,000.00,220418,,,A*65
$GPVTG,000.00,T,,M,000.00,N,000.00,K,A*3D
$GPZDA,184235.000,22,04,2018,00,00*50
$GPGST,184235.000,0.648,0.430,0.310,3.2,0.430,0.310,1.025*63
$PSTI,030,184235.000,A,5029.3123459,N,03025.1805244,E,195.419,-0.00,-0.00,0.00,220418,A,0.0,0.0*1E
$PSTI,032,184235.000,220418,V,,,,,,,,,,,*4F
$GPGGA,184235.200,5029.3123851,N,03025.1804817,E,1,13,0.8,195.388,M,26.200,M,,0000*53
$GPRMC,184235.200,A,5029.3123851,N,03025.1804817,E,000.00,000.00,220418,,,A*6E
$GPVTG,000.00,T,,M,000.00,N,000.00,K,A*3D
$PSTI,030,184235.200,A,5029.3123851,N,03025.1804817,E,195.388,-0.00,0.01,0.01,220418,A,0.0,0.0*37
$GPGGA,184235.400,5029.3124227,N,03025.1804410,E,1,13,0.8,195.356,M,26.200,M,,0000*51
$GPRMC,184235.400,A,5029.3124227,N,03025.1804410,E,000.00,000.00,220418,,,A*6F
$GPVTG,000.00,T,,M,000.00,N,000.00,K,A*3D
$PSTI,030,184235.400,A,5029.3124227,N,03025.1804410,E,195.356,0.00,0.00,0.00,220418,A,0.0,0.0*18
$GPGGA,184235.600,5029.3124631,N,03025.1803995,E,1,13,0.8,195.321,M,26.200,M,,0000*57
$GPRMC,184235.600,A,5029.3124631,N,03025.1803995,E,000.00,000.00,220418,,,A*69
$GPVTG,000.00,T,,M,000.00,N,000.00,K,A*3D
$PSTI,030,184235.600,A,5029.3124631,N,03025.1803995,E,195.321,-0.01,-0.00,-0.00,220418,A,0.0,0.0*32
$GPGGA,184235.800,5029.3125052,N,03025.1803576,E,1,13,0.8,195.281,M,26.200,M,,0000*51
$GPRMC,184235.800,A,5029.3125052,N,03025.1803576,E,000.00,000.00,220418,,,A*64
$GPVTG,000.00,T,,M,000.00,N,000.00,K,A*3D
$PSTI,030,184235.800,A,5029.3125052,N,03025.1803576,E,195.281,0.00,0.01,-0.00,220418,A,0.0,0.0*34
$GPGGA,184236.000,5029.3125446,N,03025.1803135,E,1,13,0.8,195.239,M,26.200,M,,0000*5B
$GPGLL,5029.3125446,N,03025.1803135,E,184236.000,A,A*57
$GPGSA,A,3,21,20,16,27,10,26,15,,,,,,1.8,0.8,1.6*36
$GLGSA,A,3,70,86,77,87,85,71,,,,,,,1.8,0.8,1.6*25
$GPGSV,4,1,14,21,66,071,48,20,57,077,46,16,51,246,48,27,47,301,49*74
$GPGSV,4,2,14,10,40,189,45,26,34,211,45,40,28,149,40,04,26,195,42*73
$GPGSV,4,3,14,15,23,076,44,13,14,043,38,29,10,123,43,193,09,051,*4F
$GPGSV,4,4,14,08,08,304,36,07,05,332,46*7C
$GLGSV,3,1,10,86,71,354,51,70,49,064,39,71,43,145,49,85,35,092,48*6A
$GLGSV,3,2,10,77,28,301,41,87,21,296,41,76,14,241,36,78,11,349,43*6C
$GLGSV,3,3,10,69,07,020,,72,04,179,36*65
$GPRMC,184236.000,A,5029.3125446,N,03025.1803135,E,000.00,000.00,220418,,,A*6D
$GPVTG,000.00,T,,M,000.00,N,000.00,K,A*3D
$GPZDA,184236.000,22,04,2018,00,00*53
$GPGST,184236.000,0.691,0.458,0.330,3.2,0.458,0.331,1.092*69
$PSTI,030,184236.000,A,5029.3125446,N,03025.1803135,E,195.239,-0.00,-0.01,-0.01,220418,A,0.0,0.0*3F
$PSTI,032,184236.000,220418,V,,,,,,,,,,,*4C
$GPGGA,184236.200,5029.3150183,N,03025.1786985,E,5,13,0.8,195.254,M,26.200,M,,0000*59
$GPRMC,184236.200,A,5029.3150183,N,03025.1786985,E,000.00,000.00,220418,,,F*67
$GPVTG,000.00,T,,M,000.00,N,000.00,K,F*3A
$PSTI,030,184236.200,A,5029.3150183,N,03025.1786985,E,195.254,-0.00,0.01,-0.01,220418,F,1.0,1.8*1B
$GPGGA,184236.400,5029.3150187,N,03025.1786987,E,5,13,0.8,195.253,M,26.200,M,,0000*5E
$GPRMC,184236.400,A,5029.3150187,N,03025.1786987,E,000.00,000.00,220418,,,F*67
$GPVTG,000.00,T,,M,000.00,N,000.00,K,F*3A
$PSTI,030,184236.400,A,5029.3150187,N,03025.1786987,E,195.253,0.00,0.01,-0.01,220418,F,1.0,1.8*31
$GPGGA,184236.600,5029.3150190,N,03025.1786984,E,5,13,0.8,195.253,M,26.200,M,,0000*59
$GPRMC,184236.600,A,5029.3150190,N,03025.1786984,E,000.00,000.00,220418,,,F*60
$GPVTG,000.00,T,,M,000.00,N,000.00,K,F*3A
$PSTI,030,184236.600,A,5029.3150190,N,03025.1786984,E,195.253,-0.00,0.01,-0.00,220418,F,1.0,1.8*1A
$GPGGA,184236.800,5029.3150190,N,03025.1786983,E,5,13,0.8,195.253,M,26.200,M,,0000*50
$GPRMC,184236.800,A,5029.3150190,N,03025.1786983,E,000.00,000.00,220418,,,F*69
$GPVTG,000.00,T,,M,000.00,N,000.00,K,F*3A
$PSTI,030,184236.800,A,5029.3150190,N,03025.1786983,E,195.253,-0.00,-0.00,0.00,220418,F,1.0,1.8*12
$GPGGA,184237.000,5029.3150190,N,03025.1786986,E,5,13,0.8,195.252,M,26.200,M,,0000*5D
$GPGLL,5029.3150190,N,03025.1786986,E,184237.000,A,F*5F
$GPGSA,A,3,21,20,16,27,10,26,15,,,,,,1.8,0.8,1.6*36
$GLGSA,A,3,70,86,77,87,85,71,,,,,,,1.8,0.8,1.6*25
$GPRMC,184237.000,A,5029.3150190,N,03025.1786986,E,000.00,000.00,220418,,,F*65
$GPVTG,000.00,T,,M,000.00,N,000.00,K,F*3A
$GPZDA,184237.000,22,04,2018,00,00*52
$GPGST,184237.000,1.104,1.238,0.627,334.0,1.146,0.783,1.819*68
$PSTI,030,184237.000,A,5029.3150190,N,03025.1786986,E,195.252,0.00,0.00,-0.01,220418,F,1.0,1.8*33
$PSTI,032,184237.000,220418,A,F,-825.013,4497.693,-1.665,4572.734,349.61,,,,,*04
$GPGGA,184237.200,5029.3153660,N,03025.1783894,E,5,13,0.8,194.904,M,26.200,M,,0000*5A
$GPRMC,184237.200,A,5029.3153660,N,03025.1783894,E,000.00,000.00,220418,,,F*6B
$GPVTG,000.00,T,,M,000.00,N,000.00,K,F*3A
$PSTI,030,184237.200,A,5029.3153660,N,03025.1783894,E,194.904,-0.00,-0.00,-0.00,220418,F,1.0,1.2*3F
$GPGGA,184237.400,5029.3153662,N,03025.1783893,E,5,13,0.8,194.903,M,26.200,M,,0000*5E
$GPRMC,184237.400,A,5029.3153662,N,03025.1783893,E,000.00,000.00,220418,,,F*68
$GPVTG,000.00,T,,M,000.00,N,000.00,K,F*3A
$PSTI,030,184237.400,A,5029.3153662,N,03025.1783893,E,194.903,-0.00,0.00,-0.00,220418,F,1.0,1.2*16
$GPGGA,184237.600,5029.3153661,N,03025.1783891,E,5,13,0.8,194.904,M,26.200,M,,0000*5A
$GPRMC,184237.600,A,5029.3153661,N,03025.1783891,E,000.00,000.00,220418,,,F*6B
$GPVTG,000.00,T,,M,000.00,N,000.00,K,F*3A
$PSTI,030,184237.600,A,5029.3153661,N,03025.1783891,E,194.904,-0.00,-0.00,0.00,220418,F,1.0,1.2*12
$GPGGA,184237.800,5029.3153661,N,03025.1783895,E,5,13,0.8,194.903,M,26.200,M,,0000*57
$GPRMC,184237.800,A,5029.3153661,N,03025.1783895,E,000.00,000.00,220418,,,F*61
$GPVTG,000.00,T,,M,000.00,N,000.00,K,F*3A
$PSTI,030,184237.800,A,5029.3153661,N,03025.1783895,E,194.903,0.01,0.00,-0.00,220418,F,1.0,1.2*33
$GPGGA,184238.000,5029.3153663,N,03025.1783896,E,5,13,0.8,194.902,M,26.200,M,,0000*50
$GPGLL,5029.3153663,N,03025.1783896,E,184238.000,A,F*5D
$GPGSA,A,3,21,20,16,27,10,26,15,,,,,,1.8,0.8,1.6*36
$GLGSA,A,3,70,86,77,87,85,71,,,,,,,1.8,0.8,1.6*25
$GPRMC,184238.000,A,5029.3153663,N,03025.1783896,E,000.00,000.00,220418,,,F*67
$GPVTG,000.00,T,,M,000.00,N,000.00,K,F*3A
$GPZDA,184238.000,22,04,2018,00,00*5D
$GPGST,184238.000,1.194,1.339,0.678,334.0,1.240,0.846,1.967*6F
$PSTI,030,184238.000,A,5029.3153663,N,03025.1783896,E,194.902,0.00,0.00,-0.01,220418,F,1.0,1.2*34
$PSTI,032,184238.000,220418,A,F,-825.379,4498.338,-2.016,4573.435,349.60,,,,,*0C
$GPGGA,184238.200,5029.3155389,N,03025.1780568,E,5,13,0.8,194.381,M,26.200,M,,0000*5B
$GPRMC,184238.200,A,5029.3155389,N,03025.1780568,E,000.00,000.00,220418,,,F*6D
$GPVTG,000.00,T,,M,000.00,N,000.00,K,F*3A
$PSTI,030,184238.200,A,5029.3155389,N,03025.1780568,E,194.381,0.00,-0.00,0.00,220418,F,1.0,1.2*3E
$GPGGA,184238.400,5029.3155397,N,03025.1780565,E,5,13,1.2,194.379,M,26.200,M,,0000*53
$GPRMC,184238.400,A,5029.3155397,N,03025.1780565,E,000.00,000.00,220418,,,F*69
$GPVTG,000.00,T,,M,000.00,N,000.00,K,F*3A
$PSTI,030,184238.400,A,5029.3155397,N,03025.1780565,E,194.379,-0.00,0.01,-0.02,220418,F,1.0,1.2*13
$GPGGA,184238.600,5029.3155407,N,03025.1780572,E,5,13,1.2,194.375,M,26.200,M,,0000*55
$GPRMC,184238.600,A,5029.3155407,N,03025.1780572,E,000.00,000.00,220418,,,F*63
$GPVTG,000.00,T,,M,000.00,N,000.00,K,F*3A
$PSTI,030,184238.600,A,5029.3155407,N,03025.1780572,E,194.375,0.01,0.02,-0.04,220418,F,1.0,1.2*3C
$GPGGA,184238.800,5029.3155396,N,03025.1780563,E,5,13,1.2,194.377,M,26.200,M,,0000*56
$GPRMC,184238.800,A,5029.3155396,N,03025.1780563,E,000.00,000.00,220418,,,F*62
$GPVTG,000.00,T,,M,000.00,N,000.00,K,F*3A
$PSTI,030,184238.800,A,5029.3155396,N,03025.1780563,E,194.377,-0.01,-0.02,0.03,220418,F,1.0,1.2*15
$GPGGA,184239.000,5029.3155397,N,03025.1780563,E,5,13,1.3,194.379,M,26.200,M,,0000*51
$GPGLL,5029.3155397,N,03025.1780563,E,184239.000,A,F*50
$GPGSA,A,3,21,20,16,27,10,26,15,,,,,,2.8,1.3,2.5*3F
$GLGSA,A,3,70,86,77,87,85,71,,,,,,,2.8,1.3,2.5*2C
$GPGSV,4,1,14,21,66,071,48,20,57,077,46,16,51,246,48,27,47,301,49*74
$GPGSV,4,2,14,10,40,189,45,26,34,211,45,40,28,149,40,49,27,212,23*70
$GPGSV,4,3,14,04,26,195,42,15,23,076,44,13,14,043,38,29,10,123,42*73
$GPGSV,4,4,14,08,08,304,36,07,05,332,46*7C
$GLGSV,3,1,10,86,71,354,51,70,49,064,39,71,43,145,49,85,35,092,48*6A
$GLGSV,3,2,10,77,28,301,40,87,21,296,42,76,14,241,36,78,11,349,43*6E
$GLGSV,3,3,10,69,07,020,,72,04,179,37*64
$GPRMC,184239.000,A,5029.3155397,N,03025.1780563,E,000.00,000.00,220418,,,F*6A
$GPVTG,000.00,T,,M,000.00,N,000.00,K,F*3A
$GPZDA,184239.000,22,04,2018,00,00*5C
$GPGST,184239.000,1.380,1.549,0.784,334.0,1.434,0.979,2.276*6A
$PSTI,030,184239.000,A,5029.3155397,N,03025.1780563,E,194.379,-0.00,0.00,0.01,220418,F,1.0,1.2*3F
$PSTI,032,184239.000,220418,A,F,-825.772,4498.659,-2.539,4573.821,349.60,,,,,*01
$GPGGA,184239.200,5029.3156648,N,03025.1778043,E,5,13,1.3,193.684,M,26.200,M,,0000*57
$GPRMC,184239.200,A,5029.3156648,N,03025.1778043,E,000.00,000.00,220418,,,F*6C
$GPVTG,000.00,T,,M,000.00,N,000.00,K,F*3A
$PSTI,030,184239.200,A,5029.3156648,N,03025.1778043,E,193.684,-0.01,0.03,-0.02,220418,F,1.0,1.2*15
$GPGGA,184239.400,5029.3156645,N,03025.1778051,E,5,13,1.3,193.681,M,26.200,M,,0000*5A
$GPRMC,184239.400,A,5029.3156645,N,03025.1778051,E,000.00,000.00,220418,,,F*64
$GPVTG,000.00,T,,M,000.00,N,000.00,K,F*3A
$PSTI,030,184239.400,A,5029.3156645,N,03025.1778051,E,193.681,0.01,-0.01,-0.02,220418,F,1.0,1.2*1A
$GPGGA,184239.600,5029.3156642,N,03025.1778054,E,5,13,1.3,193.686,M,26.200,M,,0000*5D
$GPRMC,184239.600,A,5029.3156642,N,03025.1778054,E,000.00,000.00,220418,,,F*64
$GPVTG,000.00,T,,M,000.00,N,000.00,K,F*3A
$PSTI,030,184239.600,A,5029.3156642,N,03025.1778054,E,193.686,0.00,-0.01,0.04,220418,F,1.0,1.2*37
$GPGGA,184239.800,5029.3156644,N,03025.1778045,E,5,13,1.3,193.680,M,26.200,M,,0000*53
$GPRMC,184239.800,A,5029.3156644,N,03025.1778045,E,000.00,000.00,220418,,,F*6C
$GPVTG,000.00,T,,M,000.00,N,000.00,K,F*3A
$PSTI,030,184239.800,A,5029.3156644,N,03025.1778045,E,193.680,-0.01,0.00,-0.05,220418,F,1.0,1.2*15
$GPGGA,184240.000,5029.3156651,N,03025.1778051,E,5,13,1.3,193.680,M,26.200,M,,0000*54
$GPGLL,5029.3156651,N,03025.1778051,E,184240.000,A,F*51
$GPGSA,A,3,21,20,16,27,10,26,15,,,,,,2.8,1.3,2.5*3F
$GLGSA,A,3,70,86,77,87,85,71,,,,,,,2.8,1.3,2.5*2C
$GPRMC,184240.000,A,5029.3156651,N,03025.1778051,E,000.00,000.00,220418,,,F*6B
$GPVTG,000.00,T,,M,000.00,N,000.00,K,F*3A
$GPZDA,184240.000,22,04,2018,00,00*52
$GPGST,184240.000,1.327,1.080,0.622,346.0,1.058,0.658,1.974*69
$PSTI,030,184240.000,A,5029.3156651,N,03025.1778051,E,193.680,0.01,0.01,-0.00,220418,F,1.0,1.2*3B
$PSTI,032,184240.000,220418,A,F,-826.070,4498.889,-3.235,4574.101,349.60,,,,,*0C
$GPGGA,184240.200,5029.3157553,N,03025.1775432,E,5,13,1.3,193.123,M,26.200,M,,0000*54
$GPRMC,184240.200,A,5029.3157553,N,03025.1775432,E,000.00,000.00,220418,,,F*65
$GPVTG,000.00,T,,M,000.00,N,000.00,K,F*3A
$PSTI,030,184240.200,A,5029.3157553,N,03025.1775432,E,193.123,0.01,0.01,0.04,220418,F,1.0,1.2*12
$GPGGA,184240.400,5029.3157543,N,03025.1775432,E,5,13,1.3,193.120,M,26.200,M,,0000*50
$GPRMC,184240.400,A,5029.3157543,N,03025.1775432,E,000.00,000.00,220418,,,F*62
$GPVTG,000.00,T,,M,000.00,N,000.00,K,F*3A
$PSTI,030,184240.400,A,5029.3157543,N,03025.1775432,E,193.120,-0.00,-0.02,-0.03,220418,F,1.0,1.2*3E
$GPGGA,184240.600,5029.3157543,N,03025.1775424,E,5,13,1.3,193.122,M,26.200,M,,0000*57
$GPRMC,184240.600,A,5029.3157543,N,03025.1775424,E,000.00,000.00,220418,,,F*67
$GPVTG,000.00,T,,M,000.00,N,000.00,K,F*3A
$PSTI,030,184240.600,A,5029.3157543,N,03025.1775424,E,193.122,-0.01,0.00,0.02,220418,F,1.0,1.2*3B
$GPGGA,184240.800,5029.3157545,N,03025.1775422,E,5,13,1.3,193.122,M,26.200,M,,0000*59
$GPRMC,184240.800,A,5029.3157545,N,03025.1775422,E,000.00,000.00,220418,,,F*69
$GPVTG,000.00,T,,M,000.00,N,000.00,K,F*3A
$PSTI,030,184240.800,A,5029.3157545,N,03025.1775422,E,193.122,-0.00,0.00,0.00,220418,F,1.0,1.2*36
$GPGGA,184241.000,5029.3157546,N,03025.1775430,E,5,13,1.3,193.117,M,26.200,M,,0000*56
$GPGLL,5029.3157546,N,03025.1775430,E,184241.000,A,F*5A
$GPGSA,A,3,21,20,16,27,10,26,15,,,,,,2.8,1.3,2.5*3F
$GLGSA,A,3,70,86,77,87,85,71,,,,,,,2.8,1.3,2.5*2C
$GPRMC,184241.000,A,5029.3157546,N,03025.1775430,E,000.00,000.00,220418,,,F*60
$GPVTG,000.00,T,,M,000.00,N,000.00,K,F*3A
$GPZDA,184241.000,22,04,2018,00,00*53
$GPGST,184241.000,1.386,1.129,0.650,345.9,1.106,0.687,2.063*6A
$PSTI,030,184241.000,A,5029.3157546,N,03025.1775430,E,193.117,0.01,0.00,-0.05,220418,F,1.0,1.2*3D
$PSTI,032,184241.000,220418,A,F,-826.380,4499.059,-3.802,4574.325,349.59,,,,,*05
$GPGGA,184241.200,5029.3158492,N,03025.1772850,E,5,13,1.3,192.510,M,26.200,M,,0000*5C
$GPRMC,184241.200,A,5029.3158492,N,03025.1772850,E,000.00,000.00,220418,,,F*68
$GPVTG,000.00,T,,M,000.00,N,000.00,K,F*3A
$PSTI,030,184241.200,A,5029.3158492,N,03025.1772850,E,192.510,0.00,-0.00,0.04,220418,F,1.0,1.6*33
$GPGGA,184241.400,5029.3158486,N,03025.1772854,E,5,13,1.3,192.514,M,26.200,M,,0000*5F
$GPRMC,184241.400,A,5029.3158486,N,03025.1772854,E,000.00,000.00,220418,,,F*6F
$GPVTG,000.00,T,,M,000.00,N,000.00,K,F*3A
$PSTI,030,184241.400,A,5029.3158486,N,03025.1772854,E,192.514,0.00,-0.01,0.04,220418,F,1.0,1.6*31
$GPGGA,184241.600,5029.3158490,N,03025.1772855,E,5,13,1.3,192.516,M,26.200,M,,0000*59
$GPRMC,184241.600,A,5029.3158490,N,03025.1772855,E,000.00,000.00,220418,,,F*6B
$GPVTG,000.00,T,,M,000.00,N,000.00,K,F*3A
$PSTI,030,184241.600,A,5029.3158490,N,03025.1772855,E,192.516,0.00,0.01,0.02,220418,F,1.0,1.6*1C
$GPGGA,184241.800,5029.3158491,N,03025.1772856,E,5,13,1.3,192.516,M,26.200,M,,0000*55
$GPRMC,184241.800,A,5029.3158491,N,03025.1772856,E,000.00,000.00,220418,,,F*67
$GPVTG,000.00,T,,M,000.00,N,000.00,K,F*3A
$PSTI,030,184241.800,A,5029.3158491,N,03025.1772856,E,192.516,0.00,0.00,0.00,220418,F,1.0,1.6*13
$GPGGA,184242.000,5029.3158488,N,03025.1772857,E,5,13,1.3,192.518,M,26.200,M,,0000*59
$GPGLL,5029.3158488,N,03025.1772857,E,184242.000,A,F*5F
$GPGSA,A,3,21,20,16,27,10,26,15,,,,,,2.8,1.3,2.5*3F
$GLGSA,A,3,70,86,77,87,85,71,,,,,,,2.8,1.3,2.5*2C
$GPGSV,4,1,14,21,66,071,49,20,57,077,46,16,51,246,48,27,47,301,49*75
$GPGSV,4,2,14,10,40,189,45,26,34,211,45,40,28,149,40,04,26,195,42*73
$GPGSV,4,3,14,15,23,076,45,13,14,043,39,29,10,123,42,193,09,051,*4E
$GPGSV,4,4,14,08,08,304,36,07,05,332,45*7F
$GLGSV,3,1,10,86,71,354,51,70,49,064,39,71,43,145,49,85,35,092,48*6A
$GLGSV,3,2,10,77,28,301,40,87,21,296,42,76,14,241,36,78,11,349,44*69
$GLGSV,3,3,10,69,07,020,,72,04,179,36*65
$GPRMC,184242.000,A,5029.3158488,N,03025.1772857,E,000.00,000.00,220418,,,F*65
$GPVTG,000.00,T,,M,000.00,N,000.00,K,F*3A
$GPZDA,184242.000,22,04,2018,00,00*50
$GPGST,184242.000,1.698,1.383,0.796,345.9,1.355,0.842,2.528*63
$PSTI,030,184242.000,A,5029.3158488,N,03025.1772857,E,192.518,0.00,-0.01,0.02,220418,F,1.0,1.6*31
$PSTI,032,184242.000,220418,A,F,-826.685,4499.233,-4.415,4574.552,349.59,,,,,*03
$GPGGA,184242.200,5029.3159460,N,03025.1770329,E,5,13,1.3,191.863,M,26.200,M,,0000*5E
$GPRMC,184242.200,A,5029.3159460,N,03025.1770329,E,000.00,000.00,220418,,,F*60
$GPVTG,000.00,T,,M,000.00,N,000.00,K,F*3A
$PSTI,030,184242.200,A,5029.3159460,N,03025.1770329,E,191.863,-0.00,0.01,0.02,220418,F,1.0,2.1*32
$GPGGA,184242.400,5029.3159458,N,03025.1770330,E,5,13,1.3,191.863,M,26.200,M,,0000*5B
$GPRMC,184242.400,A,5029.3159458,N,03025.1770330,E,000.00,000.00,220418,,,F*65
$GPVTG,000.00,T,,M,000.00,N,000.00,K,F*3A
$PSTI,030,184242.400,A,5029.3159458,N,03025.1770330,E,191.863,0.00,-0.00,0.00,220418,F,1.0,2.1*34
$GPGGA,184242.600,5029.3159456,N,03025.1770328,E,5,13,1.3,191.864,M,26.200,M,,0000*59
$GPRMC,184242.600,A,5029.3159456,N,03025.1770328,E,000.00,000.00,220418,,,F*60
$GPVTG,000.00,T,,M,000.00,N,000.00,K,F*3A
$PSTI,030,184242.600,A,5029.3159456,N,03025.1770328,E,191.864,-0.00,-0.00,0.01,220418,F,1.0,2.1*1A
$GPGGA,184242.800,5029.3159462,N,03025.1770329,E,5,13,1.3,191.865,M,26.200,M,,0000*50
$GPRMC,184242.800,A,5029.3159462,N,03025.1770329,E,000.00,000.00,220418,,,F*68
$GPVTG,000.00,T,,M,000.00,N,000.00,K,F*3A
$PSTI,030,184242.800,A,5029.3159462,N,03025.1770329,E,191.865,0.00,0.01,0.01,220418,F,1.0,2.1*12
$GPGGA,184243.000,5029.3159461,N,03025.1770327,E,5,13,1.3,191.865,M,26.200,M,,0000*54
$GPGLL,5029.3159461,N,03025.1770327,E,184243.000,A,F*56
$GPGSA,A,3,21,20,16,27,10,26,15,,,,,,2.8,1.3,2.5*3F
$GLGSA,A,3,70,86,77,87,85,71,,,,,,,2.8,1.3,2.5*2C
$GPRMC,184243.000,A,5029.3159461,N,03025.1770327,E,000.00,000.00,220418,,,F*6C
$GPVTG,000.00,T,,M,000.00,N,000.00,K,F*3A
$GPZDA,184243.000,22,04,2018,00,00*51
$GPGST,184243.000,2.013,1.639,0.943,345.9,1.606,0.998,2.996*6A
$PSTI,030,184243.000,A,5029.3159461,N,03025.1770327,E,191.865,-0.00,-0.00,0.00,220418,F,1.0,2.1*16
$PSTI,032,184243.000,220418,A,F,-826.982,4499.411,-5.060,4574.781,349.59,,,,,*07
$GPGGA,184243.200,5029.3165142,N,03025.1766367,E,4,13,1.3,190.803,M,26.200,M,,0000*5E
$GPRMC,184243.200,A,5029.3165142,N,03025.1766367,E,000.00,000.00,220418,,,R*72
$GPVTG,000.00,T,,M,000.00,N,000.00,K,R*2E
$PSTI,030,184243.200,A,5029.3165142,N,03025.1766367,E,190.803,0.00,-0.01,0.00,220418,R,1.0,3.0*25
$GPGGA,184243.400,5029.3165145,N,03025.1766364,E,4,13,1.3,190.802,M,26.200,M,,0000*5D
$GPRMC,184243.400,A,5029.3165145,N,03025.1766364,E,000.00,000.00,220418,,,R*70
$GPVTG,000.00,T,,M,000.00,N,000.00,K,R*2E
$PSTI,030,184243.400,A,5029.3165145,N,03025.1766364,E,190.802,-0.00,0.00,-0.01,220418,R,1.0,3.0*0B
$GPGGA,184243.600,5029.3165147,N,03025.1766368,E,4,13,1.3,190.801,M,26.200,M,,0000*52
$GPRMC,184243.600,A,5029.3165147,N,03025.1766368,E,000.00,000.00,220418,,,R*7C
$GPVTG,000.00,T,,M,000.00,N,000.00,K,R*2E
$PSTI,030,184243.600,A,5029.3165147,N,03025.1766368,E,190.801,0.00,0.00,-0.00,220418,R,1.0,3.0*28
$GPGGA,184243.800,5029.3165146,N,03025.1766367,E,4,13,1.3,190.800,M,26.200,M,,0000*53
$GPRMC,184243.800,A,5029.3165146,N,03025.1766367,E,000.00,000.00,220418,,,R*7C
$GPVTG,000.00,T,,M,000.00,N,000.00,K,R*2E
$PSTI,030,184243.800,A,5029.3165146,N,03025.1766367,E,190.800,-0.00,-0.00,-0.01,220418,R,1.0,3.0*28
$GPGGA,184244.000,5029.3165149,N,03025.1766375,E,4,13,1.3,190.799,M,26.200,M,,0000*5F
$GPGLL,5029.3165149,N,03025.1766375,E,184244.000,A,R*45
$GPGSA,A,3,21,20,16,27,10,26,15,,,,,,2.8,1.3,2.5*3F
$GLGSA,A,3,70,86,77,87,85,71,,,,,,,2.8,1.3,2.5*2C
$GPRMC,184244.000,A,5029.3165149,N,03025.1766375,E,000.00,000.00,220418,,,R*7F
$GPVTG,000.00,T,,M,000.00,N,000.00,K,R*2E
$GPZDA,184244.000,22,04,2018,00,00*56
$GPGST,184244.000,0.089,0.072,0.042,345.9,0.071,0.044,0.132*67
$PSTI,030,184244.000,A,5029.3165149,N,03025.1766375,E,190.799,0.01,0.00,-0.01,220418,R,1.0,3.0*25
$PSTI,032,184244.000,220418,A,R,-827.452,4500.465,-6.119,4575.904,349.58,,,,,*18
$GPGGA,184244.200,5029.3160406,N,03025.1767087,E,5,13,1.3,191.343,M,26.200,M,,0000*5A
$GPRMC,184244.200,A,5029.3160406,N,03025.1767087,E,000.00,000.00,220418,,,F*6D
$GPVTG,000.00,T,,M,000.00,N,000.00,K,F*3A
$PSTI,030,184244.200,A,5029.3160406,N,03025.1767087,E,191.343,-0.01,-0.00,-0.00,220418,F,1.0,2.7*32
$GPGGA,184244.400,5029.3160405,N,03025.1767090,E,5,13,1.3,191.345,M,26.200,M,,0000*5F
$GPRMC,184244.400,A,5029.3160405,N,03025.1767090,E,000.00,000.00,220418,,,F*6E
$GPVTG,000.00,T,,M,000.00,N,000.00,K,F*3A
$PSTI,030,184244.400,A,5029.3160405,N,03025.1767090,E,191.345,0.00,-0.00,0.01,220418,F,1.0,2.7*37
