90.290,-0.01,-0.00,0.02,220418,D,0.0,0.0*16
$PSTI,032,124222.000,220418,V,,,,,,,,,,,*43
$GPGGA,124222.200,5029.3156625,N,03025.1781645,E,2,15,0.7,190.314,M,26.200,M,,0000*51
$GPGLL,5029.3156625,N,03025.1781645,E,124222.200,A,D*59
$GPGSA,A,3,12,06,25,19,29,32,24,02,14,,,,1.4,0.7,1.2*32
$GLGSA,A,3,74,82,73,80,84,83,,,,,,,1.4,0.7,1.2*2D
$GPRMC,124222.200,A,5029.3156625,N,03025.1781645,E,000.00,063.73,220418,,,D*62
$GPVTG,063.73,T,,M,000.00,N,000.00,K,D*39
$GPZDA,124222.200,22,04,2018,00,00*5E
$GPGST,124222.200,0.799,0.420,0.390,42.5,0.407,0.404,0.962*56
$PSTI,030,124222.200,A,5029.3156625,N,03025.1781645,E,190.314,-0.00,-0.00,0.00,220418,D,0.0,0.0*17
$GPGGA,124222.400,5029.3156917,N,03025.1781780,E,2,15,0.7,190.329,M,26.200,M,,0000*5F
$GPRMC,124222.400,A,5029.3156917,N,03025.1781780,E,000.00,063.73,220418,,,D*62
$GPVTG,063.73,T,,M,000.00,N,000.00,K,D*39
$PSTI,030,124222.400,A,5029.3156917,N,03025.1781780,E,190.329,0.00,-0.00,0.01,220418,D,0.0,0.0*35
$GPGGA,124222.600,5029.3157212,N,03025.1781883,E,2,15,0.7,190.341,M,26.200,M,,0000*50
$GPRMC,124222.600,A,5029.3157212,N,03025.1781883,E,000.00,063.73,220418,,,D*63
$GPVTG,063.73,T,,M,000.00,N,000.00,K,D*39
$PSTI,030,124222.600,A,5029.3157212,N,03025.1781883,E,190.341,-0.00,-0.00,0.01,220418,D,0.0,0.0*17
$GPGGA,124222.800,5029.3157535,N,03025.1781926,E,2,15,0.7,190.346,M,26.200,M,,0000*55
$GPRMC,124222.800,A,5029.3157535,N,03025.1781926,E,000.00,063.73,220418,,,D*61
$GPVTG,063.73,T,,M,000.00,N,000.00,K,D*39
$PSTI,030,124222.800,A,5029.3157535,N,03025.1781926,E,190.346,0.00,0.00,0.01,220418,D,0.0,0.0*12
$GPGGA,124223.000,5029.3157873,N,03025.1781937,E,2,15,0.7,190.350,M,26.200,M,,0000*54
$GPRMC,124223.000,A,5029.3157873,N,03025.1781937,E,000.00,063.73,220418,,,D*67
$GPVTG,063.73,T,,M,000.00,N,000.00,K,D*39
$PSTI,030,124223.000,A,5029.3157873,N,03025.1781937,E,190.350,-0.00,-0.00,0.00,220418,D,0.0,0.0*12
$PSTI,032,124223.000,220418,V,,,,,,,,,,,*42
$GPGGA,124223.200,5029.3158260,N,03025.1781970,E,2,15,0.7,190.355,M,26.200,M,,0000*57
$GPGLL,5029.3158260,N,03025.1781970,E,124223.200,A,D*5A
$GPGSA,A,3,12,06,25,19,29,32,24,02,14,,,,1.4,0.7,1.2*32
$GLGSA,A,3,74,82,73,80,84,83,,,,,,,1.4,0.7,1.2*2D
$GPGSV,4,1,14,12,82,349,51,24,48,178,49,02,43,130,48,25,42,287,48*78
$GPGSV,4,2,14,06,40,074,47,40,28,149,40,19,28,054,43,49,27,212,40*77
$GPGSV,4,3,14,32,23,290,43,14,17,318,43,29,15,227,41,17,12,053,40*73
$GPGSV,4,4,14,03,03,010,39,31,01,320,*75
$GLGSV,3,1,09,73,82,345,49,83,74,158,47,82,42,040,49,80,36,129,44*6A
$GLGSV,3,2,09,74,28,315,45,84,20,201,37,65,12,339,43,72,07,295,31*6B
$GLGSV,3,3,09,66,01,032,*5C
$GPRMC,124223.200,A,5029.3158260,N,03025.1781970,E,000.00,063.73,220418,,,D*61
$GPVTG,063.73,T,,M,000.00,N,000.00,K,D*39
$GPZDA,124223.200,22,04,2018,00,00*5F
$GPGST,124223.200,0.836,0.439,0.408,42.5,0.425,0.423,1.007*5D
$PSTI,030,124223.200,A,5029.3158260,N,03025.1781970,E,190.355,0.00,-0.00,-0.00,220418,D,0.0,0.0*11
$GPGGA,124223.400,5029.3158671,N,03025.1781983,E,2,15,0.7,190.364,M,26.200,M,,0000*5B
$GPRMC,124223.400,A,5029.3158671,N,03025.1781983,E,000.00,063.73,220418,,,D*6F
$GPVTG,063.73,T,,M,000.00,N,000.00,K,D*39
$PSTI,030,124223.400,A,5029.3158671,N,03025.1781983,E,190.364,-0.00,-0.00,0.00,220418,D,0.0,0.0*1D
$GPGGA,124223.600,5029.3159067,N,03025.1781947,E,2,15,0.7,190.367,M,26.200,M,,0000*52
$GPRMC,124223.600,A,5029.3159067,N,03025.1781947,E,000.00,063.73,220418,,,D*65
$GPVTG,063.73,T,,M,000.00,N,000.00,K,D*39
$PSTI,030,124223.600,A,5029.3159067,N,03025.1781947,E,190.367,0.00,-0.01,0.01,220418,D,0.0,0.0*39
$GPGGA,124223.800,5029.3159488,N,03025.1781917,E,2,15,0.7,190.369,M,26.200,M,,0000*52
$GPRMC,124223.800,A,5029.3159488,N,03025.1781917,E,000.00,063.73,220418,,,D*6B
$GPVTG,063.73,T,,M,000.00,N,000.00,K,D*39
$PSTI,030,124223.800,A,5029.3159488,N,03025.1781917,E,190.369,0.00,-0.00,0.01,220418,D,0.0,0.0*38
$GPGGA,124224.000,5029.3159868,N,03025.1781874,E,2,15,0.7,190.374,M,26.200,M,,0000*57
$GPRMC,124224.000,A,5029.3159868,N,03025.1781874,E,000.00,063.73,220418,,,D*62
$GPVTG,063.73,T,,M,000.00,N,000.00,K,D*39
$PSTI,030,124224.000,A,5029.3159868,N,03025.1781874,E,190.374,0.00,-0.00,0.01,220418,D,0.0,0.0*3D
$PSTI,032,124224.000,220418,V,,,,,,,,,,,*45
$GPGGA,124224.200,5029.3160262,N,03025.1781873,E,2,15,0.7,190.379,M,26.200,M,,0000*55
$GPGLL,5029.3160262,N,03025.1781873,E,124224.200,A,D*56
$GPGSA,A,3,12,06,25,19,29,32,24,02,14,,,,1.4,0.7,1.2*32
$GLGSA,A,3,74,82,73,80,84,83,,,,,,,1.4,0.7,1.2*2D
$GPRMC,124224.200,A,5029.3160262,N,03025.1781873,E,000.00,063.73,220418,,,D*6D
$GPVTG,063.73,T,,M,000.00,N,000.00,K,D*39
$GPZDA,124224.200,22,04,2018,00,00*58
$GPGST,124224.200,0.879,0.461,0.429,42.4,0.447,0.444,1.058*51
$PSTI,030,124224.200,A,5029.3160262,N,03025.1781873,E,190.379,0.00,-0.00,0.01,220418,D,0.0,0.0*3F
$GPGGA,124224.400,5029.3160625,N,03025.1781916,E,2,15,0.7,190.390,M,26.200,M,,0000*51
$GPRMC,124224.400,A,5029.3160625,N,03025.1781916,E,000.00,063.73,220418,,,D*6E
$GPVTG,063.73,T,,M,000.00,N,000.00,K,D*39
$PSTI,030,124224.400,A,5029.3160625,N,03025.1781916,E,190.390,-0.00,0.00,-0.00,220418,D,0.0,0.0*17
$GPGGA,124224.600,5029.3160963,N,03025.1782029,E,2,15,0.7,190.405,M,26.200,M,,0000*53
$GPRMC,124224.600,A,5029.3160963,N,03025.1782029,E,000.00,063.73,220418,,,D*67
$GPVTG,063.73,T,,M,000.00,N,000.00,K,D*39
$PSTI,030,124224.600,A,5029.3160963,N,03025.1782029,E,190.405,-0.00,-0.01,0.01,220418,D,0.0,0.0*15
$GPGGA,124224.800,5029.3161307,N,03025.1782239,E,2,15,0.7,190.428,M,26.200,M,,0000*58
$GPRMC,124224.800,A,5029.3161307,N,03025.1782239,E,000.00,063.73,220418,,,D*63
$GPVTG,063.73,T,,M,000.00,N,000.00,K,D*39
$PSTI,030,124224.800,A,5029.3161307,N,03025.1782239,E,190.428,0.00,-0.00,-0.01,220418,D,0.0,0.0*1F
$GPGGA,124225.000,5029.3161683,N,03025.1782475,E,2,15,0.7,190.451,M,26.200,M,,0000*58
$GPRMC,124225.000,A,5029.3161683,N,03025.1782475,E,000.00,063.73,220418,,,D*6D
$GPVTG,063.73,T,,M,000.00,N,000.00,K,D*39
$PSTI,030,124225.000,A,5029.3161683,N,03025.1782475,E,190.451,-0.00,-0.00,0.01,220418,D,0.0,0.0*1F
$PSTI,032,124225.000,220418,V,,,,,,,,,,,*44
$GPGGA,124225.200,5029.3162062,N,03025.1782702,E,2,15,0.7,190.473,M,26.200,M,,0000*53
$GPGLL,5029.3162062,N,03025.1782702,E,124225.200,A,D*5D
$GPGSA,A,3,12,06,25,19,29,32,24,02,14,,,,1.4,0.7,1.2*32
$GLGSA,A,3,74,82,73,80,84,83,,,,,,,1.4,0.7,1.2*2D
$GPRMC,124225.200,A,5029.3162062,N,03025.1782702,E,000.00,063.73,220418,,,D*66
$GPVTG,063.73,T,,M,000.00,N,000.00,K,D*39
$GPZDA,124225.200,22,04,2018,00,00*59
$GPGST,124225.200,0.924,0.485,0.451,42.4,0.470,0.467,1.113*57
$PSTI,030,124225.200,A,5029.3162062,N,03025.1782702,E,190.473,0.00,-0.01,0.00,220418,D,0.0,0.0*39
$GPGGA,124225.400,5029.3162456,N,03025.1782942,E,2,15,0.7,190.496,M,26.200,M,,0000*57
$GPRMC,124225.400,A,5029.3162456,N,03025.1782942,E,000.00,063.73,220418,,,D*69
$GPVTG,063.73,T,,M,000.00,N,000.00,K,D*39
$PSTI,030,124225.400,A,5029.3162456,N,03025.1782942,E,190.496,-0.00,-0.00,-0.00,220418,D,0.0,0.0*3C
$GPGGA,124225.600,5029.3162828,N,03025.1783203,E,2,15,0.7,190.522,M,26.200,M,,0000*51
$GPRMC,124225.600,A,5029.3162828,N,03025.1783203,E,000.00,063.73,220418,,,D*61
$GPVTG,063.73,T,,M,000.00,N,000.00,K,D*39
$PSTI,030,124225.600,A,5029.3162828,N,03025.1783203,E,190.522,-0.00,-0.00,0.00,220418,D,0.0,0.0*17
$GPGGA,124225.800,5029.3163198,N,03025.1783478,E,2,15,0.7,190.553,M,26.200,M,,0000*50
$GPRMC,124225.800,A,5029.3163198,N,03025.1783478,E,000.00,063.73,220418,,,D*66
$GPVTG,063.73,T,,M,000.00,N,000.00,K,D*39
$PSTI,030,124225.800,A,5029.3163198,N,03025.1783478,E,190.553,0.00,-0.00,0.01,220418,D,0.0,0.0*3A
$GPGGA,124226.000,5029.3163556,N,03025.1783734,E,2,15,0.7,190.584,M,26.200,M,,0000*5C
$GPRMC,124226.000,A,5029.3163556,N,03025.1783734,E,000.00,063.73,220418,,,D*60
$GPVTG,063.73,T,,M,000.00,N,000.00,K,D*39
$PSTI,030,124226.000,A,5029.3163556,N,03025.1783734,E,190.584,0.00,-0.00,-0.00,220418,D,0.0,0.0*1A
$PSTI,032,124226.000,220418,V,,,,,,,,,,,*47
$GPGGA,124226.200,5029.3163923,N,03025.1784002,E,2,15,0.7,190.621,M,26.200,M,,0000*59
$GPGLL,5029.3163923,N,03025.1784002,E,124226.200,A,D*52
$GPGSA,A,3,12,06,25,19,29,32,24,02,14,,,,1.4,0.7,1.2*32
$GLGSA,A,3,74,82,73,80,84,83,,,,,,,1.4,0.7,1.2*2D
$GPGSV,4,1,14,12,82,349,51,24,48,178,49,02,43,130,48,25,42,287,48*78
$GPGSV,4,2,14,06,40,074,47,40,28,149,40,19,28,054,43,49,27,212,39*79
$GPGSV,4,3,14,32,23,290,43,14,17,318,43,29,15,227,41,17,12,053,39*7D
$GPGSV,4,4,14,03,03,010,39,31,01,320,*75
$GLGSV,3,1,09,73,82,345,49,83,74,158,44,82,42,040,49,80,36,129,44*69
$GLGSV,3,2,09,74,28,315,45,84,20,201,37,65,12,339,42,72,07,295,31*6A
$GLGSV,3,3,09,66,01,032,*5C
$GPRMC,124226.200,A,5029.3163923,N,03025.1784002,E,000.00,063.73,220418,,,D*69
$GPVTG,063.73,T,,M,000.00,N,000.00,K,D*39
$GPZDA,124226.200,22,04,2018,00,00*5A
$GPGST,124226.200,0.975,0.512,0.476,42.3,0.496,0.493,1.175*5E
$PSTI,030,124226.200,A,5029.3163923,N,03025.1784002,E,190.621,0.00,0.00,0.01,220418,D,0.0,0.0*1E
$GPGGA,124226.400,5029.3164308,N,03025.1784285,E,2,15,0.7,190.657,M,26.200,M,,0000*57
$GPRMC,124226.400,A,5029.3164308,N,03025.1784285,E,000.00,063.73,220418,,,D*66
$GPVTG,063.73,T,,M,000.00,N,000.00,K,D*39
$PSTI,030,124226.400,A,5029.3164308,N,03025.1784285,E,190.657,-0.00,-0.00,0.01,220418,D,0.0,0.0*10
$GPGGA,124226.600,5029.3164681,N,03025.1784587,E,2,15,0.7,190.692,M,26.200,M,,0000*5D
$GPRMC,124226.600,A,5029.3164681,N,03025.1784587,E,000.00,063.73,220418,,,D*65
$GPVTG,063.73,T,,M,000.00,N,000.00,K,D*39
$PSTI,030,124226.600,A,5029.3164681,N,03025.1784587,E,190.692,0.00,0.00,0.00,220418,D,0.0,0.0*1B
$GPGGA,124226.800,5029.3165039,N,03025.1784922,E,2,15,0.7,190.726,M,26.200,M,,0000*5A
$GPRMC,124226.800,A,5029.3165039,N,03025.1784922,E,000.00,063.73,220418,,,D*6C
$GPVTG,063.73,T,,M,000.00,N,000.00,K,D*39
$PSTI,030,124226.800,A,5029.3165039,N,03025.1784922,E,190.726,0.00,0.00,0.01,220418,D,0.0,0.0*1D
$GPGGA,124227.000,5029.3165364,N,03025.1785239,E,2,15,0.7,190.759,M,26.200,M,,0000*50
$GPRMC,124227.000,A,5029.3165364,N,03025.1785239,E,000.00,063.73,220418,,,D*6E
$GPVTG,063.73,T,,M,000.00,N,000.00,K,D*39
$PSTI,030,124227.000,A,5029.3165364,N,03025.1785239,E,190.759,0.00,0.00,0.01,220418,D,0.0,0.0*17
$PSTI,032,124227.000,220418,V,,,,,,,,,,,*46
$GPGGA,124227.200,5029.3130688,N,03025.1783092,E,5,15,0.7,194.129,M,26.200,M,,0000*52
$GPGLL,5029.3130688,N,03025.1783092,E,124227.200,A,F*57
$GPGSA,A,3,12,06,25,19,29,32,24,02,14,,,,1.4,0.7,1.2*32
$GLGSA,A,3,74,82,73,80,84,83,,,,,,,1.4,0.7,1.2*2D
$GPRMC,124227.200,A,5029.3130688,N,03025.1783092,E,000.00,063.73,220418,,,F*6C
$GPVTG,063.73,T,,M,000.00,N,000.00,K,F*3B
$GPZDA,124227.200,22,04,2018,00,00*5B
$GPGST,124227.200,3.103,2.874,1.895,9.6,2.852,1.929,3.082*60
$PSTI,030,124227.200,A,5029.3130688,N,03025.1783092,E,194.129,-0.00,0.01,0.02,220418,F,1.0,1.4*3B
$GPGGA,124227.400,5029.3130685,N,03025.1783090,E,5,15,0.7,194.129,M,26.200,M,,0000*5B
$GPRMC,124227.400,A,5029.3130685,N,03025.1783090,E,000.00,063.73,220418,,,F*65
$GPVTG,063.73,T,,M,000.00,N,000.00,K,F*3B
$PSTI,030,124227.400,A,5029.3130685,N,03025.1783090,E,194.129,-0.00,-0.01,0.01,220418,F,1.0,1.4*1C
$GPGGA,124227.600,5029.3130683,N,03025.1783086,E,5,15,0.7,194.131,M,26.200,M,,0000*51
$GPRMC,124227.600,A,5029.3130683,N,03025.1783086,E,000.00,063.73,220418,,,F*66
$GPVTG,063.73,T,,M,000.00,N,000.00,K,F*3B
$PSTI,030,124227.600,A,5029.3130683,N,03025.1783086,E,194.131,-0.00,-0.00,0.02,220418,F,1.0,1.4*14
$GPGGA,124227.800,5029.3130685,N,03025.1783086,E,5,15,0.7,194.132,M,26.200,M,,0000*5A
$GPRMC,124227.800,A,5029.3130685,N,03025.1783086,E,000.00,063.73,220418,,,F*6E
$GPVTG,063.73,T,,M,000.00,N,000.00,K,F*3B
$PSTI,030,124227.800,A,5029.3130685,N,03025.1783086,E,194.132,0.00,0.00,0.01,220418,F,1.0,1.4*1C
$GPGGA,124228.000,5029.3130686,N,03025.1783086,E,5,15,0.7,194.133,M,26.200,M,,0000*5F
$GPRMC,124228.000,A,5029.3130686,N,03025.1783086,E,000.00,063.73,220418,,,F*6A
$GPVTG,063.73,T,,M,000.00,N,000.00,K,F*3B
$PSTI,030,124228.000,A,5029.3130686,N,03025.1783086,E,194.133,-0.00,0.00,0.01,220418,F,1.0,1.4*34
$PSTI,032,124228.000,220418,A,F,-5470.913,13837.988,-23.349,14880.233,338.43,,,,,*0B
$GPGGA,124228.200,5029.3130807,N,03025.1783909,E,5,15,0.7,194.023,M,26.200,M,,0000*54
$GPGLL,5029.3130807,N,03025.1783909,E,124228.200,A,F*5A
$GPGSA,A,3,12,06,25,19,29,32,24,02,14,,,,1.4,0.7,1.2*32
$GLGSA,A,3,74,82,73,80,84,83,,,,,,,1.4,0.7,1.2*2D
$GPRMC,124228.200,A,5029.3130807,N,03025.1783909,E,000.00,063.73,220418,,,F*61
$GPVTG,063.73,T,,M,000.00,N,000.00,K,F*3B
$GPZDA,124228.200,22,04,2018,00,00*54
$GPGST,124228.200,3.110,2.881,1.900,9.6,2.859,1.934,3.089*66
$PSTI,030,124228.200,A,5029.3130807,N,03025.1783909,E,194.023,-0.01,-0.00,0.01,220418,F,1.0,1.6*11
$GPGGA,124228.400,5029.3130811,N,03025.1783910,E,5,15,0.7,194.024,M,26.200,M,,0000*5A
$GPRMC,124228.400,A,5029.3130811,N,03025.1783910,E,000.00,063.73,220418,,,F*68
$GPVTG,063.73,T,,M,000.00,N,000.00,K,F*3B
$PSTI,030,124228.400,A,5029.3130811,N,03025.1783910,E,194.024,0.00,0.01,0.01,220418,F,1.0,1.6*1F
$GPGGA,124228.600,5029.3130808,N,03025.1783913,E,5,15,0.7,194.025,M,26.200,M,,0000*52
$GPRMC,124228.600,A,5029.3130808,N,03025.1783913,E,000.00,063.73,220418,,,F*61
$GPVTG,063.73,T,,M,000.00,N,000.00,K,F*3B
$PSTI,030,124228.600,A,5029.3130808,N,03025.1783913,E,194.025,0.00,-0.00,0.01,220418,F,1.0,1.6*3B
$GPGGA,124228.800,5029.3130808,N,03025.1783907,E,5,15,0.7,194.025,M,26.200,M,,0000*59
$GPRMC,124228.800,A,5029.3130808,N,03025.1783907,E,000.00,063.73,220418,,,F*6A
$GPVTG,063.73,T,,M,000.00,N,000.00,K,F*3B
$PSTI,030,124228.800,A,5029.3130808,N,03025.1783907,E,194.025,-0.01,0.00,0.00,220418,F,1.0,1.6*30
$GPGGA,124229.000,5029.3130811,N,03025.1783904,E,5,15,0.7,194.027,M,26.200,M,,0000*59
$GPRMC,124229.000,A,5029.3130811,N,03025.1783904,E,000.00,063.73,220418,,,F*68
$GPVTG,063.73,T,,M,000.00,N,000.00,K,F*3B
$PSTI,030,124229.000,A,5029.3130811,N,03025.1783904,E,194.027,-0.00,0.01,0.02,220418,F,1.0,1.6*32
$PSTI,032,124229.000,220418,A,F,-5470.815,13838.011,-23.453,14880.219,338.43,,,,,*0F
$GPGGA,124229.200,5029.3130896,N,03025.1784373,E,5,15,0.7,193.964,M,26.200,M,,0000*50
$GPGLL,5029.3130896,N,03025.1784373,E,124229.200,A,F*53
$GPGSA,A,3,12,06,25,19,29,32,24,02,14,,,,1.4,0.7,1.2*32
$GLGSA,A,3,74,82,73,80,84,83,,,,,,,1.4,0.7,1.2*2D
$GPGSV,4,1,14,12,82,349,51,24,48,178,49,02,43,130,47,25,42,287,48*77
$GPGSV,4,2,14,06,40,074,47,40,28,149,40,19,28,054,43,49,27,212,40*77
$GPGSV,4,3,14,32,23,290,43,14,17,318,43,29,15,227,41,17,12,053,40*73
$GPGSV,4,4,14,03,03,010,39,31,02,320,*76
$GLGSV,3,1,09,73,82,345,49,83,74,158,46,82,42,040,49,80,36,129,44*6B
$GLGSV,3,2,09,74,28,315,45,84,20,201,36,65,12,339,42,72,07,295,31*6B
$GLGSV,3,3,09,66,01,032,*5C
$GPRMC,124229.200,A,5029.3130896,N,03025.1784373,E,000.00,063.73,220418,,,F*68
$GPVTG,063.73,T,,M,000.00,N,000.00,K,F*3B
$GPZDA,124229.200,22,04,2018,00,00*55
$GPGST,124229.200,3.004,2.783,1.835,9.6,2.761,1.868,2.983*67
$PSTI,030,124229.200,A,5029.3130896,N,03025.1784373,E,193.964,0.00,-0.01,0.01,220418,F,1.0,1.9*37
$GPGGA,124229.400,5029.3130900,N,03025.1784377,E,5,15,0.7,193.965,M,26.200,M,,0000*5D
$GPRMC,124229.400,A,5029.3130900,N,03025.1784377,E,000.00,063.73,220418,,,F*64
$GPVTG,063.73,T,,M,000.00,N,000.00,K,F*3B
$PSTI,030,124229.400,A,5029.3130900,N,03025.1784377,E,193.965,0.00,0.01,0.01,220418,F,1.0,1.9*17
$GPGGA,124229.600,5029.3130901,N,03025.1784372,E,5,15,0.7,193.965,M,26.200,M,,0000*5B
$GPRMC,124229.600,A,5029.3130901,N,03025.1784372,E,000.00,063.73,220418,,,F*62
$GPVTG,063.73,T,,M,000.00,N,000.00,K,F*3B
$PSTI,030,124229.600,A,5029.3130901,N,03025.1784372,E,193.965,-0.01,0.00,0.00,220418,F,1.0,1.9*3D
$GPGGA,124229.800,5029.3130900,N,03025.1784369,E,5,15,0.7,193.966,M,26.200,M,,0000*5D
$GPRMC,124229.800,A,5029.3130900,N,03025.1784369,E,000.00,063.73,220418,,,F*67
$GPVTG,063.73,T,,M,000.00,N,000.00,K,F*3B
$PSTI,030,124229.800,A,5029.3130900,N,03025.1784369,E,193.966,-0.00,-0.00,0.01,220418,F,1.0,1.9*16
$GPGGA,124230.000,5029.3130897,N,03025.1784369,E,5,15,0.7,193.967,M,26.200,M,,0000*53
$GPRMC,124230.000,A,5029.3130897,N,03025.1784369,E,000.00,063.73,220418,,,F*68
$GPVTG,063.73,T,,M,000.00,N,000.00,K,F*3B
$PSTI,030,124230.000,A,5029.3130897,N,03025.1784369,E,193.967,-0.00,-0.01,0.01,220418,F,1.0,1.9*19
$PSTI,032,124230.000,220418,A,F,-5470.762,13838.027,-23.512,14880.215,338.43,,,,,*05
$GPGGA,124230.200,5029.3130994,N,03025.1784768,E,5,15,0.7,193.897,M,26.200,M,,0000*58
$GPGLL,5029.3130994,N,03025.1784768,E,124230.200,A,F*56
$GPGSA,A,3,12,06,25,19,29,32,24,02,14,,,,1.4,0.7,1.2*32
$GLGSA,A,3,74,82,73,80,84,83,,,,,,,1.4,0.7,1.2*2D
$GPRMC,124230.200,A,5029.3130994,N,03025.1784768,E,000.00,063.73,220418,,,F*6D
$GPVTG,063.73,T,,M,000.00,N,000.00,K,F*3B
$GPZDA,124230.200,22,04,2018,00,00*5D
$GPGST,124230.200,3.165,2.931,1.933,9.5,2.909,1.967,3.143*61
$PSTI,030,124230.200,A,5029.3130994,N,03025.1784768,E,193.897,-0.00,0.00,0.01,220418,F,1.0,2.1*35
$GPGGA,124230.400,5029.3130997,N,03025.1784767,E,5,15,0.7,193.898,M,26.200,M,,0000*5D
$GPRMC,124230.400,A,5029.3130997,N,03025.1784767,E,000.00,063.73,220418,,,F*67
$GPVTG,063.73,T,,M,000.00,N,000.00,K,F*3B
$PSTI,030,124230.400,A,5029.3130997,N,03025.1784767,E,193.898,-0.00,0.01,0.00,220418,F,1.0,2.1*30
$GPGGA,124230.600,5029.3130996,N,03025.1784767,E,5,15,0.7,193.898,M,26.200,M,,0000*5E
$GPRMC,124230.600,A,5029.3130996,N,03025.1784767,E,000.00,063.73,220418,,,F*64
$GPVTG,063.73,T,,M,000.00,N,000.00,K,F*3B
$PSTI,030,124230.600,A,5029.3130996,N,03025.1784767,E,193.898,-0.00,-0.00,0.01,220418,F,1.0,2.1*1E
$GPGGA,124230.800,5029.3130992,N,03025.1784763,E,5,15,0.7,193.899,M,26.200,M,,0000*51
$GPRMC,124230.800,A,5029.3130992,N,03025.1784763,E,000.00,063.73,220418,,,F*6A
$GPVTG,063.73,T,,M,000.00,N,000.00,K,F*3B
$PSTI,030,124230.800,A,5029.3130992,N,03025.1784763,E,193.899,-0.01,-0.01,0.01,220418,F,1.0,2.1*11
$GPGGA,124231.000,5029.3130997,N,03025.1784762,E,5,15,0.7,193.900,M,26.200,M,,0000*5D
$GPRMC,124231.000,A,5029.3130997,N,03025.1784762,E,000.00,063.73,220418,,,F*67
$GPVTG,063.73,T,,M,000.00,N,000.00,K,F*3B
$PSTI,030,124231.000,A,5029.3130997,N,03025.1784762,E,193.900,-0.00,0.01,0.00,220418,F,1.0,2.1*30
$PSTI,032,124231.000,220418,A,F,-5470.714,13838.045,-23.579,14880.214,338.43,,,,,*0D
$GPGGA,124231.200,5029.3131105,N,03025.1785058,E,5,15,0.7,193.856,M,26.200,M,,0000*50
$GPGLL,5029.3131105,N,03025.1785058,E,124231.200,A,F*53
$GPGSA,A,3,12,06,25,19,29,32,24,02,14,,,,1.4,0.7,1.2*32
$GLGSA,A,3,74,82,73,80,84,83,,,,,,,1.4,0.7,1.2*2D
$GPRMC,124231.200,A,5029.3131105,N,03025.1785058,E,000.00,063.73,220418,,,F*68
$GPVTG,063.73,T,,M,000.00,N,000.00,K,F*3B
$GPZDA,124231.200,22,04,2018,00,00*5C
$GPGST,124231.200,2.933,2.716,1.792,9.5,2.695,1.823,2.912*62
$PSTI,030,124231.200,A,5029.3131105,N,03025.1785058,E,193.856,-0.00,-0.01,0.00,220418,F,1.0,2.4*15
$GPGGA,124231.400,5029.3131104,N,03025.1785060,E,5,15,0.7,193.856,M,26.200,M,,0000*5C
$GPRMC,124231.400,A,5029.3131104,N,03025.1785060,E,000.00,063.73,220418,,,F*64
$GPVTG,063.73,T,,M,000.00,N,000.00,K,F*3B
$PSTI,030,124231.400,A,5029.3131104,N,03025.1785060,E,193.856,0.00,-0.00,0.01,220418,F,1.0,2.4*34
$GPGGA,124231.600,5029.3131102,N,03025.1785063,E,5,15,0.7,193.857,M,26.200,M,,0000*5A
$GPRMC,124231.600,A,5029.3131102,N,03025.1785063,E,000.00,063.73,220418,,,F*63
$GPVTG,063.73,T,,M,000.00,N,000.00,K,F*3B
$PSTI,030,124231.600,A,5029.3131102,N,03025.1785063,E,193.857,0.00,-0.00,0.00,220418,F,1.0,2.4*33
$GPRMC,124817.400,A,5029.3128242,N,03025.1802775,E,000.00,063.73,220418,,,D*62
$GPVTG,063.73,T,,M,000.00,N,000.00,K,D*39
$PSTI,030,124817.400,A,5029.3128242,N,03025.1802775,E,191.080,0.00,0.00,0.01,220418,D,0.0,0.0*19
$GPGGA,124817.600,5029.3128011,N,03025.1802366,E,2,15,0.7,191.075,M,26.200,M,,0000*54
$GPRMC,124817.600,A,5029.3128011,N,03025.1802366,E,000.00,063.73,220418,,,D*62
$GPVTG,063.73,T,,M,000.00,N,000.00,K,D*39
$PSTI,030,124817.600,A,5029.3128011,N,03025.1802366,E,191.075,-0.00,0.00,-0.00,220418,D,0.0,0.0*12
$GPGGA,124817.800,5029.3127783,N,03025.1801976,E,2,15,0.7,191.074,M,26.200,M,,0000*50
$GPRMC,124817.800,A,5029.3127783,N,03025.1801976,E,000.00,063.73,220418,,,D*67
$GPVTG,063.73,T,,M,000.00,N,000.00,K,D*39
$PSTI,030,124817.800,A,5029.3127783,N,03025.1801976,E,191.074,0.01,0.01,0.01,220418,D,0.0,0.0*17
$GPGGA,124818.000,5029.3127537,N,03025.1801661,E,2,15,0.7,191.076,M,26.200,M,,0000*51
$GPRMC,124818.000,A,5029.3127537,N,03025.1801661,E,000.00,063.73,220418,,,D*64
$GPVTG,063.73,T,,M,000.00,N,000.00,K,D*39
$PSTI,030,124818.000,A,5029.3127537,N,03025.1801661,E,191.076,-0.00,-0.00,0.01,220418,D,0.0,0.0*16
$PSTI,032,124818.000,220418,V,,,,,,,,,,,*40
$GPGGA,124818.200,5029.3127300,N,03025.1801364,E,2,15,0.7,191.075,M,26.200,M,,0000*52
$GPGLL,5029.3127300,N,03025.1801364,E,124818.200,A,D*5F
$GPGSA,A,3,12,06,25,19,29,32,24,02,14,,,,1.4,0.7,1.2*32
$GLGSA,A,3,74,82,73,80,84,83,,,,,,,1.4,0.7,1.2*2D
$GPRMC,124818.200,A,5029.3127300,N,03025.1801364,E,000.00,063.73,220418,,,D*64
$GPVTG,063.73,T,,M,000.00,N,000.00,K,D*39
$GPZDA,124818.200,22,04,2018,00,00*5D
$GPGST,124818.200,1.247,0.642,0.609,21.7,0.638,0.614,1.503*51
$PSTI,030,124818.200,A,5029.3127300,N,03025.1801364,E,191.075,-0.00,-0.00,0.01,220418,D,0.0,0.0*15
$GPGGA,124818.400,5029.3127118,N,03025.1801099,E,2,15,0.7,191.081,M,26.200,M,,0000*55
$GPRMC,124818.400,A,5029.3127118,N,03025.1801099,E,000.00,063.73,220418,,,D*68
$GPVTG,063.73,T,,M,000.00,N,000.00,K,D*39
$PSTI,030,124818.400,A,5029.3127118,N,03025.1801099,E,191.081,0.01,0.00,0.01,220418,D,0.0,0.0*13
$GPGGA,124818.600,5029.3126946,N,03025.1800876,E,2,15,0.7,191.078,M,26.200,M,,0000*5B
$GPRMC,124818.600,A,5029.3126946,N,03025.1800876,E,000.00,063.73,220418,,,D*60
$GPVTG,063.73,T,,M,000.00,N,000.00,K,D*39
$PSTI,030,124818.600,A,5029.3126946,N,03025.1800876,E,191.078,0.00,0.00,-0.00,220418,D,0.0,0.0*30
$GPGGA,124818.800,5029.3126790,N,03025.1800653,E,2,15,0.7,191.082,M,26.200,M,,0000*5C
$GPRMC,124818.800,A,5029.3126790,N,03025.1800653,E,000.00,063.73,220418,,,D*62
$GPVTG,063.73,T,,M,000.00,N,000.00,K,D*39
$PSTI,030,124818.800,A,5029.3126790,N,03025.1800653,E,191.082,-0.01,0.00,0.00,220418,D,0.0,0.0*36
$GPGGA,124819.000,5029.3126662,N,03025.1800428,E,2,15,0.7,191.084,M,26.200,M,,0000*51
$GPRMC,124819.000,A,5029.3126662,N,03025.1800428,E,000.00,063.73,220418,,,D*69
$GPVTG,063.73,T,,M,000.00,N,000.00,K,D*39
$PSTI,030,124819.000,A,5029.3126662,N,03025.1800428,E,191.084,-0.00,0.00,0.01,220418,D,0.0,0.0*3B
$PSTI,032,124819.000,220418,V,,,,,,,,,,,*41
$GPGGA,124819.200,5029.3126575,N,03025.1800203,E,2,15,0.7,191.088,M,26.200,M,,0000*55
$GPGLL,5029.3126575,N,03025.1800203,E,124819.200,A,D*5A
$GPGSA,A,3,12,06,25,19,29,32,24,02,14,,,,1.4,0.7,1.2*32
$GLGSA,A,3,74,82,73,80,84,83,,,,,,,1.4,0.7,1.2*2D
$GPRMC,124819.200,A,5029.3126575,N,03025.1800203,E,000.00,063.73,220418,,,D*61
$GPVTG,063.73,T,,M,000.00,N,000.00,K,D*39
$GPZDA,124819.200,22,04,2018,00,00*5C
$GPGST,124819.200,1.188,0.612,0.580,21.6,0.608,0.585,1.432*5D
$PSTI,030,124819.200,A,5029.3126575,N,03025.1800203,E,191.088,-0.00,-0.00,0.01,220418,D,0.0,0.0*12
$GPGGA,124819.400,5029.3126501,N,03025.1799947,E,2,15,0.7,191.087,M,26.200,M,,0000*5B
$GPRMC,124819.400,A,5029.3126501,N,03025.1799947,E,000.00,063.73,220418,,,D*60
$GPVTG,063.73,T,,M,000.00,N,000.00,K,D*39
$PSTI,030,124819.400,A,5029.3126501,N,03025.1799947,E,191.087,-0.00,-0.01,0.00,220418,D,0.0,0.0*1C
$GPGGA,124819.600,5029.3126414,N,03025.1799680,E,2,15,0.7,191.087,M,26.200,M,,0000*58
$GPRMC,124819.600,A,5029.3126414,N,03025.1799680,E,000.00,063.73,220418,,,D*63
$GPVTG,063.73,T,,M,000.00,N,000.00,K,D*39
$PSTI,030,124819.600,A,5029.3126414,N,03025.1799680,E,191.087,0.01,-0.00,0.00,220418,D,0.0,0.0*32
$GPGGA,124819.800,5029.3126332,N,03025.1799428,E,2,15,0.7,191.086,M,26.200,M,,0000*54
$GPRMC,124819.800,A,5029.3126332,N,03025.1799428,E,000.00,063.73,220418,,,D*6E
$GPVTG,063.73,T,,M,000.00,N,000.00,K,D*39
$PSTI,030,124819.800,A,5029.3126332,N,03025.1799428,E,191.086,-0.00,0.01,0.01,220418,D,0.0,0.0*3F
$GPGGA,124820.000,5029.3126234,N,03025.1799238,E,2,15,0.7,191.084,M,26.200,M,,0000*54
$GPRMC,124820.000,A,5029.3126234,N,03025.1799238,E,000.00,063.73,220418,,,D*6C
$GPVTG,063.73,T,,M,000.00,N,000.00,K,D*39
$PSTI,030,124820.000,A,5029.3126234,N,03025.1799238,E,191.084,0.00,0.00,0.01,220418,D,0.0,0.0*13
$PSTI,032,124820.000,220418,V,,,,,,,,,,,*4B
$GPGGA,124820.200,5029.3126196,N,03025.1799089,E,2,15,0.7,191.088,M,26.200,M,,0000*59
$GPGLL,5029.3126196,N,03025.1799089,E,124820.200,A,D*56
$GPGSA,A,3,12,06,25,19,29,32,24,02,14,,,,1.4,0.7,1.2*32
$GLGSA,A,3,74,82,73,80,84,83,,,,,,,1.4,0.7,1.2*2D
$GPGSV,4,1,14,12,83,011,51,24,45,177,46,02,45,127,47,25,44,288,49*7D
$GPGSV,4,2,14,06,40,071,48,40,28,149,40,49,27,212,39,19,25,054,44*79
$GPGSV,4,3,14,32,22,287,43,14,18,315,43,29,18,229,42,17,10,053,42*76
$GPGSV,4,4,14,31,04,320,,03,02,008,39*78
$GLGSV,3,1,09,73,85,359,49,83,77,150,47,82,39,039,48,80,34,131,43*64
$GLGSV,3,2,09,74,31,316,45,84,23,203,38,65,12,336,43,72,05,293,38*6C
$GLGSV,3,3,09,66,03,029,41*51
$GPRMC,124820.200,A,5029.3126196,N,03025.1799089,E,000.00,063.73,220418,,,D*6D
$GPVTG,063.73,T,,M,000.00,N,000.00,K,D*39
$GPZDA,124820.200,22,04,2018,00,00*56
$GPGST,124820.200,1.129,0.582,0.551,21.6,0.578,0.555,1.360*53
$PSTI,030,124820.200,A,5029.3126196,N,03025.1799089,E,191.088,0.00,-0.01,0.01,220418,D,0.0,0.0*32
$GPGGA,124820.400,5029.3126163,N,03025.1798905,E,2,15,0.7,191.095,M,26.200,M,,0000*55
$GPRMC,124820.400,A,5029.3126163,N,03025.1798905,E,000.00,063.73,220418,,,D*6D
$GPVTG,063.73,T,,M,000.00,N,000.00,K,D*39
$PSTI,030,124820.400,A,5029.3126163,N,03025.1798905,E,191.095,0.00,0.00,0.01,220418,D,0.0,0.0*12
$GPGGA,124820.600,5029.3126137,N,03025.1798765,E,2,15,0.7,191.105,M,26.200,M,,0000*56
$GPRMC,124820.600,A,5029.3126137,N,03025.1798765,E,000.00,063.73,220418,,,D*66
$GPVTG,063.73,T,,M,000.00,N,000.00,K,D*39
$PSTI,030,124820.600,A,5029.3126137,N,03025.1798765,E,191.105,-0.01,-0.00,-0.00,220418,D,0.0,0.0*3C
$GPGGA,124820.800,5029.3126120,N,03025.1798639,E,2,15,0.7,191.114,M,26.200,M,,0000*56
$GPRMC,124820.800,A,5029.3126120,N,03025.1798639,E,000.00,063.73,220418,,,D*66
$GPVTG,063.73,T,,M,000.00,N,000.00,K,D*39
$PSTI,030,124820.800,A,5029.3126120,N,03025.1798639,E,191.114,-0.00,-0.00,0.01,220418,D,0.0,0.0*11
$GPGGA,124821.000,5029.3126114,N,03025.1798533,E,2,15,0.7,191.124,M,26.200,M,,0000*52
$GPRMC,124821.000,A,5029.3126114,N,03025.1798533,E,000.00,063.73,220418,,,D*61
$GPVTG,063.73,T,,M,000.00,N,000.00,K,D*39
$PSTI,030,124821.000,A,5029.3126114,N,03025.1798533,E,191.124,0.00,0.01,0.01,220418,D,0.0,0.0*14
$PSTI,032,124821.000,220418,V,,,,,,,,,,,*4A
$GPGGA,124821.200,5029.3126116,N,03025.1798420,E,2,15,0.7,191.129,M,26.200,M,,0000*5C
$GPGLL,5029.3126116,N,03025.1798420,E,124821.200,A,D*59
$GPGSA,A,3,12,06,25,19,29,32,24,02,14,,,,1.4,0.7,1.2*32
$GLGSA,A,3,74,82,73,80,84,83,,,,,,,1.4,0.7,1.2*2D
$GPRMC,124821.200,A,5029.3126116,N,03025.1798420,E,000.00,063.73,220418,,,D*62
$GPVTG,063.73,T,,M,000.00,N,000.00,K,D*39
$GPZDA,124821.200,22,04,2018,00,00*57
$GPGST,124821.200,1.057,0.545,0.516,21.5,0.541,0.520,1.275*5C
$PSTI,030,124821.200,A,5029.3126116,N,03025.1798420,E,191.129,0.00,-0.00,0.01,220418,D,0.0,0.0*36
$GPGGA,124821.400,5029.3126110,N,03025.1798310,E,2,15,0.7,191.138,M,26.200,M,,0000*58
$GPRMC,124821.400,A,5029.3126110,N,03025.1798310,E,000.00,063.73,220418,,,D*66
$GPVTG,063.73,T,,M,000.00,N,000.00,K,D*39
$PSTI,030,124821.400,A,5029.3126110,N,03025.1798310,E,191.138,-0.00,-0.01,0.01,220418,D,0.0,0.0*1E
$GPGGA,124821.600,5029.3126101,N,03025.1798220,E,2,15,0.7,191.141,M,26.200,M,,0000*56
$GPRMC,124821.600,A,5029.3126101,N,03025.1798220,E,000.00,063.73,220418,,,D*66
$GPVTG,063.73,T,,M,000.00,N,000.00,K,D*39
$PSTI,030,124821.600,A,5029.3126101,N,03025.1798220,E,191.141,-0.00,0.00,0.01,220418,D,0.0,0.0*3C
$GPGGA,124821.800,5029.3126087,N,03025.1798143,E,2,15,0.7,191.143,M,26.200,M,,0000*53
$GPRMC,124821.800,A,5029.3126087,N,03025.1798143,E,000.00,063.73,220418,,,D*61
$GPVTG,063.73,T,,M,000.00,N,000.00,K,D*39
$PSTI,030,124821.800,A,5029.3126087,N,03025.1798143,E,191.143,-0.00,-0.00,0.01,220418,D,0.0,0.0*14
$GPGGA,124822.000,5029.3126082,N,03025.1798080,E,2,15,0.7,191.138,M,26.200,M,,0000*5F
$GPRMC,124822.000,A,5029.3126082,N,03025.1798080,E,000.00,063.73,220418,,,D*61
$GPVTG,063.73,T,,M,000.00,N,000.00,K,D*39
$PSTI,030,124822.000,A,5029.3126082,N,03025.1798080,E,191.138,-0.00,0.00,0.01,220418,D,0.0,0.0*35
$PSTI,032,124822.000,220418,V,,,,,,,,,,,*49
$GPGGA,124822.200,5029.3126076,N,03025.1798057,E,2,15,0.7,191.134,M,26.200,M,,0000*50
$GPGLL,5029.3126076,N,03025.1798057,E,124822.200,A,D*59
$GPGSA,A,3,12,06,25,19,29,32,24,02,14,,,,1.4,0.7,1.2*32
$GLGSA,A,3,74,82,73,80,84,83,,,,,,,1.4,0.7,1.2*2D
$GPRMC,124822.200,A,5029.3126076,N,03025.1798057,E,000.00,063.73,220418,,,D*62
$GPVTG,063.73,T,,M,000.00,N,000.00,K,D*39
$GPZDA,124822.200,22,04,2018,00,00*54
$GPGST,124822.200,0.984,0.507,0.481,21.4,0.504,0.484,1.186*50
$PSTI,030,124822.200,A,5029.3126076,N,03025.1798057,E,191.134,0.00,0.00,0.00,220418,D,0.0,0.0*16
$GPGGA,124822.400,5029.3126084,N,03025.1798040,E,2,15,0.7,191.124,M,26.200,M,,0000*5C
$GPRMC,124822.400,A,5029.3126084,N,03025.1798040,E,000.00,063.73,220418,,,D*6F
$GPVTG,063.73,T,,M,000.00,N,000.00,K,D*39
$PSTI,030,124822.400,A,5029.3126084,N,03025.1798040,E,191.124,-0.00,-0.00,0.01,220418,D,0.0,0.0*1B
$GPGGA,124822.600,5029.3126102,N,03025.1798035,E,2,15,0.7,191.111,M,26.200,M,,0000*55
$GPRMC,124822.600,A,5029.3126102,N,03025.1798035,E,000.00,063.73,220418,,,D*60
$GPVTG,063.73,T,,M,000.00,N,000.00,K,D*39
$PSTI,030,124822.600,A,5029.3126102,N,03025.1798035,E,191.111,-0.00,-0.00,0.01,220418,D,0.0,0.0*12
$GPGGA,124822.800,5029.3126113,N,03025.1798001,E,2,15,0.7,191.103,M,26.200,M,,0000*5F
$GPRMC,124822.800,A,5029.3126113,N,03025.1798001,E,000.00,063.73,220418,,,D*69
$GPVTG,063.73,T,,M,000.00,N,000.00,K,D*39
$PSTI,030,124822.800,A,5029.3126113,N,03025.1798001,E,191.103,0.00,-0.00,0.00,220418,D,0.0,0.0*34
$GPGGA,124823.000,5029.3126130,N,03025.1797923,E,2,15,0.7,191.093,M,26.200,M,,0000*59
$GPRMC,124823.000,A,5029.3126130,N,03025.1797923,E,000.00,063.73,220418,,,D*67
$GPVTG,063.73,T,,M,000.00,N,000.00,K,D*39
$PSTI,030,124823.000,A,5029.3126130,N,03025.1797923,E,191.093,-0.00,0.00,0.01,220418,D,0.0,0.0*33
$PSTI,032,124823.000,220418,V,,,,,,,,,,,*48
$GPGGA,124823.200,5029.3130548,N,03025.1784563,E,5,15,0.7,193.918,M,26.200,M,,0000*52
$GPGLL,5029.3130548,N,03025.1784563,E,124823.200,A,F*5A
$GPGSA,A,3,12,06,25,19,29,32,24,02,14,,,,1.4,0.7,1.2*32
$GLGSA,A,3,74,82,73,80,84,83,,,,,,,1.4,0.7,1.2*2D
$GPGSV,4,1,14,12,83,011,51,24,45,177,46,02,45,127,47,25,44,288,49*7D
$GPGSV,4,2,14,06,40,071,48,40,28,149,40,49,27,212,39,19,25,054,43*7E
$GPGSV,4,3,14,32,22,287,43,14,18,315,43,29,18,229,42,17,10,053,43*77
$GPGSV,4,4,14,31,04,320,,03,02,008,39*78
$GLGSV,3,1,09,73,85,359,49,83,77,150,47,82,39,039,48,80,34,131,44*63
$GLGSV,3,2,09,74,31,316,45,84,23,203,37,65,12,336,43,72,05,293,38*63
$GLGSV,3,3,09,66,03,029,40*50
$GPRMC,124823.200,A,5029.3130548,N,03025.1784563,E,000.00,063.73,220418,,,F*61
$GPVTG,063.73,T,,M,000.00,N,000.00,K,F*3B
$GPZDA,124823.200,22,04,2018,00,00*55
$GPGST,124823.200,0.002,0.001,0.001,5.1,0.001,0.001,0.002*6F
$PSTI,030,124823.200,A,5029.3130548,N,03025.1784563,E,193.918,0.01,-0.00,0.01,220418,F,1.0,2.9*36
$GPGGA,124823.400,5029.3130551,N,03025.1784561,E,5,15,0.7,193.918,M,26.200,M,,0000*5E
$GPRMC,124823.400,A,5029.3130551,N,03025.1784561,E,000.00,063.73,220418,,,F*6D
$GPVTG,063.73,T,,M,000.00,N,000.00,K,F*3B
$PSTI,030,124823.400,A,5029.3130551,N,03025.1784561,E,193.918,-0.00,0.00,0.01,220418,F,1.0,2.9*3B
$GPGGA,124823.600,5029.3130550,N,03025.1784560,E,5,15,0.7,193.918,M,26.200,M,,0000*5C
$GPRMC,124823.600,A,5029.3130550,N,03025.1784560,E,000.00,063.73,220418,,,F*6F
$GPVTG,063.73,T,,M,000.00,N,000.00,K,F*3B
$PSTI,030,124823.600,A,5029.3130550,N,03025.1784560,E,193.918,-0.00,-0.00,0.00,220418,F,1.0,2.9*15
$GPGGA,124823.800,5029.3130550,N,03025.1784562,E,5,15,0.7,193.920,M,26.200,M,,0000*5B
$GPRMC,124823.800,A,5029.3130550,N,03025.1784562,E,000.00,063.73,220418,,,F*63
$GPVTG,063.73,T,,M,000.00,N,000.00,K,F*3B
$PSTI,030,124823.800,A,5029.3130550,N,03025.1784562,E,193.920,0.00,-0.00,0.01,220418,F,1.0,2.9*3E
$GPGGA,124824.000,5029.3130547,N,03025.1784560,E,5,15,0.7,193.921,M,26.200,M,,0000*51
$GPRMC,124824.000,A,5029.3130547,N,03025.1784560,E,000.00,063.73,220418,,,F*68
$GPVTG,063.73,T,,M,000.00,N,000.00,K,F*3B
$PSTI,030,124824.000,A,5029.3130547,N,03025.1784560,E,193.921,-0.00,-0.01,0.02,220418,F,1.0,2.9*1B
$PSTI,032,124824.000,220418,A,F,-5470.740,13837.963,-23.558,14880.146,338.43,,,,,*07
$GPGGA,124824.200,5029.3130550,N,03025.1784545,E,5,15,0.7,193.925,M,26.200,M,,0000*56
$GPGLL,5029.3130550,N,03025.1784545,E,124824.200,A,F*50
$GPGSA,A,3,12,06,25,19,29,32,24,02,14,,,,1.4,0.7,1.2*32
$GLGSA,A,3,74,82,73,80,84,83,,,,,,,1.4,0.7,1.2*2D
$GPRMC,124824.200,A,5029.3130550,N,03025.1784545,E,000.00,063.73,220418,,,F*6B
$GPVTG,063.73,T,,M,000.00,N,000.00,K,F*3B
$GPZDA,124824.200,22,04,2018,00,00*52
$GPGST,124824.200,0.002,0.002,0.001,5.1,0.002,0.001,0.002*68
$PSTI,030,124824.200,A,5029.3130550,N,03025.1784545,E,193.925,-0.00,0.00,0.01,220418,F,1.0,2.9*33
$GPGGA,124824.400,5029.3130548,N,03025.1784546,E,5,15,0.7,193.926,M,26.200,M,,0000*59
$GPRMC,124824.400,A,5029.3130548,N,03025.1784546,E,000.00,063.73,220418,,,F*67
$GPVTG,063.73,T,,M,000.00,N,000.00,K,F*3B
$PSTI,030,124824.400,A,5029.3130548,N,03025.1784546,E,193.926,0.00,-0.00,0.01,220418,F,1.0,2.9*3C
$GPGGA,124824.600,5029.3130548,N,03025.1784546,E,5,15,0.7,193.928,M,26.200,M,,0000*55
$GPRMC,124824.600,A,5029.3130548,N,03025.1784546,E,000.00,063.73,220418,,,F*65
$GPVTG,063.73,T,,M,000.00,N,000.00,K,F*3B
$PSTI,030,124824.600,A,5029.3130548,N,03025.1784546,E,193.928,-0.00,-0.00,0.01,220418,F,1.0,2.9*1D
$GPGGA,124824.800,5029.3130551,N,03025.1784547,E,5,15,0.7,193.928,M,26.200,M,,0000*52
$GPRMC,124824.800,A,5029.3130551,N,03025.1784547,E,000.00,063.73,220418,,,F*62
$GPVTG,063.73,T,,M,000.00,N,000.00,K,F*3B
$PSTI,030,124824.800,A,5029.3130551,N,03025.1784547,E,193.928,0.00,0.01,0.01,220418,F,1.0,2.9*1B
$GPGGA,124825.000,5029.3130551,N,03025.1784546,E,5,15,0.7,193.930,M,26.200,M,,0000*53
$GPRMC,124825.000,A,5029.3130551,N,03025.1784546,E,000.00,063.73,220418,,,F*6A
$GPVTG,063.73,T,,M,000.00,N,000.00,K,F*3B
$PSTI,030,124825.000,A,5029.3130551,N,03025.1784546,E,193.930,-0.00,-0.00,0.02,220418,F,1.0,2.9*18
$PSTI,032,124825.000,220418,A,F,-5470.741,13837.963,-23.551,14880.146,338.43,,,,,*0E
$GPGGA,124825.200,5029.3130566,N,03025.1784566,E,5,15,0.7,193.921,M,26.200,M,,0000*57
$GPGLL,5029.3130566,N,03025.1784566,E,124825.200,A,F*55
$GPGSA,A,3,12,06,25,19,29,32,24,02,14,,,,1.4,0.7,1.2*32
$GLGSA,A,3,74,82,73,80,84,83,,,,,,,1.4,0.7,1.2*2D
$GPRMC,124825.200,A,5029.3130566,N,03025.1784566,E,000.00,063.73,220418,,,F*6E
$GPVTG,063.73,T,,M,000.00,N,000.00,K,F*3B
$GPZDA,124825.200,22,04,2018,00,00*53
$GPGST,124825.200,0.003,0.002,0.002,5.1,0.002,0.002,0.003*69
$PSTI,030,124825.200,A,5029.3130566,N,03025.1784566,E,193.921,0.00,0.00,0.01,220418,F,1.0,2.9*1F
$GPGGA,124825.400,5029.3130565,N,03025.1784562,E,5,15,0.7,193.922,M,26.200,M,,0000*55
$GPRMC,124825.400,A,5029.3130565,N,03025.1784562,E,000.00,063.73,220418,,,F*6F
$GPVTG,063.73,T,,M,000.00,N,000.00,K,F*3B
$PSTI,030,124825.400,A,5029.3130565,N,03025.1784562,E,193.922,-0.00,-0.00,0.01,220418,F,1.0,2.9*1D
$GPGGA,124825.600,5029.3130567,N,03025.1784567,E,5,15,0.7,193.923,M,26.200,M,,0000*51
$GPRMC,124825.600,A,5029.3130567,N,03025.1784567,E,000.00,063.73,220418,,,F*6A
$GPVTG,063.73,T,,M,000.00,N,000.00,K,F*3B
$PSTI,030,124825.600,A,5029.3130567,N,03025.1784567,E,193.923,0.01,0.00,0.02,220418,F,1.0,2.9*1B
$GPGGA,124825.800,5029.3130566,N,03025.1784563,E,5,15,0.7,193.924,M,26.200,M,,0000*5D
$GPRMC,124825.800,A,5029.3130566,N,03025.1784563,E,000.00,063.73,220418,,,F*61
$GPVTG,063.73,T,,M,000.00,N,000.00,K,F*3B
$PSTI,030,124825.800,A,5029.3130566,N,03025.1784563,E,193.924,-0.00,-0.00,0.01,220418,F,1.0,2.9*15
$GPGGA,124826.000,5029.3130572,N,03025.1784565,E,5,15,0.7,193.926,M,26.200,M,,0000*57
$GPRMC,124826.000,A,5029.3130572,N,03025.1784565,E,000.00,063.73,220418,,,F*69
$GPVTG,063.73,T,,M,000.00,N,000.00,K,F*3B
$PSTI,030,124826.000,A,5029.3130572,N,03025.1784565,E,193.926,0.00,0.01,0.02,220418,F,1.0,2.9*1D
$PSTI,032,124826.000,220418,A,F,-5470.739,13837.966,-23.556,14880.148,338.43,,,,,*0E
$GPGGA,124826.200,5029.3130589,N,03025.1784546,E,5,15,0.7,193.929,M,26.200,M,,0000*5F
$GPGLL,5029.3130589,N,03025.1784546,E,124826.200,A,F*55
$GPGSA,A,3,12,06,25,19,29,32,24,02,14,,,,1.4,0.7,1.2*32
$GLGSA,A,3,74,82,73,80,84,83,,,,,,,1.4,0.7,1.2*2D
$GPGSV,4,1,14,12,83,011,51,24,45,177,46,02,45,127,47,25,44,288,49*7D
$GPGSV,4,2,14,06,40,071,47,40,28,149,40,49,27,212,39,19,25,054,44*76
$GPGSV,4,3,14,32,22,287,43,14,18,315,43,29,18,229,42,17,10,053,42*76
$GPGSV,4,4,14,31,04,320,,03,02,008,37*76
$GLGSV,3,1,$GPGGA,124826.400,5029.3130588,N,03025.1784549,E,5,15,0.7,193.929,M,26.200,M,,0000*57
$GPRMC,124826.400,A,5029.3130588,N,03025.1784549,E,000.00,063.73,220418,,,F*66
$GPVTG,063.73,T,,M,000.00,N,000.00,K,F*3B
$PSTI,030,124826.400,A,5029.3130588,N,03025.1784549,E,193.929,0.00,-0.00,0.01,220418,F,1.0,2.9*32
$GPGGA,124826.600,5029.3130588,N,03025.1784546,E,5,15,0.7,193.929,M,26.200,M,,0000*5A
$GPRMC,124826.600,A,5029.3130588,N,03025.1784546,E,000.00,063.73,220418,,,F*6B
$GPVTG,063.73,T,,M,000.00,N,000.00,K,F*3B
$PSTI,030,124826.600,A,5029.3130588,N,03025.1784546,E,193.929,-0.00,-0.00,0.00,220418,F,1.0,2.9*13
$GPGGA,124826.800,5029.3130589,N,03025.1784555,E,5,15,0.7,193.930,M,26.200,M,,0000*5F
$GPRMC,124826.800,A,5029.3130589,N,03025.1784555,E,000.00,063.73,220418,,,F*66
$GPVTG,063.73,T,,M,000.00,N,000.00,K,F*3B
$PSTI,030,124826.800,A,5029.3130589,N,03025.1784555,E,193.930,0.01,0.00,0.01,220418,F,1.0,2.9*16
$GPGGA,124827.000,5029.3130593,N,03025.1784557,E,5,15,0.7,193.931,M,26.200,M,,0000*5E
$GPRMC,124827.000,A,5029.3130593,N,03025.1784557,E,000.00,063.73,220418,,,F*66
$GPVTG,063.73,T,,M,000.00,N,000.00,K,F*3B
$PSTI,030,124827.000,A,5029.3130593,N,03025.1784557,E,193.931,0.00,0.01,0.01,220418,F,1.0,2.9*17
$PSTI,032,124827.000,220418,A,F,-5470.741,13837.971,-23.548,14880.154,338.43,,,,,*04
$GPGGA,124827.200,5029.3130583,N,03025.1784554,E,5,15,0.7,193.916,M,26.200,M,,0000*5B
$GPGLL,5029.3130583,N,03025.1784554,E,124827.200,A,F*5D
$GPGSA,A,3,12,06,25,19,29,32,24,02,14,,,,1.4,0.7,1.2*32
$GLGSA,A,3,74,82,73,80,84,83,,,,,,,1.4,0.7,1.2*2D
$GPRMC,124827.200,A,5029.3130583,N,03025.1784554,E,000.00,063.73,220418,,,F*66
$GPVTG,063.73,T,,M,000.00,N,000.00,K,F*3B
$GPZDA,124827.200,22,04,2018,00,00*51
$GPGST,124827.200,0.003,0.003,0.002,5.0,0.003,0.002,0.003*6A
$PSTI,030,124827.200,A,5029.3130583,N,03025.1784554,E,193.916,-0.00,0.01,0.00,220418,F,1.0,2.9*3E
$GPGGA,124827.400,5029.3130583,N,03025.1784555,E,5,15,0.7,193.917,M,26.200,M,,0000*5D
$GPRMC,124827.400,A,5029.3130583,N,03025.1784555,E,000.00,063.73,220418,,,F*61
$GPVTG,063.73,T,,M,000.00,N,000.00,K,F*3B
$PSTI,030,124827.400,A,5029.3130583,N,03025.1784555,E,193.917,0.00,-0.00,0.01,220418,F,1.0,2.9*38
$GPGGA,124827.600,5029.3130579,N,03025.1784552,E,5,15,0.7,193.917,M,26.200,M,,0000*5D
$GPRMC,124827.600,A,5029.3130579,N,03025.1784552,E,000.00,063.73,220418,,,F*61
$GPVTG,063.73,T,,M,000.00,N,000.00,K,F*3B
$PSTI,030,124827.600,A,5029.3130579,N,03025.1784552,E,193.917,-0.00,-0.01,-0.00,220418,F,1.0,2.9*38
$GPGGA,124827.800,5029.3130578,N,03025.1784553,E,5,15,0.7,193.918,M,26.200,M,,0000*5C
$GPRMC,124827.800,A,5029.3130578,N,03025.1784553,E,000.00,063.73,220418,,,F*6F
$GPVTG,063.73,T,,M,000.00,N,000.00,K,F*3B
$PSTI,030,124827.800,A,5029.3130578,N,03025.1784553,E,193.918,0.00,-0.00,0.01,220418,F,1.0,2.9*39
$GPGGA,124828.000,5029.3130577,N,03025.1784558,E,5,15,0.7,193.918,M,26.200,M,,0000*5F
$GPRMC,124828.000,A,5029.3130577,N,03025.1784558,E,000.00,063.73,220418,,,F*6C
$GPVTG,063.73,T,,M,000.00,N,000.00,K,F*3B
$PSTI,030,124828.000,A,5029.3130577,N,03025.1784558,E,193.918,0.01,-0.00,0.01,220418,F,1.0,2.9*3B
$PSTI,032,124828.000,220418,A,F,-5470.740,13837.969,-23.560,14880.152,338.43,,,,,*0F
$GPGGA,124828.200,5029.3130584,N,03025.1784565,E,5,15,0.7,193.925,M,26.200,M,,0000*51
$GPGLL,5029.3130584,N,03025.1784565,E,124828.200,A,F*57
$GPGSA,A,3,12,06,25,19,29,32,24,02,14,,,,1.4,0.7,1.2*32
$GLGSA,A,3,74,82,73,80,84,83,,,,,,,1.4,0.7,1.2*2D
$GPRMC,124828.200,A,5029.3130584,N,03025.1784565,E,000.00,063.73,220418,,,F*6C
$GPVTG,063.73,T,,M,000.00,N,000.00,K,F*3B
$GPZDA,124828.200,22,04,2018,00,00*5E
$GPGST,124828.200,0.004,0.003,0.002,5.0,0.003,0.002,0.004*65
$PSTI,030,124828.200,A,5029.3130584,N,03025.1784565,E,193.925,0.01,0.00,0.00,220418,F,2.0,2.9*1A
$GPGGA,124828.400,5029.3130586,N,03025.1784557,E,5,15,0.7,193.924,M,26.200,M,,0000*55
$GPRMC,124828.400,A,5029.3130586,N,03025.1784557,E,000.00,063.73,220418,,,F*69
$GPVTG,063.73,T,,M,000.00,N,000.00,K,F*3B
$PSTI,030,124828.400,A,5029.3130586,N,03025.1784557,E,193.924,-0.01,0.00,-0.00,220418,F,2.0,2.9*1E
$GPGGA,124828.600,5029.3130582,N,03025.1784563,E,5,15,0.7,193.925,M,26.200,M,,0000*55
$GPRMC,124828.600,A,5029.3130582,N,03025.1784563,E,000.00,063.73,220418,,,F*68
$GPVTG,063.73,T,,M,000.00,N,000.00,K,F*3B
$PSTI,030,124828.600,A,5029.3130582,N,03025.1784563,E,193.925,0.01,-0.01,0.01,220418,F,2.0,2.9*33
$GPGGA,124828.800,5029.3130586,N,03025.1784562,E,5,15,0.7,193.925,M,26.200,M,,0000*5E
$GPRMC,124828.800,A,5029.3130586,N,03025.1784562,E,000.00,063.73,220418,,,F*63
$GPVTG,063.73,T,,M,000.00,N,000.00,K,F*3B
$PSTI,030,124828.800,A,5029.3130586,N,03025.1784562,E,193.925,-0.00,0.01,-0.00,220418,F,2.0,2.9*15
$GPGGA,124829.000,5029.3130585,N,03025.1784569,E,5,15,0.7,193.925,M,26.200,M,,0000*5F
$GPRMC,124829.000,A,5029.3130585,N,03025.1784569,E,000.00,063.73,220418,,,F*62
$GPVTG,063.73,T,,M,000.00,N,000.00,K,F*3B
$PSTI,030,124829.000,A,5029.3130585,N,03025.1784569,E,193.925,0.01,-0.00,-0.00,220418,F,2.0,2.9*14
$PSTI,032,124829.000,220418,A,F,-5470.740,13837.969,-23.551,14880.152,338.43,,,,,*0C
$GPGGA,124829.200,5029.3130597,N,03025.1784558,E,5,15,0.7,193.918,M,26.200,M,,0000*52
$GPGLL,5029.3130597,N,03025.1784558,E,124829.200,A,F*5A
$GPGSA,A,3,12,06,25,19,29,32,24,02,14,,,,1.4,0.7,1.2*32
$GLGSA,A,3,74,82,73,80,84,83,,,,,,,1.4,0.7,1.2*2D
$GPGSV,4,1,14,12,83,011,51,24,45,177,46,02,45,127,47,25,44,288,49*7D
$GPGSV,4,2,14,06,40,071,48,40,28,149,40,49,27,212,39,19,25,054,44*79
$GPGSV,4,3,14,32,22,287,43,14,18,315,43,29,18,229,42,17,10,053,43*77
$GPGSV,4,4,14,31,04,320,,03,02,008,38*79
$GLGSV,3,1,09,73,85,359,49,83,77,150,48,82,39,039,48,80,34,131,44*6C
$GLGSV,3,2,09,74,31,316,46,84,23,203,38,65,12,335,43,72,05,293,38*6C
$GLGSV,3,3,09,66,03,029,40*50
$GPRMC,124829.200,A,5029.3130597,N,03025.1784558,E,000.00,063.73,220418,,,F*61
$GPVTG,063.73,T,,M,000.00,N,000.00,K,F*3B
$GPZDA,124829.200,22,04,2018,00,00*5F
$GPGST,124829.200,0.003,0.003,0.002,5.0,0.003,0.002,0.003*64
$PSTI,030,124829.200,A,5029.3130597,N,03025.1784558,E,193.918,-0.00,-0.01,-0.00,220418,F,3.0,2.9*35
$GPGGA,124829.400,5029.3130597,N,03025.1784558,E,5,15,0.7,193.918,M,26.200,M,,0000*54
$GPRMC,124829.400,A,5029.3130597,N,03025.1784558,E,000.00,063.73,220418,,,F*67
$GPVTG,063.73,T,,M,000.00,N,000.00,K,F*3B
$PSTI,030,124829.400,A,5029.3130597,N,03025.1784558,E,193.918,-0.00,-0.00,-0.00,220418,F,3.0,2.9*32
$GPGGA,124829.600,5029.3130601,N,03025.1784559,E,5,15,0.7,193.918,M,26.200,M,,0000*5B
$GPRMC,124829.600,A,5029.3130601,N,03025.1784559,E,000.00,063.73,220418,,,F*68
$GPVTG,063.73,T,,M,000.00,N,000.00,K,F*3B
$PSTI,030,124829.600,A,5029.3130601,N,03025.1784559,E,193.918,0.00,0.01,-0.00,220418,F,3.0,2.9*3C
$GPGGA,124829.800,5029.3130601,N,03025.1784561,E,5,15,0.7,193.919,M,26.200,M,,0000*5F
$GPRMC,124829.800,A,5029.3130601,N,03025.1784561,E,000.00,063.73,220418,,,F*6D
$GPVTG,063.73,T,,M,000.00,N,000.00,K,F*3B
$PSTI,030,124829.800,A,5029.3130601,N,03025.1784561,E,193.919,0.00,0.00,0.01,220418,F,3.0,2.9*15
$GPGGA,124830.000,5029.3130603,N,03025.1784568,E,5,15,0.7,193.920,M,26.200,M,,0000*5E
$GPRMC,124830.000,A,5029.3130603,N,03025.1784568,E,000.00,063.73,220418,,,F*66
$GPVTG,063.73,T,,M,000.00,N,000.00,K,F*3B
$PSTI,030,124830.000,A,5029.3130603,N,03025.1784568,E,193.920,0.01,0.00,0.01,220418,F,3.0,2.9*15
$PSTI,032,124830.000,220418,A,F,-5470.739,13837.972,-23.557,14880.155,338.43,,,,,*01
$GPGGA,124830.200,5029.3130597,N,03025.1784571,E,5,15,0.7,193.918,M,26.200,M,,0000*51
$GPGLL,5029.3130597,N,03025.1784571,E,124830.200,A,F*59
$GPGSA,A,3,12,06,25,19,29,32,24,02,14,,,,1.4,0.7,1.2*32
$GLGSA,A,3,74,82,73,80,84,83,,,,,,,1.4,0.7,1.2*2D
$GPRMC,124830.200,A,5029.3130597,N,03025.1784571,E,000.00,063.73,220418,,,F*62
$GPVTG,063.73,T,,M,000.00,N,000.00,K,F*3B
$GPZDA,124830.200,22,04,2018,00,00*57
$GPGST,124830.200,0.004,0.003,0.002,5.0,0.003,0.002,0.004*6C
$PSTI,030,124830.200,A,5029.3130597,N,03025.1784571,E,193.918,0.00,0.00,0.01,220418,F,4.0,2.9*1C
$GPGGA,124830.400,5029.3130596,N,03025.1784567,E,5,15,0.7,193.919,M,26.200,M,,0000*50
$GPRMC,124830.400,A,5029.3130596,N,03025.1784567,E,000.00,063.73,220418,,,F*62
$GPVTG,063.73,T,,M,000.00,N,000.00,K,F*3B
$PSTI,030,124830.400,A,5029.3130596,N,03025.1784567,E,193.919,-0.00,-0.00,0.01,220418,F,4.0,2.9*1D
$GPGGA,124830.600,5029.3130596,N,03025.1784568,E,5,15,0.7,193.920,M,26.200,M,,0000*57
$GPRMC,124830.600,A,5029.3130596,N,03025.1784568,E,000.00,063.73,220418,,,F*6F
$GPVTG,063.73,T,,M,000.00,N,000.00,K,F*3B
$PSTI,030,124830.600,A,5029.3130596,N,03025.1784568,E,193.920,0.00,-0.00,0.01,220418,F,4.0,2.9*37
$GPGGA,124830.800,5029.3130597,N,03025.1784565,E,5,15,0.7,193.921,M,26.200,M,,0000*54
$GPRMC,124830.800,A,5029.3130597,N,03025.1784565,E,000.00,063.73,220418,,,F*6D
$GPVTG,063.73,T,,M,000.00,N,000.00,K,F*3B
$PSTI,030,124830.800,A,5029.3130597,N,03025.1784565,E,193.921,-0.00,0.00,0.01,220418,F,4.0,2.9*34
$GPGGA,124831.000,5029.3130596,N,03025.1784566,E,5,15,0.7,193.920,M,26.200,M,,0000*5E
$GPRMC,124831.000,A,5029.3130596,N,03025.1784566,E,000.00,063.73,220418,,,F*66
$GPVTG,063.73,T,,M,000.00,N,000.00,K,F*3B
$PSTI,030,124831.000,A,5029.3130596,N,03025.1784566,E,193.920,0.00,-0.00,-0.01,220418,F,4.0,2.9*13
$PSTI,032,124831.000,220418,A,F,-5470.738,13837.971,-23.558,14880.153,338.43,,,,,*0B
$GPGGA,124831.200,5029.3130584,N,03025.1784549,E,5,15,0.7,193.918,M,26.200,M,,0000*59
$GPGLL,5029.3130584,N,03025.1784549,E,124831.200,A,F*51
$GPGSA,A,3,12,06,25,19,29,32,24,02,14,,,,1.4,0.7,1.2*32
$GLGSA,A,3,74,82,73,80,84,83,,,,,,,1.4,0.7,1.2*2D
$GPRMC,124831.200,A,5029.3130584,N,03025.1784549,E,000.00,063.73,220418,,,F*6A
$GPVTG,063.73,T,,M,000.00,N,000.00,K,F*3B
$GPZDA,124831.200,22,04,2018,00,00*56
$GPGST,124831.200,0.004,0.003,0.002,5.0,0.003,0.002,0.004*6D
$PSTI,030,124831.200,A,5029.3130584,N,03025.1784549,E,193.918,0.00,0.00,0.01,220418,F,1.0,2.9*11
$GPGGA,124831.400,5029.3130583,N,03025.1784547,E,5,15,0.7,193.919,M,26.200,M,,0000*57
$GPRMC,124831.400,A,5029.3130583,N,03025.1784547,E,000.00,063.73,220418,,,F*65
$GPVTG,063.73,T,,M,000.00,N,000.00,K,F*3B
$PSTI,030,124831.400,A,5029.3130583,N,03025.1784547,E,193.919,-0.00,-0.00,0.01,220418,F,1.0,2.9*1F
$GPGGA,124831.600,5029.3130583,N,03025.1784552,E,5,15,0.7,193.919,M,26.200,M,,0000*51
$GPRMC,124831.600,A,5029.3130583,N,03025.1784552,E,000.00,063.73,220418,,,F*63
$GPVTG,063.73,T,,M,000.00,N,000.00,K,F*3B
$PSTI,030,124831.600,A,5029.3130583,N,03025.1784552,E,193.919,0.01,0.00,0.01,220418,F,1.0,2.9*18
$GPGGA,124831.800,5029.3130586,N,03025.1784550,E,5,15,0.7,193.920,M,26.200,M,,0000*52
$GPRMC,124831.800,A,5029.3130586,N,03025.1784550,E,000.00,063.73,220418,,,F*6A
$GPVTG,063.73,T,,M,000.00,N,000.00,K,F*3B
$PSTI,030,124831.800,A,5029.3130586,N,03025.1784550,E,193.920,-0.00,0.00,0.01,220418,F,1.0,2.9*37
$GPGGA,124832.000,5029.3130586,N,03025.1784549,E,5,15,0.7,193.921,M,26.200,M,,0000*50
$GPRMC,124832.000,A,5029.3130586,N,03025.1784549,E,000.00,063.73,220418,,,F*69
$GPVTG,063.73,T,,M,000.00,N,000.00,K,F*3B
$PSTI,030,124832.000,A,5029.3130586,N,03025.1784549,E,193.921,-0.00,-0.00,0.01,220418,F,1.0,2.9*18
$PSTI,032,124832.000,220418,A,F,-5470.741,13837.969,-23.559,14880.152,338.43,,,,,*0F
$GPGGA,124832.200,5029.3130592,N,03025.1784557,E,5,15,0.7,193.915,M,26.200,M,,0000*5F
$GPGLL,5029.3130592,N,03025.1784557,E,124832.200,A,F*5A
$GPGSA,A,3,12,06,25,19,29,32,24,02,14,,,,1.4,0.7,1.2*32
$GLGSA,A,3,74,82,73,80,84,83,,,,,,,1.4,0.7,1.2*2D
$GPGSV,4,1,14,12,83,011,51,24,45,177,46,02,45,127,47,25,44,288,49*7D
$GPGSV,4,2,14,06,40,071,48,40,28,149,40,49,27,212,39,19,25,054,44*79
$GPGSV,4,3,14,32,22,287,43,14,18,315,43,29,18,229,42,17,10,053,43*77
$GPGSV,4,4,14,31,04,320,,03,02,008,38*79
$GLGSV,3,1,09,73,85,359,49,83,77,150,48,82,39,039,48,80,34,131,44*6C
$GLGSV,3,2,09,74,31,316,46,84,23,203,38,65,12,335,43,72,05,293,38*6C
$GLGSV,3,3,09,66,03,029,41*51
$GPRMC,124832.200,A,5029.3130592,N,03025.1784557,E,000.00,063.73,220418,,,F*61
$GPVTG,063.73,T,,M,000.00,N,000.00,K,F*3B
$GPZDA,124832.200,22,04,2018,00,00*55
$GPGST,124832.200,0.002,0.002,0.002,5.0,0.002,0.002,0.002*6E
$PSTI,030,124832.200,A,5029.3130592,N,03025.1784557,E,193.915,-0.01,-0.00,0.00,220418,F,1.0,2.9*17
$GPGGA,124832.400,5029.3130594,N,03025.1784558,E,5,15,0.7,193.917,M,26.200,M,,0000*52
$GPRMC,124832.400,A,5029.3130594,N,03025.1784558,E,000.00,063.73,220418,,,F*6E
$GPVTG,063.73,T,,M,000.00,N,000.00,K,F*3B
$PSTI,030,124832.400,A,5029.3130594,N,03025.1784558,E,193.917,0.00,0.00,0.02,220418,F,1.0,2.9*19
,,0000*54
$GPRMC,124935.400,A,5029.3167765,N,03025.1794004,E,000.00,063.73,220418,,,D*69
$GPVTG,063.73,T,,M,000.00,N,000.00,K,D*39
$PSTI,030,124935.400,A,5029.3167765,N,03025.1794004,E,187.608,0.00,0.00,0.01,220418,D,0.0,0.0*13
$GPGGA,124935.600,5029.3167779,N,03025.1793962,E,2,15,0.7,187.648,M,26.200,M,,0000*51
$GPRMC,124935.600,A,5029.3167779,N,03025.1793962,E,000.00,063.73,220418,,,D*68
$GPVTG,063.73,T,,M,000.00,N,000.00,K,D*39
$PSTI,030,124935.600,A,5029.3167779,N,03025.1793962,E,187.648,0.00,0.00,0.01,220418,D,0.0,0.0*16
$GPGGA,124935.800,5029.3167778,N,03025.1793897,E,2,15,0.7,187.687,M,26.200,M,,0000*56
$GPRMC,124935.800,A,5029.3167778,N,03025.1793897,E,000.00,063.73,220418,,,D*6C
$GPVTG,063.73,T,,M,000.00,N,000.00,K,D*39
$PSTI,030,124935.800,A,5029.3167778,N,03025.1793897,E,187.687,0.00,-0.00,0.01,220418,D,0.0,0.0*3C
$GPGGA,124936.000,5029.3167809,N,03025.1793832,E,2,15,0.7,187.725,M,26.200,M,,0000*52
$GPRMC,124936.000,A,5029.3167809,N,03025.1793832,E,000.00,063.73,220418,,,D*61
$GPVTG,063.73,T,,M,000.00,N,000.00,K,D*39
$PSTI,030,124936.000,A,5029.3167809,N,03025.1793832,E,187.725,0.00,0.01,0.01,220418,D,0.0,0.0*14
$PSTI,032,124936.000,220418,V,,,,,,,,,,,*4D
$GPGGA,124936.200,5029.3167821,N,03025.1793790,E,2,15,0.7,187.762,M,26.200,M,,0000*5E
$GPGLL,5029.3167821,N,03025.1793790,E,124936.200,A,D*55
$GPGSA,A,3,12,06,25,19,29,32,24,02,14,,,,1.4,0.7,1.2*32
$GLGSA,A,3,74,82,73,80,84,83,,,,,,,1.4,0.7,1.2*2D
$GPRMC,124936.200,A,5029.3167821,N,03025.1793790,E,000.00,063.73,220418,,,D*6E
$GPVTG,063.73,T,,M,000.00,N,000.00,K,D*39
$GPZDA,124936.200,22,04,2018,00,00*50
$GPGST,124936.200,0.728,0.375,0.355,16.4,0.373,0.356,0.876*5C
$PSTI,030,124936.200,A,5029.3167821,N,03025.1793790,E,187.762,0.00,0.00,0.01,220418,D,0.0,0.0*19
$GPGGA,124936.400,5029.3167804,N,03025.1793737,E,2,15,0.7,187.804,M,26.200,M,,0000*5D
$GPRMC,124936.400,A,5029.3167804,N,03025.1793737,E,000.00,063.73,220418,,,D*62
$GPVTG,063.73,T,,M,000.00,N,000.00,K,D*39
$PSTI,030,124936.400,A,5029.3167804,N,03025.1793737,E,187.804,-0.01,0.01,0.01,220418,D,0.0,0.0*37
$GPGGA,124936.600,5029.3167803,N,03025.1793638,E,2,15,0.7,187.843,M,26.200,M,,0000*55
$GPRMC,124936.600,A,5029.3167803,N,03025.1793638,E,000.00,063.73,220418,,,D*69
$GPVTG,063.73,T,,M,000.00,N,000.00,K,D*39
$PSTI,030,124936.600,A,5029.3167803,N,03025.1793638,E,187.843,0.00,-0.00,0.02,220418,D,0.0,0.0*3C
$GPGGA,124936.800,5029.3167838,N,03025.1793534,E,2,15,0.7,187.884,M,26.200,M,,0000*57
$GPRMC,124936.800,A,5029.3167838,N,03025.1793534,E,000.00,063.73,220418,,,D*60
$GPVTG,063.73,T,,M,000.00,N,000.00,K,D*39
$PSTI,030,124936.800,A,5029.3167838,N,03025.1793534,E,187.884,0.01,0.00,0.01,220418,D,0.0,0.0*11
$GPGGA,124937.000,5029.3167889,N,03025.1793440,E,2,15,0.7,187.925,M,26.200,M,,0000*5C
$GPRMC,124937.000,A,5029.3167889,N,03025.1793440,E,000.00,063.73,220418,,,D*61
$GPVTG,063.73,T,,M,000.00,N,000.00,K,D*39
$PSTI,030,124937.000,A,5029.3167889,N,03025.1793440,E,187.925,0.00,0.00,0.00,220418,D,0.0,0.0*1A
$PSTI,032,124937.000,220418,V,,,,,,,,,,,*4C
$GPGGA,124937.200,5029.3167912,N,03025.1793365,E,2,15,0.7,187.961,M,26.200,M,,0000*5D
$GPGLL,5029.3167912,N,03025.1793365,E,124937.200,A,D*5B
$GPGSA,A,3,12,06,25,19,29,32,24,02,14,,,,1.4,0.7,1.2*32
$GLGSA,A,3,74,82,73,80,84,83,,,,,,,1.4,0.7,1.2*2D
$GPRMC,124937.200,A,5029.3167912,N,03025.1793365,E,000.00,063.73,220418,,,D*60
$GPVTG,063.73,T,,M,000.00,N,000.00,K,D*39
$GPZDA,124937.200,22,04,2018,00,00*51
$GPGST,124937.200,0.703,0.362,0.343,16.3,0.361,0.344,0.847*50
$PSTI,030,124937.200,A,5029.3167912,N,03025.1793365,E,187.961,-0.00,-0.00,0.02,220418,D,0.0,0.0*19
$GPGGA,124937.400,5029.3167956,N,03025.1793246,E,2,15,0.7,187.994,M,26.200,M,,0000*51
$GPRMC,124937.400,A,5029.3167956,N,03025.1793246,E,000.00,063.73,220418,,,D*66
$GPVTG,063.73,T,,M,000.00,N,000.00,K,D*39
$PSTI,030,124937.400,A,5029.3167956,N,03025.1793246,E,187.994,-0.00,0.01,0.01,220418,D,0.0,0.0*3A
$GPGGA,124937.600,5029.3168001,N,03025.1793095,E,2,15,0.7,188.023,M,26.200,M,,0000*51
$GPRMC,124937.600,A,5029.3168001,N,03025.1793095,E,000.00,063.73,220418,,,D*6C
$GPVTG,063.73,T,,M,000.00,N,000.00,K,D*39
$PSTI,030,124937.600,A,5029.3168001,N,03025.1793095,E,188.023,-0.00,-0.00,0.01,220418,D,0.0,0.0*16
$GPGGA,124937.800,5029.3168065,N,03025.1792987,E,2,15,0.7,188.055,M,26.200,M,,0000*57
$GPRMC,124937.800,A,5029.3168065,N,03025.1792987,E,000.00,063.73,220418,,,D*6B
$GPVTG,063.73,T,,M,000.00,N,000.00,K,D*39
$PSTI,030,124937.800,A,5029.3168065,N,03025.1792987,E,188.055,-0.00,-0.00,0.01,220418,D,0.0,0.0*10
$GPGGA,124938.000,5029.3168132,N,03025.1792894,E,2,15,0.7,188.086,M,26.200,M,,0000*5E
$GPRMC,124938.000,A,5029.3168132,N,03025.1792894,E,000.00,063.73,220418,,,D*6C
$GPVTG,063.73,T,,M,000.00,N,000.00,K,D*39
$PSTI,030,124938.000,A,5029.3168132,N,03025.1792894,E,188.086,-0.00,0.00,0.01,220418,D,0.0,0.0*34
$PSTI,032,124938.000,220418,V,,,,,,,,,,,*43
$GPGGA,124938.200,5029.3168210,N,03025.1792814,E,2,15,0.7,188.119,M,26.200,M,,0000*50
$GPGLL,5029.3168210,N,03025.1792814,E,124938.200,A,D*5E
$GPGSA,A,3,12,06,25,19,29,32,24,02,14,,,,1.4,0.7,1.2*32
$GLGSA,A,3,74,82,73,80,84,83,,,,,,,1.4,0.7,1.2*2D
$GPGSV,4,1,14,12,83,015,52,02,45,127,48,25,45,289,49,24,44,177,49*7B
$GPGSV,4,2,14,06,40,070,47,40,28,149,40,49,27,212,39,19,25,054,43*70
$GPGSV,4,3,14,32,22,286,42,29,18,229,42,14,18,315,43,17,09,054,43*78
$GPGSV,4,4,14,31,04,320,,03,02,008,39*78
$GLGSV,3,1,09,73,86,009,50,83,78,148,48,82,38,039,47,80,33,131,43*69
$GLGSV,3,2,09,74,32,317,46,84,24,203,40,65,12,335,44,72,04,292,36*6F
$GLGSV,3,3,09,66,03,029,39*5E
$GPRMC,124938.200,A,5029.3168210,N,03025.1792814,E,000.00,063.73,220418,,,D*65
$GPVTG,063.73,T,,M,000.00,N,000.00,K,D*39
$GPZDA,124938.200,22,04,2018,00,00*5E
$GPGST,124938.200,0.674,0.347,0.328,16.2,0.346,0.330,0.811*50
$PSTI,030,124938.200,A,5029.3168210,N,03025.1792814,E,188.119,0.00,0.01,0.02,220418,D,0.0,0.0*15
$GPGGA,124938.400,5029.3168300,N,03025.1792748,E,2,15,0.7,188.153,M,26.200,M,,0000*5E
$GPRMC,124938.400,A,5029.3168300,N,03025.1792748,E,000.00,063.73,220418,,,D*65
$GPVTG,063.73,T,,M,000.00,N,000.00,K,D*39
$PSTI,030,124938.400,A,5029.3168300,N,03025.1792748,E,188.153,0.00,0.00,0.01,220418,D,0.0,0.0*19
$GPGGA,124938.600,5029.3168399,N,03025.1792683,E,2,15,0.7,188.181,M,26.200,M,,0000*55
$GPRMC,124938.600,A,5029.3168399,N,03025.1792683,E,000.00,063.73,220418,,,D*61
$GPVTG,063.73,T,,M,000.00,N,000.00,K,D*39
$PSTI,030,124938.600,A,5029.3168399,N,03025.1792683,E,188.181,-0.00,0.00,0.01,220418,D,0.0,0.0*3F
$GPGGA,124938.800,5029.3168491,N,03025.1792643,E,2,15,0.7,188.212,M,26.200,M,,0000*51
$GPRMC,124938.800,A,5029.3168491,N,03025.1792643,E,000.00,063.73,220418,,,D*6C
$GPVTG,063.73,T,,M,000.00,N,000.00,K,D*39
$PSTI,030,124938.800,A,5029.3168491,N,03025.1792643,E,188.212,0.01,0.00,0.01,220418,D,0.0,0.0*17
$GPGGA,124939.000,5029.3168608,N,03025.1792659,E,2,15,0.7,188.245,M,26.200,M,,0000*53
$GPRMC,124939.000,A,5029.3168608,N,03025.1792659,E,000.00,063.73,220418,,,D*6C
$GPVTG,063.73,T,,M,000.00,N,000.00,K,D*39
$PSTI,030,124939.000,A,5029.3168608,N,03025.1792659,E,188.245,-0.00,0.00,0.02,220418,D,0.0,0.0*3A
$PSTI,032,124939.000,220418,V,,,,,,,,,,,*42
,E,193.913,-0.00,-0.00,0.00,220418,R,4.0,10.0*3C
$GPGGA,124943.400,5029.3130703,N,03025.1784556,E,4,15,0.7,193.914,M,26.200,M,,0000*55
$GPRMC,124943.400,A,5029.3130703,N,03025.1784556,E,000.00,063.73,220418,,,R*7F
$GPVTG,063.73,T,,M,000.00,N,000.00,K,R*2F
$PSTI,030,124943.400,A,5029.3130703,N,03025.1784556,E,193.914,0.01,-0.01,0.01,220418,R,4.0,10.0*1A
$GPGGA,124943.600,5029.3130708,N,03025.1784555,E,4,15,0.7,193.916,M,26.200,M,,0000*5D
$GPRMC,124943.600,A,5029.3130708,N,03025.1784555,E,000.00,063.73,220418,,,R*75
$GPVTG,063.73,T,,M,000.00,N,000.00,K,R*2F
$PSTI,030,124943.600,A,5029.3130708,N,03025.1784555,E,193.916,-0.00,0.01,0.01,220418,R,4.0,10.0*13
$GPGGA,124943.800,5029.3130704,N,03025.1784552,E,4,15,0.7,193.917,M,26.200,M,,0000*59
$GPRMC,124943.800,A,5029.3130704,N,03025.1784552,E,000.00,063.73,220418,,,R*70
$GPVTG,063.73,T,,M,000.00,N,000.00,K,R*2F
$PSTI,030,124943.800,A,5029.3130704,N,03025.1784552,E,193.917,-0.00,-0.01,0.01,220418,R,4.0,10.0*3A
$GPGGA,124944.000,5029.3130706,N,03025.1784542,E,4,15,0.7,193.918,M,26.200,M,,0000*5A
$GPRMC,124944.000,A,5029.3130706,N,03025.1784542,E,000.00,063.73,220418,,,R*7C
$GPVTG,063.73,T,,M,000.00,N,000.00,K,R*2F
$PSTI,030,124944.000,A,5029.3130706,N,03025.1784542,E,193.918,-0.01,0.00,0.01,220418,R,4.0,10.0*14
$PSTI,032,124944.000,220418,A,R,-5470.741,13837.991,-23.563,14880.174,338.43,,,,,*11
$GPGGA,124944.200,5029.3130701,N,03025.1784536,E,4,15,0.7,193.910,M,26.200,M,,0000*54
$GPGLL,5029.3130701,N,03025.1784536,E,124944.200,A,R*41
$GPGSA,A,3,12,06,25,19,29,32,24,02,14,,,,1.4,0.7,1.2*32
$GLGSA,A,3,74,82,73,80,84,83,,,,,,,1.4,0.7,1.2*2D
$GPGSV,4,1,14,12,83,015,52,02,45,127,48,25,45,289,49,24,44,177,49*7B
$GPGSV,4,2,14,06,40,070,47,40,28,149,40,49,27,212,39,19,25,054,43*70
$GPGSV,4,3,14,32,22,286,42,29,18,229,43,14,18,315,43,17,09,054,41*7B
$GPGSV,4,4,14,31,04,320,,03,02,008,40*76
$GLGSV,3,1,09,73,86,009,49,83,78,146,48,82,38,039,47,80,33,132,43*6C
$GLGSV,3,2,09,74,32,317,46,84,24,203,40,65,12,335,44,72,04,292,36*6F
$GLGSV,3,3,09,66,03,029,39*5E
$GPRMC,124944.200,A,5029.3130701,N,03025.1784536,E,000.00,063.73,220418,,,R*7A
$GPVTG,063.73,T,,M,000.00,N,000.00,K,R*2F
$GPZDA,124944.200,22,04,2018,00,00*55
$GPGST,124944.200,0.005,0.003,0.003,359.3,0.003,0.003,0.004*66
$PSTI,030,124944.200,A,5029.3130701,N,03025.1784536,E,193.910,0.00,-0.01,0.01,220418,R,5.0,10.0*1B
$GPGGA,124944.400,5029.3130704,N,03025.1784535,E,4,15,0.7,193.911,M,26.200,M,,0000*55
$GPRMC,124944.400,A,5029.3130704,N,03025.1784535,E,000.00,063.73,220418,,,R*7A
$GPVTG,063.73,T,,M,000.00,N,000.00,K,R*2F
$PSTI,030,124944.400,A,5029.3130704,N,03025.1784535,E,193.911,-0.00,0.00,0.01,220418,R,5.0,10.0*1B
$GPGGA,124944.600,5029.3130702,N,03025.1784529,E,4,15,0.7,193.912,M,26.200,M,,0000*5F
$GPRMC,124944.600,A,5029.3130702,N,03025.1784529,E,000.00,063.73,220418,,,R*73
$GPVTG,063.73,T,,M,000.00,N,000.00,K,R*2F
$PSTI,030,124944.600,A,5029.3130702,N,03025.1784529,E,193.912,-0.01,-0.00,0.01,220418,R,5.0,10.0*3D
$GPGGA,124944.800,5029.3130704,N,03025.1784528,E,4,15,0.7,193.913,M,26.200,M,,0000*57
$GPRMC,124944.800,A,5029.3130704,N,03025.1784528,E,000.00,063.73,220418,,,R*7A
$GPVTG,063.73,T,,M,000.00,N,000.00,K,R*2F
