00.065,M,26.200,M,,0000*57
$GPRMC,142511.400,A,5029.3143426,N,03025.1808481,E,000.00,000.00,220418,,,A*66
$GPVTG,000.00,T,,M,000.00,N,000.00,K,A*3D
$PSTI,030,142511.400,A,5029.3143426,N,03025.1808481,E,200.065,0.00,-0.00,0.01,220418,A,0.0,0.0*31
$GPGGA,142511.600,5029.3143418,N,03025.1808536,E,1,11,0.9,200.018,M,26.200,M,,0000*5F
$GPRMC,142511.600,A,5029.3143418,N,03025.1808536,E,000.00,000.00,220418,,,A*64
$GPVTG,000.00,T,,M,000.00,N,000.00,K,A*3D
$PSTI,030,142511.600,A,5029.3143418,N,03025.1808536,E,200.018,0.00,0.00,0.00,220418,A,0.0,0.0*15
$GPGGA,142511.800,5029.3143393,N,03025.1808599,E,1,11,0.9,199.969,M,26.200,M,,0000*5C
$GPRMC,142511.800,A,5029.3143393,N,03025.1808599,E,000.00,000.00,220418,,,A*6B
$GPVTG,000.00,T,,M,000.00,N,000.00,K,A*3D
$PSTI,030,142511.800,A,5029.3143393,N,03025.1808599,E,199.969,0.00,-0.00,0.01,220418,A,0.0,0.0*3A
$GPGGA,142512.000,5029.3143413,N,03025.1808686,E,1,11,0.9,199.926,M,26.200,M,,0000*5E
$GPRMC,142512.000,A,5029.3143413,N,03025.1808686,E,000.00,000.00,220418,,,A*62
$GPVTG,000.00,T,,M,000.00,N,000.00,K,A*3D
$PSTI,030,142512.000,A,5029.3143413,N,03025.1808686,E,199.926,-0.00,-0.01,0.00,220418,A,0.0,0.0*15
$PSTI,032,142512.000,220418,V,,,,,,,,,,,*47
$GPGGA,142512.200,5029.3143485,N,03025.1808739,E,1,11,0.9,199.874,M,26.200,M,,0000*50
$GPGLL,5029.3143485,N,03025.1808739,E,142512.200,A,A*50
$GPGSA,A,3,25,29,02,12,31,,,,,,,,1.8,0.9,1.5*39
$GLGSA,A,3,74,73,75,84,83,85,,,,,,,1.8,0.9,1.5*25
$GPGSV,4,1,13,25,88,241,52,29,59,257,50,02,47,065,46,12,46,118,51*76
$GPGSV,4,2,13,31,37,300,49,05,14,113,43,04,14,300,40,06,13,040,41*72
$GPGSV,4,3,13,14,08,276,41,193,08,058,40,24,02,174,39,26,01,301,40*42
$GPGSV,4,4,13,21,00,207,*4D
$GLGSV,3,1,09,74,77,268,48,84,75,249,43,83,42,042,45,73,38,162,48*67
$GLGSV,3,2,09,75,26,323,47,85,20,231,42,67,13,036,43,66,07,347,37*61
$GLGSV,3,3,09,68,01,084,*5F
$GPRMC,142512.200,A,5029.3143485,N,03025.1808739,E,000.00,000.00,220418,,,A*6A
$GPVTG,000.00,T,,M,000.00,N,000.00,K,A*3D
$GPZDA,142512.200,22,04,2018,00,00*5A
$GPGST,142512.200,0.720,0.496,0.455,8.9,0.495,0.456,1.077*61
$PSTI,030,142512.200,A,5029.3143485,N,03025.1808739,E,199.874,0.00,0.01,0.00,220418,A,0.0,0.0*1B
$GPGGA,142512.400,5029.3143574,N,03025.1808792,E,1,11,0.9,199.829,M,26.200,M,,0000*50
$GPRMC,142512.400,A,5029.3143574,N,03025.1808792,E,000.00,000.00,220418,,,A*62
$GPVTG,000.00,T,,M,000.00,N,000.00,K,A*3D
$PSTI,030,142512.400,A,5029.3143574,N,03025.1808792,E,199.829,-0.00,0.00,0.01,220418,A,0.0,0.0*36
$GPGGA,142512.600,5029.3143684,N,03025.1808869,E,1,11,0.9,199.780,M,26.200,M,,0000*59
$GPRMC,142512.600,A,5029.3143684,N,03025.1808869,E,000.00,000.00,220418,,,A*67
$GPVTG,000.00,T,,M,000.00,N,000.00,K,A*3D
$PSTI,030,142512.600,A,5029.3143684,N,03025.1808869,E,199.780,0.01,-0.00,0.01,220418,A,0.0,0.0*3E
$GPGGA,142512.800,5029.3143802,N,03025.1808935,E,1,11,0.9,199.736,M,26.200,M,,0000*52
$GPRMC,142512.800,A,5029.3143802,N,03025.1808935,E,000.00,000.00,220418,,,A*61
$GPVTG,000.00,T,,M,000.00,N,000.00,K,A*3D
$PSTI,030,142512.800,A,5029.3143802,N,03025.1808935,E,199.736,-0.00,0.00,0.01,220418,A,0.0,0.0*34
$GPGGA,142513.000,5029.3143960,N,03025.1809024,E,1,11,0.9,199.689,M,26.200,M,,0000*53
$GPRMC,142513.000,A,5029.3143960,N,03025.1809024,E,000.00,000.00,220418,,,A*65
$GPVTG,000.00,T,,M,000.00,N,000.00,K,A*3D
$PSTI,030,142513.000,A,5029.3143960,N,03025.1809024,E,199.689,-0.00,0.00,0.00,220418,A,0.0,0.0*34
$PSTI,032,142513.000,220418,V,,,,,,,,,,,*46
$GPGGA,142513.200,5029.3144134,N,03025.1809096,E,1,11,0.9,199.646,M,26.200,M,,0000*55
$GPGLL,5029.3144134,N,03025.1809096,E,142513.200,A,A*5A
$GPGSA,A,3,25,29,02,12,31,,,,,,,,1.8,0.9,1.5*39
$GLGSA,A,3,74,73,75,84,83,85,,,,,,,1.8,0.9,1.5*25
$GPRMC,142513.200,A,5029.3144134,N,03025.1809096,E,000.00,000.00,220418,,,A*60
$GPVTG,000.00,T,,M,000.00,N,000.00,K,A*3D
$GPZDA,142513.200,22,04,2018,00,00*5B
$GPGST,142513.200,0.746,0.514,0.471,8.9,0.513,0.472,1.115*61
$PSTI,030,142513.200,A,5029.3144134,N,03025.1809096,E,199.646,0.00,0.00,-0.00,220418,A,0.0,0.0*32
$GPGGA,142513.400,5029.3144293,N,03025.1809146,E,1,11,0.9,199.600,M,26.200,M,,0000*53
$GPRMC,142513.400,A,5029.3144293,N,03025.1809146,E,000.00,000.00,220418,,,A*64
$GPVTG,000.00,T,,M,000.00,N,000.00,K,A*3D
$PSTI,030,142513.400,A,5029.3144293,N,03025.1809146,E,199.600,0.01,0.00,0.01,220418,A,0.0,0.0*19
$GPGGA,142513.600,5029.3144457,N,03025.1809194,E,1,11,0.9,199.550,M,26.200,M,,0000*56
$GPRMC,142513.600,A,5029.3144457,N,03025.1809194,E,000.00,000.00,220418,,,A*67
$GPVTG,000.00,T,,M,000.00,N,000.00,K,A*3D
$PSTI,030,142513.600,A,5029.3144457,N,03025.1809194,E,199.550,-0.00,-0.00,0.01,220418,A,0.0,0.0*1D
$GPGGA,142513.800,5029.3144587,N,03025.1809244,E,1,11,0.9,199.508,M,26.200,M,,0000*57
$GPRMC,142513.800,A,5029.3144587,N,03025.1809244,E,000.00,000.00,220418,,,A*6B
$GPVTG,000.00,T,,M,000.00,N,000.00,K,A*3D
$PSTI,030,142513.800,A,5029.3144587,N,03025.1809244,E,199.508,0.00,-0.00,0.00,220418,A,0.0,0.0*30
$GPGGA,142514.000,5029.3144699,N,03025.1809277,E,1,11,0.9,199.470,M,26.200,M,,0000*5A
$GPRMC,142514.000,A,5029.3144699,N,03025.1809277,E,000.00,000.00,220418,,,A*68
$GPVTG,000.00,T,,M,000.00,N,000.00,K,A*3D
$PSTI,030,142514.000,A,5029.3144699,N,03025.1809277,E,199.470,0.00,0.00,0.01,220418,A,0.0,0.0*11
$PSTI,032,142514.000,220418,V,,,,,,,,,,,*41
$GPGGA,142514.200,5029.3144765,N,03025.1809268,E,1,11,0.9,199.432,M,26.200,M,,0000*52
$GPGLL,5029.3144765,N,03025.1809268,E,142514.200,A,A*5C
$GPGSA,A,3,25,29,02,12,31,,,,,,,,1.8,0.9,1.5*39
$GLGSA,A,3,74,73,75,84,83,85,,,,,,,1.8,0.9,1.5*25
$GPRMC,142514.200,A,5029.3144765,N,03025.1809268,E,000.00,000.00,220418,,,A*66
$GPVTG,000.00,T,,M,000.00,N,000.00,K,A*3D
$GPZDA,142514.200,22,04,2018,00,00*5C
$GPGST,142514.200,0.751,0.517,0.474,8.9,0.516,0.475,1.123*61
$PSTI,030,142514.200,A,5029.3144765,N,03025.1809268,E,199.432,-0.00,-0.00,0.01,220418,A,0.0,0.0*19
$GPGGA,142514.400,5029.3144815,N,03025.1809247,E,1,11,0.9,199.398,M,26.200,M,,0000*56
$GPRMC,142514.400,A,5029.3144815,N,03025.1809247,E,000.00,000.00,220418,,,A*65
$GPVTG,000.00,T,,M,000.00,N,000.00,K,A*3D
$PSTI,030,142514.400,A,5029.3144815,N,03025.1809247,E,199.398,0.00,0.00,0.02,220418,A,0.0,0.0*1E
$GPGGA,142514.600,5029.3144865,N,03025.1809197,E,1,11,0.9,199.364,M,26.200,M,,0000*5E
$GPRMC,142514.600,A,5029.3144865,N,03025.1809197,E,000.00,000.00,220418,,,A*6E
$GPVTG,000.00,T,,M,000.00,N,000.00,K,A*3D
$PSTI,030,142514.600,A,5029.3144865,N,03025.1809197,E,199.364,0.00,0.00,0.01,220418,A,0.0,0.0*15
$GPGGA,142514.800,5029.3144910,N,03025.1809096,E,1,11,0.9,199.328,M,26.200,M,,0000*5B
$GPRMC,142514.800,A,5029.3144910,N,03025.1809096,E,000.00,000.00,220418,,,A*63
$GPVTG,000.00,T,,M,000.00,N,000.00,K,A*3D
$PSTI,030,142514.800,A,5029.3144910,N,03025.1809096,E,199.328,0.00,-0.00,0.01,220418,A,0.0,0.0*3D
$GPGGA,142515.000,5029.3144974,N,03025.1808987,E,1,11,0.9,199.295,M,26.200,M,,0000*5F
$GPRMC,142515.000,A,5029.3144974,N,03025.1808987,E,000.00,000.00,220418,,,A*60
$GPVTG,000.00,T,,M,000.00,N,000.00,K,A*3D
$PSTI,030,142515.000,A,5029.3144974,N,03025.1808987,E,199.295,-0.00,0.01,0.00,220418,A,0.0,0.0*39
$PSTI,032,142515.000,220418,V,,,,,,,,,,,*40
$GPGGA,142515.200,5029.3145054,N,03025.1808899,E,1,11,0.9,199.261,M,26.200,M,,0000*52
$GPGLL,5029.3145054,N,03025.1808899,E,142515.200,A,A*5C
$GPGSA,A,3,25,29,02,12,31,,,,,,,,1.8,0.9,1.5*39
$GLGSA,A,3,74,73,75,84,83,85,,,,,,,1.8,0.9,1.5*25
$GPGSV,4,1,13,25,88,241,52,29,59,257,50,02,47,065,46,12,46,118,51*76
$GPGSV,4,2,13,31,37,300,49,05,14,113,43,04,14,300,41,06,13,040,41*73
$GPGSV,4,3,13,14,08,276,40,193,08,058,39,24,02,174,38,26,01,301,39*42
$GPGSV,4,4,13,21,00,207,*4D
$GLGSV,3,1,09,74,77,268,48,84,75,249,43,83,42,042,45,73,38,162,48*67
$GLGSV,3,2,09,75,26,323,48,85,20,231,42,67,13,036,43,66,07,347,37*6E
$GLGSV,3,3,09,68,01,084,*5F
$GPRMC,142515.200,A,5029.3145054,N,03025.1808899,E,000.00,000.00,220418,,,A*66
$GPVTG,000.00,T,,M,000.00,N,000.00,K,A*3D
$GPZDA,142515.200,22,04,2018,00,00*5D
$GPGST,142515.200,0.747,0.515,0.472,8.9,0.514,0.473,1.117*60
$PSTI,030,142515.200,A,5029.3145054,N,03025.1808899,E,199.261,0.00,0.00,0.00,220418,A,0.0,0.0*18
$GPGGA,142515.400,5029.3145143,N,03025.1808796,E,1,11,0.9,199.227,M,26.200,M,,0000*51
$GPRMC,142515.400,A,5029.3145143,N,03025.1808796,E,000.00,000.00,220418,,,A*67
$GPVTG,000.00,T,,M,000.00,N,000.00,K,A*3D
$PSTI,030,142515.400,A,5029.3145143,N,03025.1808796,E,199.227,0.00,-0.01,0.01,220418,A,0.0,0.0*36
$GPGGA,142515.600,5029.3145235,N,03025.1808673,E,1,11,0.9,199.192,M,26.200,M,,0000*56
$GPRMC,142515.600,A,5029.3145235,N,03025.1808673,E,000.00,000.00,220418,,,A*6D
$GPVTG,000.00,T,,M,000.00,N,000.00,K,A*3D
$PSTI,030,142515.600,A,5029.3145235,N,03025.1808673,E,199.192,0.00,0.01,0.00,220418,A,0.0,0.0*1D
$GPGGA,142515.800,5029.3145384,N,03025.1808543,E,1,11,0.9,199.161,M,26.200,M,,0000*5F
$GPRMC,142515.800,A,5029.3145384,N,03025.1808543,E,000.00,000.00,220418,,,A*68
$GPVTG,000.00,T,,M,000.00,N,000.00,K,A*3D
$PSTI,030,142515.800,A,5029.3145384,N,03025.1808543,E,199.161,0.00,0.00,0.00,220418,A,0.0,0.0*15
$GPGGA,142516.000,5029.3145542,N,03025.1808425,E,1,11,0.9,199.129,M,26.200,M,,0000*55
$GPRMC,142516.000,A,5029.3145542,N,03025.1808425,E,000.00,000.00,220418,,,A*6E
$GPVTG,000.00,T,,M,000.00,N,000.00,K,A*3D
$PSTI,030,142516.000,A,5029.3145542,N,03025.1808425,E,199.129,-0.00,-0.00,0.00,220418,A,0.0,0.0*1F
$PSTI,032,142516.000,220418,V,,,,,,,,,,,*43
$GPGGA,142516.200,5029.3145681,N,03025.1808276,E,1,11,0.9,199.099,M,26.200,M,,0000*51
$GPGLL,5029.3145681,N,03025.1808276,E,142516.200,A,A*5A
$GPGSA,A,3,25,29,02,12,31,,,,,,,,1.8,0.9,1.5*39
$GLGSA,A,3,74,73,75,84,83,85,,,,,,,1.8,0.9,1.5*25
$GPRMC,142516.200,A,5029.3145681,N,03025.1808276,E,000.00,000.00,220418,,,A*60
$GPVTG,000.00,T,,M,000.00,N,000.00,K,A*3D
$GPZDA,142516.200,22,04,2018,00,00*5E
$GPGST,142516.200,0.750,0.517,0.474,8.9,0.516,0.475,1.122*63
$PSTI,030,142516.200,A,5029.3145681,N,03025.1808276,E,199.099,0.00,0.00,0.01,220418,A,0.0,0.0*1A
$GPGGA,142516.400,5029.3145853,N,03025.1808142,E,1,11,0.9,199.077,M,26.200,M,,0000*52
$GPRMC,142516.400,A,5029.3145853,N,03025.1808142,E,000.00,000.00,220418,,,A*63
$GPVTG,000.00,T,,M,000.00,N,000.00,K,A*3D
$PSTI,030,142516.400,A,5029.3145853,N,03025.1808142,E,199.077,0.00,-0.00,0.01,220418,A,0.0,0.0*34
$GPGGA,142516.600,5029.3146008,N,03025.1808020,E,1,11,0.9,199.058,M,26.200,M,,0000*5D
$GPRMC,142516.600,A,5029.3146008,N,03025.1808020,E,000.00,000.00,220418,,,A*61
$GPVTG,000.00,T,,M,000.00,N,000.00,K,A*3D
$PSTI,030,142516.600,A,5029.3146008,N,03025.1808020,E,199.058,0.01,0.00,0.01,220418,A,0.0,0.0*17
$GPGGA,142516.800,5029.3146138,N,03025.1807904,E,1,11,0.9,199.040,M,26.200,M,,0000*58
$GPRMC,142516.800,A,5029.3146138,N,03025.1807904,E,000.00,000.00,220418,,,A*6D
$GPVTG,000.00,T,,M,000.00,N,000.00,K,A*3D
$PSTI,030,142516.800,A,5029.3146138,N,03025.1807904,E,199.040,-0.00,-0.01,0.01,220418,A,0.0,0.0*12
$GPGGA,142517.000,5029.3146249,N,03025.1807823,E,1,11,0.9,199.023,M,26.200,M,,0000*55
$GPRMC,142517.000,A,5029.3146249,N,03025.1807823,E,000.00,000.00,220418,,,A*65
$GPVTG,000.00,T,,M,000.00,N,000.00,K,A*3D
$PSTI,030,142517.000,A,5029.3146249,N,03025.1807823,E,199.023,0.00,0.01,0.00,220418,A,0.0,0.0*1E
$PSTI,032,142517.000,220418,V,,,,,,,,,,,*42
$GPGGA,142517.200,5029.3146314,N,03025.1807711,E,1,11,0.9,199.010,M,26.200,M,,0000*50
$GPGLL,5029.3146314,N,03025.1807711,E,142517.200,A,A*5A
$GPGSA,A,3,25,29,02,12,31,,,,,,,,1.8,0.9,1.5*39
$GLGSA,A,3,74,73,75,84,83,85,,,,,,,1.8,0.9,1.5*25
$GPRMC,142517.200,A,5029.3146314,N,03025.1807711,E,000.00,000.00,220418,,,A*60
$GPVTG,000.00,T,,M,000.00,N,000.00,K,A*3D
$GPZDA,142517.200,22,04,2018,00,00*5F
$GPGST,142517.200,0.751,0.517,0.474,8.9,0.516,0.475,1.122*63
$PSTI,030,142517.200,A,5029.3146314,N,03025.1807711,E,199.010,-0.00,0.00,0.01,220418,A,0.0,0.0*36
$GPGGA,142517.400,5029.3146349,N,03025.1807642,E,1,11,0.9,198.997,M,26.200,M,,0000*5E
$GPRMC,142517.400,A,5029.3146349,N,03025.1807642,E,000.00,000.00,220418,,,A*69
$GPVTG,000.00,T,,M,000.00,N,000.00,K,A*3D
$PSTI,030,142517.400,A,5029.3146349,N,03025.1807642,E,198.997,0.00,-0.00,0.01,220418,A,0.0,0.0*38
$GPGGA,142517.600,5029.3146344,N,03025.1807579,E,1,11,0.9,198.990,M,26.200,M,,0000*5D
$GPRMC,142517.600,A,5029.3146344,N,03025.1807579,E,000.00,000.00,220418,,,A*6D
$GPVTG,000.00,T,,M,000.00,N,000.00,K,A*3D
$PSTI,030,142517.600,A,5029.3146344,N,03025.1807579,E,198.990,0.01,0.00,0.01,220418,A,0.0,0.0*17
$GPGGA,142517.800,5029.3146333,N,03025.1807531,E,1,11,0.9,198.983,M,26.200,M,,0000*5D
$GPRMC,142517.800,A,5029.3146333,N,03025.1807531,E,000.00,000.00,220418,,,A*6F
$GPVTG,000.00,T,,M,000.00,N,000.00,K,A*3D
$PSTI,030,142517.800,A,5029.3146333,N,03025.1807531,E,198.983,0.00,0.00,0.01,220418,A,0.0,0.0*16
$GPGGA,142518.000,5029.3146341,N,03025.1807450,E,1,11,0.9,198.977,M,26.200,M,,0000*52
$GPRMC,142518.000,A,5029.3146341,N,03025.1807450,E,000.00,000.00,220418,,,A*6B
$GPVTG,000.00,T,,M,000.00,N,000.00,K,A*3D
$PSTI,030,142518.000,A,5029.3146341,N,03025.1807450,E,198.977,-0.00,0.00,0.01,220418,A,0.0,0.0*34
$PSTI,032,142518.000,220418,V,,,,,,,,,,,*4D
$GPGGA,142518.200,5029.3146346,N,03025.1807356,E,1,11,0.9,198.969,M,26.200,M,,0000*59
$GPGLL,5029.3146346,N,03025.1807356,E,142518.200,A,A*55
$GPGSA,A,3,25,29,02,12,31,,,,,,,,1.8,0.9,1.5*39
$GLGSA,A,3,74,73,75,84,83,85,,,,,,,1.8,0.9,1.5*25
$GPGSV,4,1,13,25,88,241,52,29,59,257,50,02,47,064,46,12,46,118,51*77
$GPGSV,4,2,13,31,37,300,49,05,14,113,43,04,14,300,40,06,13,040,40*73
$GPGSV,4,3,13,14,08,276,40,193,08,058,40,24,02,174,38,26,01,301,39*4C
$GPGSV,4,4,13,21,00,207,*4D
$GLGSV,3,1,09,74,77,268,48,84,75,249,43,83,42,042,46,73,38,162,48*64
$GLGSV,3,2,09,75,26,323,47,85,20,231,42,67,13,036,43,66,07,347,38*6E
$GLGSV,3,3,09,68,01,084,*5F
$GPRMC,142518.200,A,5029.3146346,N,03025.1807356,E,000.00,000.00,220418,,,A*6F
$GPVTG,000.00,T,,M,000.00,N,000.00,K,A*3D
$GPZDA,142518.200,22,04,2018,00,00*50
$GPGST,142518.200,0.754,0.519,0.476,8.9,0.518,0.477,1.127*6C
$PSTI,030,142518.200,A,5029.3146346,N,03025.1807356,E,198.969,0.00,0.01,0.01,220418,A,0.0,0.0*13
$GPGGA,142518.400,5029.3146359,N,03025.1807257,E,1,11,0.9,198.959,M,26.200,M,,0000*52
$GPRMC,142518.400,A,5029.3146359,N,03025.1807257,E,000.00,000.00,220418,,,A*67
$GPVTG,000.00,T,,M,000.00,N,000.00,K,A*3D
$PSTI,030,142518.400,A,5029.3146359,N,03025.1807257,E,198.959,-0.00,0.00,0.01,220418,A,0.0,0.0*34
$GPGGA,142518.600,5029.3146353,N,03025.1807185,E,1,11,0.9,198.957,M,26.200,M,,0000*58
$GPRMC,142518.600,A,5029.3146353,N,03025.1807185,E,000.00,000.00,220418,,,A*63
$GPVTG,000.00,T,,M,000.00,N,000.00,K,A*3D
$PSTI,030,142518.600,A,5029.3146353,N,03025.1807185,E,198.957,0.00,0.00,0.01,220418,A,0.0,0.0*13
$GPGGA,142518.800,5029.3146346,N,03025.1807148,E,1,11,0.9,198.958,M,26.200,M,,0000*5C
$GPRMC,142518.800,A,5029.3146346,N,03025.1807148,E,000.00,000.00,220418,,,A*68
$GPVTG,000.00,T,,M,000.00,N,000.00,K,A*3D
$PSTI,030,142518.800,A,5029.3146346,N,03025.1807148,E,198.958,0.00,0.00,0.00,220418,A,0.0,0.0*16
$GPGGA,142519.000,5029.3146328,N,03025.1807119,E,1,11,0.9,198.958,M,26.200,M,,0000*59
$GPRMC,142519.000,A,5029.3146328,N,03025.1807119,E,000.00,000.00,220418,,,A*6D
$GPVTG,000.00,T,,M,000.00,N,000.00,K,A*3D
$PSTI,030,142519.000,A,5029.3146328,N,03025.1807119,E,198.958,0.00,-0.00,0.00,220418,A,0.0,0.0*3E
$PSTI,032,142519.000,220418,V,,,,,,,,,,,*4C
$GPGGA,142519.200,5029.3146288,N,03025.1807105,E,1,11,0.9,198.955,M,26.200,M,,0000*50
$GPGLL,5029.3146288,N,03025.1807105,E,142519.200,A,A*53
$GPGSA,A,3,25,29,02,12,31,,,,,,,,1.8,0.9,1.5*39
$GLGSA,A,3,74,73,75,84,83,85,,,,,,,1.8,0.9,1.5*25
$GPRMC,142519.200,A,5029.3146288,N,03025.1807105,E,000.00,000.00,220418,,,A*69
$GPVTG,000.00,T,,M,000.00,N,000.00,K,A*3D
$GPZDA,142519.200,22,04,2018,00,00*51
$GPGST,142519.200,0.757,0.521,0.478,8.8,0.521,0.479,1.132*6A
$PSTI,030,142519.200,A,5029.3146288,N,03025.1807105,E,198.955,-0.00,0.00,-0.00,220418,A,0.0,0.0*1A
$GPGGA,142519.400,5029.3146240,N,03025.1807097,E,1,11,0.9,198.956,M,26.200,M,,0000*5B
$GPRMC,142519.400,A,5029.3146240,N,03025.1807097,E,000.00,000.00,220418,,,A*61
$GPVTG,000.00,T,,M,000.00,N,000.00,K,A*3D
$PSTI,030,142519.400,A,5029.3146240,N,03025.1807097,E,198.956,0.00,0.00,0.01,220418,A,0.0,0.0*10
$GPGGA,142519.600,5029.3146215,N,03025.1807105,E,1,11,0.9,198.956,M,26.200,M,,0000*53
$GPRMC,142519.600,A,5029.3146215,N,03025.1807105,E,000.00,000.00,220418,,,A*69
$GPVTG,000.00,T,,M,000.00,N,000.00,K,A*3D
$PSTI,030,142519.600,A,5029.3146215,N,03025.1807105,E,198.956,0.00,0.00,-0.00,220418,A,0.0,0.0*34
$GPGGA,142519.800,5029.3146180,N,03025.1807138,E,1,11,0.9,198.960,M,26.200,M,,0000*59
$GPRMC,142519.800,A,5029.3146180,N,03025.1807138,E,000.00,000.00,220418,,,A*66
$GPVTG,000.00,T,,M,000.00,N,000.00,K,A*3D
$PSTI,030,142519.800,A,5029.3146180,N,03025.1807138,E,198.960,-0.01,0.00,-0.00,220418,A,0.0,0.0*12
$GPGGA,142520.000,5029.3146146,N,03025.1807201,E,1,11,0.9,198.964,M,26.200,M,,0000*5C
$GPRMC,142520.000,A,5029.3146146,N,03025.1807201,E,000.00,000.00,220418,,,A*67
$GPVTG,000.00,T,,M,000.00,N,000.00,K,A*3D
$PSTI,030,142520.000,A,5029.3146146,N,03025.1807201,E,198.964,0.01,-0.00,-0.00,220418,A,0.0,0.0*17
$PSTI,032,142520.000,220418,V,,,,,,,,,,,*46
$GPGGA,142520.200,5029.3146147,N,03025.1807307,E,1,11,0.9,198.971,M,26.200,M,,0000*5C
$GPGLL,5029.3146147,N,03025.1807307,E,142520.200,A,A*59
$GPGSA,A,3,25,29,02,12,31,,,,,,,,1.8,0.9,1.5*39
$GLGSA,A,3,74,73,75,84,83,85,,,,,,,1.8,0.9,1.5*25
$GPRMC,142520.200,A,5029.3146147,N,03025.1807307,E,000.00,000.00,220418,,,A*63
$GPVTG,000.00,T,,M,000.00,N,000.00,K,A*3D
$GPZDA,142520.200,22,04,2018,00,00*5B
$GPGST,142520.200,0.754,0.519,0.476,8.8,0.518,0.477,1.128*69
$PSTI,030,142520.200,A,5029.3146147,N,03025.1807307,E,198.971,-0.01,-0.01,0.00,220418,A,0.0,0.0*16
$GPGGA,142520.400,5029.3146154,N,03025.1807450,E,1,11,0.9,198.981,M,26.200,M,,0000*52
$GPRMC,142520.400,A,5029.3146154,N,03025.1807450,E,000.00,000.00,220418,,,A*62
$GPVTG,000.00,T,,M,000.00,N,000.00,K,A*3D
$PSTI,030,142520.400,A,5029.3146154,N,03025.1807450,E,198.981,-0.00,-0.01,0.00,220418,A,0.0,0.0*19
$GPGGA,142520.600,5029.3146152,N,03025.1807628,E,1,11,0.9,198.989,M,26.200,M,,0000*53
$GPRMC,142520.600,A,5029.3146152,N,03025.1807628,E,000.00,000.00,220418,,,A*6B
$GPVTG,000.00,T,,M,000.00,N,000.00,K,A*3D
$PSTI,030,142520.600,A,5029.3146152,N,03025.1807628,E,198.989,-0.00,-0.00,0.01,220418,A,0.0,0.0*18
$GPGGA,142520.800,5029.3146141,N,03025.1807825,E,1,11,0.9,198.997,M,26.200,M,,0000*53
$GPRMC,142520.800,A,5029.3146141,N,03025.1807825,E,000.00,000.00,220418,,,A*64
$GPVTG,000.00,T,,M,000.00,N,000.00,K,A*3D
$PSTI,030,142520.800,A,5029.3146141,N,03025.1807825,E,198.997,-0.01,-0.01,0.01,220418,A,0.0,0.0*18
$GPGGA,142521.000,5029.3146139,N,03025.1807972,E,1,11,0.9,199.006,M,26.200,M,,0000*56
$GPRMC,142521.000,A,5029.3146139,N,03025.1807972,E,000.00,000.00,220418,,,A*61
$GPVTG,000.00,T,,M,000.00,N,000.00,K,A*3D
$PSTI,030,142521.000,A,5029.3146139,N,03025.1807972,E,199.006,-0.00,-0.00,0.01,220418,A,0.0,0.0*1D
$PSTI,032,142521.000,220418,V,,,,,,,,,,,*47
$GPGGA,142521.200,5029.3146133,N,03025.1808113,E,1,11,0.9,199.019,M,26.200,M,,0000*50
$GPGLL,5029.3146133,N,03025.1808113,E,142521.200,A,A*53
$GPGSA,A,3,25,29,02,12,31,,,,,,,,1.8,0.9,1.5*39
$GLGSA,A,3,74,73,75,84,83,85,,,,,,,1.8,0.9,1.5*25
$GPGSV,4,1,13,25,88,241,52,29,59,257,50,02,47,064,46,12,46,118,51*77
$GPGSV,4,2,13,31,37,300,49,05,14,112,43,04,14,300,40,06,12,040,41*72
$GPGSV,4,3,13,14,08,276,41,193,08,058,39,24,02,174,39,26,01,301,38*43
$GPGSV,4,4,13,21,00,207,*4D
$GLGSV,3,1,09,74,77,268,48,84,75,249,43,83,42,042,45,73,38,162,49*66
$GLGSV,3,2,09,75,26,323,47,85,20,231,42,67,13,036,43,66,07,347,38*6E
$GLGSV,3,3,09,68,01,084,*5F
$GPRMC,142521.200,A,5029.3146133,N,03025.1808113,E,000.00,000.00,220418,,,A*69
$GPVTG,000.00,T,,M,000.00,N,000.00,K,A*3D
$GPZDA,142521.200,22,04,2018,00,00*5A
$GPGST,142521.200,0.763,0.526,0.482,8.8,0.525,0.483,1.142*62
$PSTI,030,142521.200,A,5029.3146133,N,03025.1808113,E,199.019,-0.00,0.00,0.00,220418,A,0.0,0.0*37
$GPGGA,142521.400,5029.3146119,N,03025.1808270,E,1,11,0.9,199.029,M,26.200,M,,0000*5B
$GPRMC,142521.400,A,5029.3146119,N,03025.1808270,E,000.00,000.00,220418,,,A*61
$GPVTG,000.00,T,,M,000.00,N,000.00,K,A*3D
$PSTI,030,142521.400,A,5029.3146119,N,03025.1808270,E,199.029,-0.00,0.00,0.01,220418,A,0.0,0.0*3D
$GPGGA,142521.600,5029.3146106,N,03025.1808411,E,1,11,0.9,199.048,M,26.200,M,,0000*51
$GPRMC,142521.600,A,5029.3146106,N,03025.1808411,E,000.00,000.00,220418,,,A*6C
$GPVTG,000.00,T,,M,000.00,N,000.00,K,A*3D
$PSTI,030,142521.600,A,5029.3146106,N,03025.1808411,E,199.048,-0.01,-0.00,-0.00,220418,A,0.0,0.0*37
$GPGGA,142521.800,5029.3146054,N,03025.1808575,E,1,11,0.9,199.069,M,26.200,M,,0000*59
$GPRMC,142521.800,A,5029.3146054,N,03025.1808575,E,000.00,000.00,220418,,,A*67
$GPVTG,000.00,T,,M,000.00,N,000.00,K,A*3D
$PSTI,030,142521.800,A,5029.3146054,N,03025.1808575,E,199.069,-0.00,0.00,0.01,220418,A,0.0,0.0*3F
$GPGGA,142522.000,5029.3146011,N,03025.1808760,E,1,11,0.9,199.099,M,26.200,M,,0000*5A
$GPRMC,142522.000,A,5029.3146011,N,03025.1808760,E,000.00,000.00,220418,,,A*6B
$GPVTG,000.00,T,,M,000.00,N,000.00,K,A*3D
$PSTI,030,142522.000,A,5029.3146011,N,03025.1808760,E,199.099,-0.01,0.00,0.00,220418,A,0.0,0.0*3C
$PSTI,032,142522.000,220418,V,,,,,,,,,,,*44
$GPGGA,142522.200,5029.3145973,N,03025.1808949,E,1,11,0.9,199.120,M,26.200,M,,0000*50
$GPGLL,5029.3145973,N,03025.1808949,E,142522.200,A,A*58
$GPGSA,A,3,25,29,02,12,31,,,,,,,,1.8,0.9,1.5*39
$GLGSA,A,3,74,73,75,84,83,85,,,,,,,1.8,0.9,1.5*25
$GPRMC,142522.200,A,5029.3145973,N,03025.1808949,E,000.00,000.00,220418,,,A*62
$GPVTG,000.00,T,,M,000.00,N,000.00,K,A*3D
$GPZDA,142522.200,22,04,2018,00,00*59
$GPGST,142522.200,0.767,0.528,0.484,8.8,0.527,0.485,1.147*6C
$PSTI,030,142522.200,A,5029.3145973,N,03025.1808949,E,199.120,-0.00,0.00,0.00,220418,A,0.0,0.0*37
$GPGGA,142522.400,5029.3145939,N,03025.1809115,E,1,11,0.9,199.142,M,26.200,M,,0000*5C
$GPRMC,142522.400,A,5029.3145939,N,03025.1809115,E,000.00,000.00,220418,,,A*6A
$GPVTG,000.00,T,,M,000.00,N,000.00,K,A*3D
$PSTI,030,142522.400,A,5029.3145939,N,03025.1809115,E,199.142,-0.00,-0.01,-0.00,220418,A,0.0,0.0*3A
$GPGGA,142522.600,5029.3145914,N,03025.1809250,E,1,11,0.9,199.163,M,26.200,M,,0000*50
$GPRMC,142522.600,A,5029.3145914,N,03025.1809250,E,000.00,000.00,220418,,,A*65
$GPVTG,000.00,T,,M,000.00,N,000.00,K,A*3D
$PSTI,030,142522.600,A,5029.3145914,N,03025.1809250,E,199.163,-0.00,0.01,0.01,220418,A,0.0,0.0*37
$GPGGA,142522.800,5029.3145884,N,03025.1809380,E,1,11,0.9,199.184,M,26.200,M,,0000*53
$GPRMC,142522.800,A,5029.3145884,N,03025.1809380,E,000.00,000.00,220418,,,A*6F
$GPVTG,000.00,T,,M,000.00,N,000.00,K,A*3D
$PSTI,030,142522.800,A,5029.3145884,N,03025.1809380,E,199.184,0.00,0.00,-0.00,220418,A,0.0,0.0*34
$GPGGA,142523.000,5029.3145840,N,03025.1809536,E,1,11,0.9,199.207,M,26.200,M,,0000*51
$GPRMC,142523.000,A,5029.3145840,N,03025.1809536,E,000.00,000.00,220418,,,A*65
$GPVTG,000.00,T,,M,000.00,N,000.00,K,A*3D
$PSTI,030,142523.000,A,5029.3145840,N,03025.1809536,E,199.207,-0.02,0.00,0.00,220418,A,0.0,0.0*34
$PSTI,032,142523.000,220418,V,,,,,,,,,,,*45
$GPGGA,142523.200,5029.3155498,N,03025.1812133,E,5,11,0.9,204.971,M,26.200,M,,0000*59
$GPGLL,5029.3155498,N,03025.1812133,E,142523.200,A,F*59
$GPGSA,A,3,25,29,02,12,31,,,,,,,,1.8,0.9,1.5*39
$GLGSA,A,3,74,73,75,84,83,85,,,,,,,1.8,0.9,1.5*25
$GPRMC,142523.200,A,5029.3155498,N,03025.1812133,E,000.00,000.00,220418,,,F*63
$GPVTG,000.00,T,,M,000.00,N,000.00,K,F*3A
$GPZDA,142523.200,22,04,2018,00,00*58
$GPGST,142523.200,2.068,4.023,1.668,11.2,3.960,1.813,4.047*54
$PSTI,030,142523.200,A,5029.3155498,N,03025.1812133,E,204.971,-0.00,-0.00,0.01,220418,F,1.0,1.1*10
$GPGGA,142523.400,5029.3155497,N,03025.1812131,E,5,11,0.9,204.972,M,26.200,M,,0000*51
$GPRMC,142523.400,A,5029.3155497,N,03025.1812131,E,000.00,000.00,220418,,,F*68
$GPVTG,000.00,T,,M,000.00,N,000.00,K,F*3A
$PSTI,030,142523.400,A,5029.3155497,N,03025.1812131,E,204.972,-0.00,-0.00,0.00,220418,F,1.0,1.1*19
$GPGGA,142523.600,5029.3155497,N,03025.1812129,E,5,11,0.9,204.973,M,26.200,M,,0000*5B
$GPRMC,142523.600,A,5029.3155497,N,03025.1812129,E,000.00,000.00,220418,,,F*63
$GPVTG,000.00,T,,M,000.00,N,000.00,K,F*3A
$PSTI,030,142523.600,A,5029.3155497,N,03025.1812129,E,204.973,-0.00,0.00,0.01,220418,F,1.0,1.1*3F
$GPGGA,142523.800,5029.3155501,N,03025.1812126,E,5,11,0.9,204.974,M,26.200,M,,0000*53
$GPRMC,142523.800,A,5029.3155501,N,03025.1812126,E,000.00,000.00,220418,,,F*6C
$GPVTG,000.00,T,,M,000.00,N,000.00,K,F*3A
$PSTI,030,142523.800,A,5029.3155501,N,03025.1812126,E,204.974,-0.00,0.01,0.01,220418,F,1.0,1.1*36
$GPGGA,142524.000,5029.3155500,N,03025.1812127,E,5,11,0.9,204.974,M,26.200,M,,0000*5C
$GPRMC,142524.000,A,5029.3155500,N,03025.1812127,E,000.00,000.00,220418,,,F*63
$GPVTG,000.00,T,,M,000.00,N,000.00,K,F*3A
$PSTI,030,142524.000,A,5029.3155500,N,03025.1812127,E,204.974,0.00,-0.00,0.00,220418,F,1.0,1.1*39
$PSTI,032,142524.000,220418,A,F,-5467.482,13842.609,-12.512,14883.257,338.45,,,,,*0A
$GPGGA,142524.200,5029.3158024,N,03025.1814704,E,5,11,0.9,205.617,M,26.200,M,,0000*5A
$GPGLL,5029.3158024,N,03025.1814704,E,142524.200,A,F*54
$GPGSA,A,3,25,29,02,12,31,,,,,,,,1.8,0.9,1.5*39
$GLGSA,A,3,74,73,75,84,83,85,,,,,,,1.8,0.9,1.5*25
$GPGSV,4,1,13,25,88,241,52,29,59,257,50,02,47,064,46,12,46,118,51*77
$GPGSV,4,2,13,31,37,300,49,05,14,112,42,04,14,300,40,06,12,040,41*73
$GPGSV,4,3,13,14,08,276,41,193,08,058,40,24,02,174,39,26,01,301,38*4D
$GPGSV,4,4,13,21,00,207,*4D
$GLGSV,3,1,09,74,77,268,48,84,75,249,43,83,42,042,46,73,38,162,48*64
$GLGSV,3,2,09,75,26,323,48,85,20,231,42,67,13,036,43,66,07,347,38*61
$GLGSV,3,3,09,68,01,084,*5F
$GPRMC,142524.200,A,5029.3158024,N,03025.1814704,E,000.00,000.00,220418,,,F*6E
$GPVTG,000.00,T,,M,000.00,N,000.00,K,F*3A
$GPZDA,142524.200,22,04,2018,00,00*5F
$GPGST,142524.200,1.975,3.842,1.592,11.2,3.781,1.731,3.865*5A
$PSTI,030,142524.200,A,5029.3158024,N,03025.1814704,E,205.617,-0.01,0.00,0.01,220418,F,1.0,2.1*3C
$GPGGA,142524.400,5029.3158022,N,03025.1814709,E,5,11,0.9,205.618,M,26.200,M,,0000*58
$GPRMC,142524.400,A,5029.3158022,N,03025.1814709,E,000.00,000.00,220418,,,F*63
$GPVTG,000.00,T,,M,000.00,N,000.00,K,F*3A
$PSTI,030,142524.400,A,5029.3158022,N,03025.1814709,E,205.618,0.01,-0.00,0.01,220418,F,1.0,2.1*3E
$GPGGA,142524.600,5029.3158021,N,03025.1814703,E,5,11,0.9,205.618,M,26.200,M,,0000*53
$GPRMC,142524.600,A,5029.3158021,N,03025.1814703,E,000.00,000.00,220418,,,F*68
$GPVTG,000.00,T,,M,000.00,N,000.00,K,F*3A
$PSTI,030,142524.600,A,5029.3158021,N,03025.1814703,E,205.618,-0.01,-0.00,0.01,220418,F,1.0,2.1*18
$GPGGA,142524.800,5029.3158023,N,03025.1814697,E,5,11,0.9,205.619,M,26.200,M,,0000*52
$GPRMC,142524.800,A,5029.3158023,N,03025.1814697,E,000.00,000.00,220418,,,F*68
$GPVTG,000.00,T,,M,000.00,N,000.00,K,F*3A
$PSTI,030,142524.800,A,5029.3158023,N,03025.1814697,E,205.619,-0.01,0.00,0.00,220418,F,1.0,2.1*35
$GPGGA,142525.000,5029.3158023,N,03025.1814695,E,5,11,0.9,205.620,M,26.200,M,,0000*53
$GPRMC,142525.000,A,5029.3158023,N,03025.1814695,E,000.00,000.00,220418,,,F*63
$GPVTG,000.00,T,,M,000.00,N,000.00,K,F*3A
$PSTI,030,142525.000,A,5029.3158023,N,03025.1814695,E,205.620,-0.00,-0.00,0.01,220418,F,1.0,2.1*19
$PSTI,032,142525.000,220418,A,F,-5467.177,13843.078,-11.867,14883.581,338.45,,,,,*05
$GPGGA,142525.200,5029.3160706,N,03025.1815798,E,5,11,0.9,206.222,M,26.200,M,,0000*52
$GPGLL,5029.3160706,N,03025.1815798,E,142525.200,A,F*5D
$GPGSA,A,3,25,29,02,12,31,,,,,,,,1.8,0.9,1.5*39
$GLGSA,A,3,74,73,75,84,83,85,,,,,,,1.8,0.9,1.5*25
$GPRMC,142525.200,A,5029.3160706,N,03025.1815798,E,000.00,000.00,220418,,,F*67
$GPVTG,000.00,T,,M,000.00,N,000.00,K,F*3A
$GPZDA,142525.200,22,04,2018,00,00*5E
$GPGST,142525.200,1.984,3.859,1.600,11.2,3.798,1.739,3.883*5F
$PSTI,030,142525.200,A,5029.3160706,N,03025.1815798,E,206.222,0.00,-0.00,0.01,220418,F,1.0,1.3*34
$GPGGA,142525.400,5029.3160702,N,03025.1815790,E,5,11,0.9,206.223,M,26.200,M,,0000*59
$GPRMC,142525.400,A,5029.3160702,N,03025.1815790,E,000.00,000.00,220418,,,F*6D
$GPVTG,000.00,T,,M,000.00,N,000.00,K,F*3A
$PSTI,030,142525.400,A,5029.3160702,N,03025.1815790,E,206.223,-0.01,-0.01,0.01,220418,F,1.0,1.3*12
$GPGGA,142525.600,5029.3160699,N,03025.1815790,E,5,11,0.9,206.224,M,26.200,M,,0000*5F
$GPRMC,142525.600,A,5029.3160699,N,03025.1815790,E,000.00,000.00,220418,,,F*6C
$GPVTG,000.00,T,,M,000.00,N,000.00,K,F*3A
$PSTI,030,142525.600,A,5029.3160699,N,03025.1815790,E,206.224,-0.00,-0.01,0.01,220418,F,1.0,1.3*15
$GPGGA,142525.800,5029.3160701,N,03025.1815785,E,5,11,0.9,206.225,M,26.200,M,,0000*54
$GPRMC,142525.800,A,5029.3160701,N,03025.1815785,E,000.00,000.00,220418,,,F*66
$GPVTG,000.00,T,,M,000.00,N,000.00,K,F*3A
$PSTI,030,142525.800,A,5029.3160701,N,03025.1815785,E,206.225,-0.01,0.00,0.01,220418,F,1.0,1.3*33
$GPGGA,142526.000,5029.3160701,N,03025.1815783,E,5,11,0.9,206.226,M,26.200,M,,0000*5A
$GPRMC,142526.000,A,5029.3160701,N,03025.1815783,E,000.00,000.00,220418,,,F*6B
$GPVTG,000.00,T,,M,000.00,N,000.00,K,F*3A
$PSTI,030,142526.000,A,5029.3160701,N,03025.1815783,E,206.226,-0.00,-0.00,0.01,220418,F,1.0,1.3*11
$PSTI,032,142526.000,220418,A,F,-5467.050,13843.577,-11.263,14883.997,338.45,,,,,*0D
$GPGGA,142526.200,5029.3161859,N,03025.1815718,E,5,11,0.9,206.916,M,26.200,M,,0000*51
$GPGLL,5029.3161859,N,03025.1815718,E,142526.200,A,F*52
$GPGSA,A,3,25,29,02,12,31,,,,,,,,1.8,0.9,1.5*39
$GLGSA,A,3,74,73,75,84,83,85,,,,,,,1.8,0.9,1.5*25
$GPRMC,142526.200,A,5029.3161859,N,03025.1815718,E,000.00,000.00,220418,,,F*68
$GPVTG,000.00,T,,M,000.00,N,000.00,K,F*3A
$GPZDA,142526.200,22,04,2018,00,00*5D
$GPGST,142526.200,1.818,3.537,1.466,11.2,3.481,1.594,3.558*5A
$PSTI,030,142526.200,A,5029.3161859,N,03025.1815718,E,206.916,0.00,0.00,0.01,220418,F,1.0,1.4*1D
$GPGGA,142526.400,5029.3161860,N,03025.1815716,E,5,11,0.9,206.916,M,26.200,M,,0000*53
$GPRMC,142526.400,A,5029.3161860,N,03025.1815716,E,000.00,000.00,220418,,,F*6A
$GPVTG,000.00,T,,M,000.00,N,000.00,K,F*3A
$PSTI,030,142526.400,A,5029.3161860,N,03025.1815716,E,206.916,-0.00,0.00,0.00,220418,F,1.0,1.4*33
$GPGGA,142526.600,5029.3161859,N,03025.1815712,E,5,11,0.9,206.918,M,26.200,M,,0000*51
$GPRMC,142526.600,A,5029.3161859,N,03025.1815712,E,000.00,000.00,220418,,,F*66
$GPVTG,000.00,T,,M,000.00,N,000.00,K,F*3A
$PSTI,030,142526.600,A,5029.3161859,N,03025.1815712,E,206.918,-0.01,-0.00,0.02,220418,F,1.0,1.4*1F
$GPGGA,142526.800,5029.3161860,N,03025.1815712,E,5,11,0.9,206.918,M,26.200,M,,0000*55
$GPRMC,142526.800,A,5029.3161860,N,03025.1815712,E,000.00,000.00,220418,,,F*62
$GPVTG,000.00,T,,M,000.00,N,000.00,K,F*3A
$PSTI,030,142526.800,A,5029.3161860,N,03025.1815712,E,206.918,0.00,0.00,0.00,220418,F,1.0,1.4*18
$GPGGA,142527.000,5029.3161863,N,03025.1815706,E,5,11,0.9,206.919,M,26.200,M,,0000*5B
$GPRMC,142527.000,A,5029.3161863,N,03025.1815706,E,000.00,000.00,220418,,,F*6D
$GPVTG,000.00,T,,M,000.00,N,000.00,K,F*3A
$PSTI,030,142527.000,A,5029.3161863,N,03025.1815706,E,206.919,-0.01,0.01,0.01,220418,F,1.0,1.4*3A
$PSTI,032,142527.000,220418,A,F,-5467.059,13843.791,-10.569,14884.200,338.45,,,,,*01
$GPGGA,142527.200,5029.3162936,N,03025.1816171,E,5,11,0.9,207.463,M,26.200,M,,0000*5F
$GPGLL,5029.3162936,N,03025.1816171,E,142527.200,A,F*52
$GPGSA,A,3,25,29,02,12,31,,,,,,,,1.8,0.9,1.5*39
$GLGSA,A,3,74,73,75,84,83,85,,,,,,,1.8,0.9,1.5*25
$GPGSV,4,1,13,25,88,241,51,29,59,257,50,02,47,064,46,12,46,118,51*74
$GPGSV,4,2,13,31,37,300,49,05,14,112,42,04,14,300,40,06,12,040,41*73
$GPGSV,4,3,13,14,08,276,40,193,08,058,39,24,02,174,40,26,01,301,38*4C
$GPGSV,4,4,13,21,00,207,*4D
$GLGSV,3,1,09,74,77,268,48,84,75,249,43,83,42,042,46,73,38,162,48*64
$GLGSV,3,2,09,75,26,323,48,85,20,231,41,67,13,036,43,66,07,347,36*6C
$GLGSV,3,3,09,68,01,084,*5F
$GPRMC,142527.200,A,5029.3162936,N,03025.1816171,E,000.00,000.00,220418,,,F*68
$GPVTG,000.00,T,,M,000.00,N,000.00,K,F*3A
$GPZDA,142527.200,22,04,2018,00,00*5C
$GPGST,142527.200,2.271,4.418,1.832,11.2,4.349,1.991,4.446*5F
$PSTI,030,142527.200,A,5029.3162936,N,03025.1816171,E,207.463,0.00,0.00,0.01,220418,F,1.0,1.0*17
$GPGGA,142527.400,5029.3162939,N,03025.1816170,E,5,11,0.9,207.464,M,26.200,M,,0000*50
$GPRMC,142527.400,A,5029.3162939,N,03025.1816170,E,000.00,000.00,220418,,,F*60
$GPVTG,000.00,T,,M,000.00,N,000.00,K,F*3A
$PSTI,030,142527.400,A,5029.3162939,N,03025.1816170,E,207.464,-0.00,0.00,0.01,220418,F,1.0,1.0*35
$GPGGA,142527.600,5029.3162938,N,03025.1816166,E,5,11,0.9,207.464,M,26.200,M,,0000*54
$GPRMC,142527.600,A,5029.3162938,N,03025.1816166,E,000.00,000.00,220418,,,F*64
$GPVTG,000.00,T,,M,000.00,N,000.00,K,F*3A
$PSTI,030,142527.600,A,5029.3162938,N,03025.1816166,E,207.464,-0.01,-0.00,0.01,220418,F,1.0,1.0*1D
$GPGGA,142527.800,5029.3162938,N,03025.1816164,E,5,11,0.9,207.465,M,26.200,M,,0000*59
$GPRMC,142527.800,A,5029.3162938,N,03025.1816164,E,000.00,000.00,220418,,,F*68
$GPVTG,000.00,T,,M,000.00,N,000.00,K,F*3A
$PSTI,030,142527.800,A,5029.3162938,N,03025.1816164,E,207.465,-0.00,-0.00,0.01,220418,F,1.0,1.0*11
$GPGGA,142528.000,5029.3162940,N,03025.1816166,E,5,11,0.9,207.466,M,26.200,M,,0000*50
$GPRMC,142528.000,A,5029.3162940,N,03025.1816166,E,000.00,000.00,220418,,,F*62
$GPVTG,000.00,T,,M,000.00,N,000.00,K,F*3A
$PSTI,030,142528.000,A,5029.3162940,N,03025.1816166,E,207.466,0.00,0.00,0.01,220418,F,1.0,1.0*18
$PSTI,032,142528.000,220418,A,F,-5467.006,13843.992,-10.023,14884.367,338.45,,,,,*02
$GPGGA,142528.200,5029.3163477,N,03025.1816714,E,5,11,0.9,207.826,M,26.200,M,,0000*51
$GPGLL,5029.3163477,N,03025.1816714,E,142528.200,A,F*51
$GPGSA,A,3,25,29,02,12,31,,,,,,,,1.8,0.9,1.5*39
$GLGSA,A,3,74,73,75,84,83,85,,,,,,,1.8,0.9,1.5*25
$GPRMC,142528.200,A,5029.3163477,N,03025.1816714,E,000.00,000.00,220418,,,F*6B
$GPVTG,000.00,T,,M,000.00,N,000.00,K,F*3A
$GPZDA,142528.200,22,04,2018,00,00*53
$GPGST,142528.200,2.236,4.349,1.803,11.2,4.280,1.960,4.377*5D
$PSTI,030,142528.200,A,5029.3163477,N,03025.1816714,E,207.826,0.00,0.01,0.00,220418,F,1.0,1.2*1B
$GPGGA,142528.400,5029.3163478,N,03025.1816714,E,5,11,0.9,207.828,M,26.200,M,,0000*56
$GPRMC,142528.400,A,5029.3163478,N,03025.1816714,E,000.00,000.00,220418,,,F*62
$GPVTG,000.00,T,,M,000.00,N,000.00,K,F*3A
$PSTI,030,142528.400,A,5029.3163478,N,03025.1816714,E,207.828,0.00,0.00,0.02,220418,F,1.0,1.2*1F
$GPGGA,142528.600,5029.3163480,N,03025.1816711,E,5,11,0.9,207.828,M,26.200,M,,0000*56
$GPRMC,142528.600,A,5029.3163480,N,03025.1816711,E,000.00,000.00,220418,,,F*62
$GPVTG,000.00,T,,M,000.00,N,000.00,K,F*3A
$PSTI,030,142528.600,A,5029.3163480,N,03025.1816711,E,207.828,-0.00,0.00,0.00,220418,F,1.0,1.2*30
$GPGGA,142528.800,5029.3163476,N,03025.1816707,E,5,11,0.9,207.828,M,26.200,M,,0000*56
$GPRMC,142528.800,A,5029.3163476,N,03025.1816707,E,000.00,000.00,220418,,,F*62
$GPVTG,000.00,T,,M,000.00,N,000.00,K,F*3A
$PSTI,030,142528.800,A,5029.3163476,N,03025.1816707,E,207.828,-0.00,-0.01,-0.00,220418,F,1.0,1.2*31
$GPGGA,142529.000,5029.3163482,N,03025.1816705,E,5,11,0.9,207.828,M,26.200,M,,0000*56
$GPRMC,142529.000,A,5029.3163482,N,03025.1816705,E,000.00,000.00,220418,,,F*62
$GPVTG,000.00,T,,M,000.00,N,000.00,K,F*3A
$PSTI,030,142529.000,A,5029.3163482,N,03025.1816705,E,207.828,-0.00,0.01,0.00,220418,F,1.0,1.2*31
$PSTI,032,142529.000,220418,A,F,-5466.942,13844.093,-9.660,14884.438,338.45,,,,,*30
$GPGGA,142529.200,5029.3162507,N,03025.1816114,E,5,11,0.9,207.690,M,26.200,M,,0000*52
$GPGLL,5029.3162507,N,03025.1816114,E,142529.200,A,F*51
$GPGSA,A,3,25,29,02,12,31,,,,,,,,1.8,0.9,1.5*39
$GLGSA,A,3,74,73,75,84,83,85,,,,,,,1.8,0.9,1.5*25
$GPRMC,142529.200,A,5029.3162507,N,03025.1816114,E,000.00,000.00,220418,,,F*6B
$GPVTG,000.00,T,,M,000.00,N,000.00,K,F*3A
$GPZDA,142529.200,22,04,2018,00,00*52
$GPGST,142529.200,1.453,2.826,1.172,11.2,2.782,1.274,2.845*52
$PSTI,030,142529.200,A,5029.3162507,N,03025.1816114,E,207.690,-0.00,-0.00,0.01,220418,F,1.0,1.0*1A
$GPGGA,142529.400,5029.3162510,N,03025.1816111,E,5,11,0.9,207.691,M,26.200,M,,0000*56
$GPRMC,142529.400,A,5029.3162510,N,03025.1816111,E,000.00,000.00,220418,,,F*6E
$GPVTG,000.00,T,,M,000.00,N,000.00,K,F*3A
$PSTI,030,142529.400,A,5029.3162510,N,03025.1816111,E,207.691,-0.00,0.01,0.01,220418,F,1.0,1.0*32
$GPGGA,142529.600,5029.3162512,N,03025.1816109,E,5,11,0.9,207.691,M,26.200,M,,0000*5F
$GPRMC,142529.600,A,5029.3162512,N,03025.1816109,E,000.00,000.00,220418,,,F*67
$GPVTG,000.00,T,,M,000.00,N,000.00,K,F*3A
$PSTI,030,142529.600,A,5029.3162512,N,03025.1816109,E,207.691,-0.00,0.00,0.01,220418,F,1.0,1.0*3A
$GPGGA,142529.800,5029.3162515,N,03025.1816107,E,5,11,0.9,207.692,M,26.200,M,,0000*5B
$GPRMC,142529.800,A,5029.3162515,N,03025.1816107,E,000.00,000.00,220418,,,F*60
$GPVTG,000.00,T,,M,000.00,N,000.00,K,F*3A
$PSTI,030,142529.800,A,5029.3162515,N,03025.1816107,E,207.692,-0.00,0.01,0.00,220418,F,1.0,1.0*3E
$GPGGA,142530.000,5029.3162516,N,03025.1816101,E,5,11,0.9,207.692,M,26.200,M,,0000*5E
$GPRMC,142530.000,A,5029.3162516,N,03025.1816101,E,000.00,000.00,220418,,,F*65
$GPVTG,000.00,T,,M,000.00,N,000.00,K,F*3A
$PSTI,030,142530.000,A,5029.3162516,N,03025.1816101,E,207.692,-0.01,0.00,0.01,220418,F,1.0,1.0*3A
$PSTI,032,142530.000,220418,A,F,-5467.013,13843.914,-9.796,14884.297,338.45,,,,,*3E
$GPGGA,142530.200,5029.3160619,N,03025.1814882,E,5,11,0.9,206.767,M,26.200,M,,0000*58
$GPGLL,5029.3160619,N,03025.1814882,E,142530.200,A,F*53
$GPGSA,A,3,25,29,02,12,31,,,,,,,,1.8,0.9,1.5*39
$GLGSA,A,3,74,73,75,84,83,85,,,,,,,1.8,0.9,1.5*25
$GPGSV,4,1,13,25,88,241,52,29,59,257,50,02,47,064,47,12,46,118,51*76
$GPGSV,4,2,13,31,37,300,49,05,14,112,43,04,14,300,40,06,12,040,41*72
$GPGSV,4,3,13,14,08,276,40,193,08,058,39,24,02,174,39,26,01,301,39*43
$GPGSV,4,4,13,21,00,207,*4D
$GLGSV,3,1,09,74,77,268,48,84,75,249,43,83,42,042,46,73,38,162,48*64
$GLGSV,3,2,09,75,26,323,48,85,20,231,42,67,13,036,43,66,07,347,37*6E
$GLGSV,3,3,09,68,01,084,*5F
$GPRMC,142530.200,A,5029.3160619,N,03025.1814882,E,000.00,000.00,220418,,,F*69
$GPVTG,000.00,T,,M,000.00,N,000.00,K,F*3A
$GPZDA,142530.200,22,04,2018,00,00*5A
$GPGST,142530.200,0.007,0.014,0.006,11.2,0.013,0.006,0.014*53
$PSTI,030,142530.200,A,5029.3160619,N,03025.1814882,E,206.767,0.00,0.00,-0.00,220418,F,1.0,2.9*36
$GPGGA,142530.400,5029.3160616,N,03025.1814880,E,5,11,0.9,206.768,M,26.200,M,,0000*5C
$GPRMC,142530.400,A,5029.3160616,N,03025.1814880,E,000.00,000.00,220418,,,F*62
$GPVTG,000.00,T,,M,000.00,N,000.00,K,F*3A
$PSTI,030,142530.400,A,5029.3160616,N,03025.1814880,E,206.768,-0.00,-0.01,0.00,220418,F,1.0,2.9*1E
$GPGGA,142530.600,5029.3160618,N,03025.1814882,E,5,11,0.9,206.769,M,26.200,M,,0000*53
$GPRMC,142530.600,A,5029.3160618,N,03025.1814882,E,000.00,000.00,220418,,,F*6C
$GPVTG,000.00,T,,M,000.00,N,000.00,K,F*3A
$PSTI,030,142530.600,A,5029.3160618,N,03025.1814882,E,206.769,0.00,0.00,0.01,220418,F,1.0,2.9*11
$GPGGA,142530.800,5029.3160619,N,03025.1814883,E,5,11,0.9,206.769,M,26.200,M,,0000*5D
$GPRMC,142530.800,A,5029.3160619,N,03025.1814883,E,000.00,000.00,220418,,,F*62
$GPVTG,000.00,T,,M,000.00,N,000.00,K,F*3A
$PSTI,030,142530.800,A,5029.3160619,N,03025.1814883,E,206.769,0.00,0.00,0.00,220418,F,1.0,2.9*1E
$GPGGA,142531.000,5029.3160618,N,03025.1814882,E,5,11,0.9,206.769,M,26.200,M,,0000*54
$GPRMC,142531.000,A,5029.3160618,N,03025.1814882,E,000.00,000.00,220418,,,F*6B
$GPVTG,000.00,T,,M,000.00,N,000.00,K,F*3A
$PSTI,030,142531.000,A,5029.3160618,N,03025.1814882,E,206.769,-0.00,-0.00,0.01,220418,F,1.0,2.9*16
$PSTI,032,142531.000,220418,A,F,-5467.158,13843.562,-10.717,14884.022,338.45,,,,,*01
$GPGGA,142531.200,5029.3158739,N,03025.1814689,E,5,11,0.9,206.937,M,26.200,M,,0000*5F
$GPGLL,5029.3158739,N,03025.1814689,E,142531.200,A,F*5F
$GPGSA,A,3,25,29,02,12,31,,,,,,,,1.8,0.9,1.5*39
$GLGSA,A,3,74,73,75,84,83,85,,,,,,,1.8,0.9,1.5*25
$GPRMC,142531.200,A,5029.3158739,N,03025.1814689,E,000.00,000.00,220418,,,F*65
$GPVTG,000.00,T,,M,000.00,N,000.00,K,F*3A
$GPZDA,142531.200,22,04,2018,00,00*5B
$GPGST,142531.200,0.876,1.703,0.706,11.2,1.676,0.768,1.714*56
$PSTI,030,142531.200,A,5029.3158739,N,03025.1814689,E,206.937,-0.00,-0.00,0.00,220418,F,1.0,1.1*17
$GPGGA,142531.400,5029.3158739,N,03025.1814690,E,5,11,0.9,206.938,M,26.200,M,,0000*5E
$GPRMC,142531.400,A,5029.3158739,N,03025.1814690,E,000.00,000.00,220418,,,F*6B
$GPVTG,000.00,T,,M,000.00,N,000.00,K,F*3A
$PSTI,030,142531.400,A,5029.3158739,N,03025.1814690,E,206.938,0.00,-0.00,0.01,220418,F,1.0,1.1*3A
$GPGGA,142531.600,5029.3158736,N,03025.1814692,E,5,11,0.9,206.938,M,26.200,M,,0000*51
$GPRMC,142531.600,A,5029.3158736,N,03025.1814692,E,000.00,000.00,220418,,,F*64
$GPVTG,000.00,T,,M,000.00,N,000.00,K,F*3A
$PSTI,030,142531.600,A,5029.3158736,N,03025.1814692,E,206.938,0.00,-0.01,0.00,220418,F,1.0,1.1*35
$GPGGA,142531.800,5029.3158739,N,03025.1814692,E,5,11,0.9,206.940,M,26.200,M,,0000*5F
$GPRMC,142531.800,A,5029.3158739,N,03025.1814692,E,000.00,000.00,220418,,,F*65
$GPVTG,000.00,T,,M,000.00,N,000.00,K,F*3A
$PSTI,030,142531.800,A,5029.3158739,N,03025.1814692,E,206.940,-0.00,0.01,0.01,220418,F,1.0,1.1*3A
$GPGGA,142532.000,5029.3158742,N,03025.1814693,E,5,11,0.9,206.940,M,26.200,M,,0000*59
$GPRMC,142532.000,A,5029.3158742,N,03025.1814693,E,000.00,000.00,220418,,,F*63
$GPVTG,000.00,T,,M,000.00,N,000.00,K,F*3A
$PSTI,030,142532.000,A,5029.3158742,N,03025.1814693,E,206.940,0.00,0.01,0.00,220418,F,1.0,1.1*10
$PSTI,032,142532.000,220418,A,F,-5467.181,13843.214,-10.547,14883.708,338.45,,,,,*0F
$GPGGA,142532.200,5029.3157670,N,03025.1814349,E,5,11,0.9,206.459,M,26.200,M,,0000*53
$GPGLL,5029.3157670,N,03025.1814349,E,142532.200,A,F*56
$GPGSA,A,3,25,29,02,12,31,,,,,,,,1.8,0.9,1.5*39
$GLGSA,A,3,74,73,75,84,83,85,,,,,,,1.8,0.9,1.5*25
$GPRMC,142532.200,A,5029.3157670,N,03025.1814349,E,000.00,000.00,220418,,,F*6C
$GPVTG,000.00,T,,M,000.00,N,000.00,K,F*3A
$GPZDA,142532.200,22,04,2018,00,00*58
$GPGST,142532.200,0.883,1.716,0.712,11.2,1.689,0.774,1.728*5C
$PSTI,030,142532.200,A,5029.3157670,N,03025.1814349,E,206.459,-0.00,-0.00,0.01,220418,F,1.0,1.1*1A
$GPGGA,142532.400,5029.3157668,N,03025.1814348,E,5,11,0.9,206.460,M,26.200,M,,0000*57
$GPRMC,142532.400,A,5029.3157668,N,03025.1814348,E,000.00,000.00,220418,,,F*62
$GPVTG,000.00,T,,M,000.00,N,000.00,K,F*3A
$PSTI,030,142532.400,A,5029.3157668,N,03025.1814348,E,206.460,-0.00,-0.00,0.01,220418,F,1.0,1.1*1E
$GPGGA,142532.600,5029.3157668,N,03025.1814349,E,5,11,0.9,206.461,M,26.200,M,,0000*55
$GPRMC,142532.600,A,5029.3157668,N,03025.1814349,E,000.00,000.00,220418,,,F*61
$GPVTG,000.00,T,,M,000.00,N,000.00,K,F*3A
$PSTI,030,142532.600,A,5029.3157668,N,03025.1814349,E,206.461,0.00,-0.00,0.01,220418,F,1.0,1.1*31
$GPGGA,142532.800,5029.3157667,N,03025.1814353,E,5,11,0.9,206.462,M,26.200,M,,0000*5C
$GPRMC,142532.800,A,5029.3157667,N,03025.1814353,E,000.00,000.00,220418,,,F*6B
$GPVTG,000.00,T,,M,000.00,N,000.00,K,F*3A
$PSTI,030,142532.800,A,5029.3157667,N,03025.1814353,E,206.462,0.00,-0.00,0.01,220418,F,1.0,1.1*38
$GPGGA,142533.000,5029.3157667,N,03025.1814353,E,5,11,0.9,206.463,M,26.200,M,,0000*54
$GPRMC,142533.000,A,5029.3157667,N,03025.1814353,E,000.00,000.00,220418,,,F*62
$GPVTG,000.00,T,,M,000.00,N,000.00,K,F*3A
$PSTI,030,142533.000,A,5029.3157667,N,03025.1814353,E,206.463,0.00,-0.00,0.00,220418,F,1.0,1.1*31
$PSTI,032,142533.000,220418,A,F,-5467.221,13843.015,-11.025,14883.537,338.45,,,,,*0A
$GPGGA,142533.200,5029.3155941,N,03025.1813073,E,5,11,0.9,205.911,M,26.200,M,,0000*52
$GPGLL,5029.3155941,N,03025.1813073,E,142533.200,A,F*55
$GPGSA,A,3,25,29,02,12,31,,,,,,,,1.8,0.9,1.5*39
$GLGSA,A,3,74,73,75,84,83,85,,,,,,,1.8,0.9,1.5*25
$GPGSV,4,1,13,25,88,241,51,29,59,257,50,02,47,064,47,12,46,118,51*75
$GPGSV,4,2,13,31,37,300,49,05,14,112,44,04,14,300,40,06,12,040,41*75
$GPGSV,4,3,13,14,08,276,40,193,08,058,39,24,02,174,39,26,01,301,40*4D
$GPGSV,4,4,13,21,00,207,*4D
$GLGSV,3,1,09,74,77,268,48,84,75,249,43,83,42,042,46,73,38,162,48*64
$GLGSV,3,2,09,75,26,323,48,85,20,231,42,67,13,036,43,66,07,347,38*61
$GLGSV,3,3,09,68,01,084,*5F
$GPRMC,142533.200,A,5029.3155941,N,03025.1813073,E,000.00,000.00,220418,,,F*6F
$GPVTG,000.00,T,,M,000.00,N,000.00,K,F*3A
$GPZDA,142533.200,22,04,2018,00,00*59
$GPGST,142533.200,1.243,2.417,1.002,11.2,2.379,1.090,2.433*53
$PSTI,030,142533.200,A,5029.3155941,N,03025.1813073,E,205.911,-0.00,0.00,0.01,220418,F,1.0,1.0*37
$GPGGA,142533.400,5029.3155943,N,03025.1813078,E,5,11,0.9,205.912,M,26.200,M,,0000*5E
$GPRMC,142533.400,A,5029.3155943,N,03025.1813078,E,000.00,000.00,220418,,,F*60
$GPVTG,000.00,T,,M,000.00,N,000.00,K,F*3A
$PSTI,030,142533.400,A,5029.3155943,N,03025.1813078,E,205.912,0.01,0.00,0.01,220418,F,1.0,1.0*17
$GPGGA,142533.600,5029.3155943,N,03025.1813073,E,5,11,0.9,205.912,M,26.200,M,,0000*57
$GPRMC,142533.600,A,5029.3155943,N,03025.1813073,E,000.00,000.00,220418,,,F*69
$GPVTG,000.00,T,,M,000.00,N,000.00,K,F*3A
$PSTI,030,142533.600,A,5029.3155943,N,03025.1813073,E,205.912,-0.01,-0.00,0.00,220418,F,1.0,1.0*1F
$GPGGA,142533.800,5029.3155941,N,03025.1813068,E,5,11,0.9,205.912,M,26.200,M,,0000*51
$GPRMC,142533.800,A,5029.3155941,N,03025.1813068,E,000.00,000.00,220418,,,F*6F
$GPVTG,000.00,T,,M,000.00,N,000.00,K,F*3A
$PSTI,030,142533.800,A,5029.3155941,N,03025.1813068,E,205.912,-0.01,-0.00,0.01,220418,F,1.0,1.0*18
$GPGGA,142534.000,5029.3155945,N,03025.1813063,E,5,11,0.9,205.913,M,26.200,M,,0000*50
$GPRMC,142534.000,A,5029.3155945,N,03025.1813063,E,000.00,000.00,220418,,,F*6F
$GPVTG,000.00,T,,M,000.00,N,000.00,K,F*3A
$PSTI,030,142534.000,A,5029.3155945,N,03025.1813063,E,205.913,-0.01,0.01,0.00,220418,F,1.0,1.0*34
$PSTI,032,142534.000,220418,A,F,-5467.372,13842.692,-11.573,14883.293,338.45,,,,,*0D
$GPGGA,142534.200,5029.3153995,N,03025.1811839,E,5,11,0.9,205.358,M,26.200,M,,0000*59
$GPGLL,5029.3153995,N,03025.1811839,E,142534.200,A,F*59
$GPGSA,A,3,25,29,02,12,31,,,,,,,,1.8,0.9,1.5*39
$GLGSA,A,3,74,73,75,84,83,85,,,,,,,1.8,0.9,1.5*25
$GPRMC,142534.200,A,5029.3153995,N,03025.1811839,E,000.00,000.00,220418,,,F*63
$GPVTG,000.00,T,,M,000.00,N,000.00,K,F*3A
$GPZDA,142534.200,22,04,2018,00,00*5E
$GPGST,142534.200,1.133,2.204,0.914,11.2,2.169,0.994,2.219*5A
$PSTI,030,142534.200,A,5029.3153995,N,03025.1811839,E,205.358,0.00,0.01,-0.00,220418,F,1.0,2.1*3E
$GPGGA,142534.400,5029.3153994,N,03025.1811841,E,5,11,0.9,205.360,M,26.200,M,,0000*5A
$GPRMC,142534.400,A,5029.3153994,N,03025.1811841,E,000.00,000.00,220418,,,F*6B
$GPVTG,000.00,T,,M,000.00,N,000.00,K,F*3A
$PSTI,030,142534.400,A,5029.3153994,N,03025.1811841,E,205.360,0.00,-0.00,0.01,220418,F,1.0,2.1*3D
$GPGGA,142534.600,5029.3153992,N,03025.1811838,E,5,11,0.9,205.360,M,26.200,M,,0000*50
$GPRMC,142534.600,A,5029.3153992,N,03025.1811838,E,000.00,000.00,220418,,,F*61
$GPVTG,000.00,T,,M,000.00,N,000.00,K,F*3A
$PSTI,030,142534.600,A,5029.3153992,N,03025.1811838,E,205.360,-0.00,-0.00,-0.00,220418,F,1.0,2.1*36
$GPGGA,142534.800,5029.3153999,N,03025.1811834,E,5,11,0.9,205.360,M,26.200,M,,0000*59
$GPRMC,142534.800,A,5029.3153999,N,03025.1811834,E,000.00,000.00,220418,,,F*68
$GPVTG,000.00,T,,M,000.00,N,000.00,K,F*3A
$PSTI,030,142534.800,A,5029.3153999,N,03025.1811834,E,205.360,-0.01,0.01,0.00,220418,F,1.0,2.1*3F
$GPGGA,142535.000,5029.3154001,N,03025.1811834,E,5,11,0.9,205.360,M,26.200,M,,0000*5F
$GPRMC,142535.000,A,5029.3154001,N,03025.1811834,E,000.00,000.00,220418,,,F*6E
$GPVTG,000.00,T,,M,000.00,N,000.00,K,F*3A
$PSTI,030,142535.000,A,5029.3154001,N,03025.1811834,E,205.360,0.00,0.00,-0.00,220418,F,1.0,2.1*39
$PSTI,032,142535.000,220418,A,F,-5467.519,13842.330,-12.124,14883.011,338.45,,,,,*07
$GPGGA,142535.200,5029.3152102,N,03025.1810675,E,5,11,0.9,204.834,M,26.200,M,,0000*58
$GPGLL,5029.3152102,N,03025.1810675,E,142535.200,A,F*58
$GPGSA,A,3,25,29,02,12,31,,,,,,,,1.8,0.9,1.5*39
$GLGSA,A,3,74,73,75,84,83,85,,,,,,,1.8,0.9,1.5*25
$GPRMC,142535.200,A,5029.3152102,N,03025.1810675,E,000.00,000.00,220418,,,F*62
$GPVTG,000.00,T,,M,000.00,N,000.00,K,F*3A
$GPZDA,142535.200,22,04,2018,00,00*5F
$GPGST,142535.200,1.239,2.410,0.999,11.2,2.372,1.087,2.426*5C
$PSTI,030,142535.200,A,5029.3152102,N,03025.1810675,E,204.834,-0.01,-0.01,-0.00,220418,F,1.0,1.4*38
$GPGGA,142535.400,5029.3152105,N,03025.1810678,E,5,11,0.9,204.834,M,26.200,M,,0000*54
$GPRMC,142535.400,A,5029.3152105,N,03025.1810678,E,000.00,000.00,220418,,,F*6E
$GPVTG,000.00,T,,M,000.00,N,000.00,K,F*3A
$PSTI,030,142535.400,A,5029.3152105,N,03025.1810678,E,204.834,0.00,0.00,0.00,220418,F,1.0,1.4*19
$GPGGA,142535.600,5029.3152106,N,03025.1810680,E,5,11,0.9,204.835,M,26.200,M,,0000*53
$GPRMC,142535.600,A,5029.3152106,N,03025.1810680,E,000.00,000.00,220418,,,F*68
$GPVTG,000.00,T,,M,000.00,N,000.00,K,F*3A
$PSTI,030,142535.600,A,5029.3152106,N,03025.1810680,E,204.835,0.00,0.00,0.00,220418,F,1.0,1.4*1E
$GPGGA,142535.800,5029.3152103,N,03025.1810676,E,5,11,0.9,204.835,M,26.200,M,,0000*51
$GPRMC,142535.800,A,5029.3152103,N,03025.1810676,E,000.00,000.00,220418,,,F*6A
$GPVTG,000.00,T,,M,000.00,N,000.00,K,F*3A
$PSTI,030,142535.800,A,5029.3152103,N,03025.1810676,E,204.835,-0.00,-0.01,0.00,220418,F,1.0,1.4*1D
$GPGGA,142536.000,5029.3152108,N,03025.1810676,E,5,11,0.9,204.835,M,26.200,M,,0000*51
$GPRMC,142536.000,A,5029.3152108,N,03025.1810676,E,000.00,000.00,220418,,,F*6A
$GPVTG,000.00,T,,M,000.00,N,000.00,K,F*3A
$PSTI,030,142536.000,A,5029.3152108,N,03025.1810676,E,204.835,0.00,0.01,0.01,220418,F,1.0,1.4*1C
$PSTI,032,142536.000,220418,A,F,-5467.655,13841.979,-12.647,14882.735,338.45,,,,,*09
$GPGGA,142536.200,5029.3149973,N,03025.1809422,E,5,11,0.9,204.326,M,26.200,M,,0000*5F
$GPGLL,5029.3149973,N,03025.1809422,E,142536.200,A,F*57
$GPGSA,A,3,25,29,02,12,31,,,,,,,,1.8,0.9,1.5*39
$GLGSA,A,3,74,73,75,84,83,85,,,,,,,1.8,0.9,1.5*25
$GPGSV,4,1,13,25,88,241,52,29,59,257,50,02,47,064,47,12,46,118,51*76
$GPGSV,4,2,13,31,37,300,49,05,14,112,43,04,14,300,40,06,12,040,41*72
$GPGSV,4,3,13,14,08,276,40,193,08,058,39,24,02,174,38,26,01,301,40*4C
$GPGSV,4,4,13,21,01,207,*4C
$GLGSV,3,1,09,74,77,268,48,84,75,249,43,83,42,042,46,73,38,162,48*64
$GLGSV,3,2,09,75,26,323,48,85,20,231,42,67,13,036,43,66,07,347,38*61
$GLGSV,3,3,09,68,01,084,*5F
$GPRMC,142536.200,A,5029.3149973,N,03025.1809422,E,000.00,000.00,220418,,,F*6D
$GPVTG,000.00,T,,M,000.00,N,000.00,K,F*3A
$GPZDA,142536.200,22,04,2018,00,00*5C
$GPGST,142536.200,1.316,2.558,1.061,11.2,2.518,1.154,2.576*50
$PSTI,030,142536.200,A,5029.3149973,N,03025.1809422,E,204.326,-0.00,0.01,0.01,220418,F,1.0,2.7*3F
$GPGGA,142536.400,5029.3149974,N,03025.1809424,E,5,11,0.9,204.327,M,26.200,M,,0000*59
$GPRMC,142536.400,A,5029.3149974,N,03025.1809424,E,000.00,000.00,220418,,,F*6A
$GPVTG,000.00,T,,M,000.00,N,000.00,K,F*3A
$PSTI,030,142536.400,A,5029.3149974,N,03025.1809424,E,204.327,0.00,0.00,0.01,220418,F,1.0,2.7*15
$GPGGA,142536.600,5029.3149971,N,03025.1809424,E,5,11,0.9,204.327,M,26.200,M,,0000*5E
$GPRMC,142536.600,A,5029.3149971,N,03025.1809424,E,000.00,000.00,220418,,,F*6D
$GPVTG,000.00,T,,M,000.00,N,000.00,K,F*3A
$PSTI,030,142536.600,A,5029.3149971,N,03025.1809424,E,204.327,-0.00,-0.01,0.00,220418,F,1.0,2.7*12
$GPGGA,142536.800,5029.3149973,N,03025.1809423,E,5,11,0.9,204.327,M,26.200,M,,0000*55
$GPRMC,142536.800,A,5029.3149973,N,03025.1809423,E,000.00,000.00,220418,,,F*66
$GPVTG,000.00,T,,M,000.00,N,000.00,K,F*3A
$PSTI,030,142536.800,A,5029.3149973,N,03025.1809423,E,204.327,-0.00,0.00,0.00,220418,F,1.0,2.7*35
$GPGGA,142537.000,5029.3149975,N,03025.1809426,E,5,11,0.9,204.328,M,26.200,M,,0000*50
$GPRMC,142537.000,A,5029.3149975,N,03025.1809426,E,000.00,000.00,220418,,,F*6C
$GPVTG,000.00,T,,M,000.00,N,000.00,K,F*3A
$PSTI,030,142537.000,A,5029.3149975,N,03025.1809426,E,204.328,0.00,0.01,0.00,220418,F,1.0,2.7*1C
$PSTI,032,142537.000,220418,A,F,-5467.804,13841.583,-13.155,14882.421,338.44,,,,,*09
$GPGGA,142537.200,5029.3147904,N,03025.1808209,E,5,11,0.9,203.854,M,26.200,M,,0000*57
$GPGLL,5029.3147904,N,03025.1808209,E,142537.200,A,F*56
$GPGSA,A,3,25,29,02,12,31,,,,,,,,1.8,0.9,1.5*39
$GLGSA,A,3,74,73,75,84,83,85,,,,,,,1.8,0.9,1.5*25
$GPRMC,142537.200,A,5029.3147904,N,03025.1808209,E,000.00,000.00,220418,,,F*6C
$GPVTG,000.00,T,,M,000.00,N,000.00,K,F*3A
$GPZDA,142537.200,22,04,2018,00,00*5D
$GPGST,142537.200,1.187,2.308,0.957,11.2,2.272,1.041,2.325*5B
$PSTI,030,142537.200,A,5029.3147904,N,03025.1808209,E,203.854,-0.01,0.00,0.00,220418,F,1.0,1.3*31
$GPGGA,142537.400,5029.3147902,N,03025.1808205,E,5,11,0.9,203.854,M,26.200,M,,0000*5B
$GPRMC,142537.400,A,5029.3147902,N,03025.1808205,E,000.00,000.00,220418,,,F*60
$GPVTG,000.00,T,,M,000.00,N,000.00,K,F*3A
$PSTI,030,142537.400,A,5029.3147902,N,03025.1808205,E,203.854,-0.01,-0.00,0.00,220418,F,1.0,1.3*10
$GPGGA,142537.600,5029.3147902,N,03025.1808206,E,5,11,0.9,203.854,M,26.200,M,,0000*5A
$GPRMC,142537.600,A,5029.3147902,N,03025.1808206,E,000.00,000.00,220418,,,F*61
$GPVTG,000.00,T,,M,000.00,N,000.00,K,F*3A
$PSTI,030,142537.600,A,5029.3147902,N,03025.1808206,E,203.854,0.00,-0.00,0.00,220418,F,1.0,1.3*3D
$GPGGA,142537.800,5029.3147908,N,03025.1808205,E,5,11,0.9,203.854,M,26.200,M,,0000*5D
$GPRMC,142537.800,A,5029.3147908,N,03025.1808205,E,000.00,000.00,220418,,,F*66
$GPVTG,000.00,T,,M,000.00,N,000.00,K,F*3A
$PSTI,030,142537.800,A,5029.3147908,N,03025.1808205,E,203.854,-0.00,0.01,0.00,220418,F,1.0,1.3*3B
$GPGGA,142538.000,5029.3147904,N,03025.1808204,E,5,11,0.9,203.855,M,26.200,M,,0000*56
$GPRMC,142538.000,A,5029.3147904,N,03025.1808204,E,000.00,000.00,220418,,,F*6C
$GPVTG,000.00,T,,M,000.00,N,000.00,K,F*3A
$PSTI,030,142538.000,A,5029.3147904,N,03025.1808204,E,203.855,-0.00,-0.01,0.00,220418,F,1.0,1.3*1D
$PSTI,032,142538.000,220418,A,F,-5467.947,13841.198,-13.627,14882.117,338.44,,,,,*0C
$GPGGA,142538.200,5029.3145677,N,03025.1806971,E,5,11,0.9,203.396,M,26.200,M,,0000*5E
$GPGLL,5029.3145677,N,03025.1806971,E,142538.200,A,F*5A
$GPGSA,A,3,25,29,02,12,31,,,,,,,,1.8,0.9,1.5*39
$GLGSA,A,3,74,73,75,84,83,85,,,,,,,1.8,0.9,1.5*25
$GPRMC,142538.200,A,5029.3145677,N,03025.1806971,E,000.00,000.00,220418,,,F*60
$GPVTG,000.00,T,,M,000.00,N,000.00,K,F*3A
$GPZDA,142538.200,22,04,2018,00,00*52
$GPGST,142538.200,1.373,2.670,1.107,11.2,2.627,1.204,2.689*5F
$PSTI,030,142538.200,A,5029.3145677,N,03025.1806971,E,203.396,-0.00,-0.00,0.01,220418,F,1.0,1.5*13
$GPGGA,142538.400,5029.3145680,N,03025.1806970,E,5,11,0.9,203.397,M,26.200,M,,0000*50
$GPRMC,142538.400,A,5029.3145680,N,03025.1806970,E,000.00,000.00,220418,,,F*6F
$GPVTG,000.00,T,,M,000.00,N,000.00,K,F*3A
$PSTI,030,142538.400,A,5029.3145680,N,03025.1806970,E,203.397,-0.00,0.01,0.01,220418,F,1.0,1.5*31
$GPGGA,142538.600,5029.3145681,N,03025.1806967,E,5,11,0.9,203.398,M,26.200,M,,0000*5A
$GPRMC,142538.600,A,5029.3145681,N,03025.1806967,E,000.00,000.00,220418,,,F*6A
$GPVTG,000.00,T,,M,000.00,N,000.00,K,F*3A
$PSTI,030,142538.600,A,5029.3145681,N,03025.1806967,E,203.398,-0.00,0.00,0.01,220418,F,1.0,1.5*3A
$GPGGA,142538.800,5029.3145683,N,03025.1806970,E,5,11,0.9,203.398,M,26.200,M,,0000*50
$GPRMC,142538.800,A,5029.3145683,N,03025.1806970,E,000.00,000.00,220418,,,F*60
$GPVTG,000.00,T,,M,000.00,N,000.00,K,F*3A
$PSTI,030,142538.800,A,5029.3145683,N,03025.1806970,E,203.398,0.00,0.00,0.00,220418,F,1.0,1.5*1C
$GPGGA,142539.000,5029.3145686,N,03025.1806970,E,5,11,0.9,203.399,M,26.200,M,,0000*5D
$GPRMC,142539.000,A,5029.3145686,N,03025.1806970,E,000.00,000.00,220418,,,F*6C
$GPVTG,000.00,T,,M,000.00,N,000.00,K,F*3A
$PSTI,030,142539.000,A,5029.3145686,N,03025.1806970,E,203.399,-0.00,0.01,0.01,220418,F,1.0,1.5*3C
$PSTI,032,142539.000,220418,A,F,-5468.094,13840.785,-14.084,14881.787,338.44,,,,,*0A
$GPGGA,142539.200,5029.3143509,N,03025.1805722,E,5,11,0.9,202.904,M,26.200,M,,0000*58
$GPGLL,5029.3143509,N,03025.1805722,E,142539.200,A,F*5C
$GPGSA,A,3,25,29,02,12,31,,,,,,,,1.8,0.9,1.5*39
$GLGSA,A,3,74,73,75,84,83,85,,,,,,,1.8,0.9,1.5*25
$GPGSV,4,1,13,25,88,227,52,29,59,257,50,02,47,064,47,12,46,118,51*76
$GPGSV,4,2,13,31,37,300,49,05,14,112,43,04,14,300,40,06,12,040,42*71
$GPGSV,4,3,13,14,08,276,40,193,08,058,39,24,02,174,38,26,01,301,40*4C
$GPGSV,4,4,13,21,01,207,*4C
$GLGSV,3,1,09,74,77,268,45,84,75,249,43,83,42,042,46,73,38,162,48*69
$GLGSV,3,2,09,75,26,323,48,85,20,231,42,67,13,036,42,66,07,347,37*6F
$GLGSV,3,3,09,68,01,084,*5F
$GPRMC,142539.200,A,5029.3143509,N,03025.1805722,E,000.00,000.00,220418,,,F*66
$GPVTG,000.00,T,,M,000.00,N,000.00,K,F*3A
$GPZDA,142539.200,22,04,2018,00,00*53
$GPGST,142539.200,1.508,2.932,1.216,11.2,2.885,1.322,2.953*55
$PSTI,030,142539.200,A,5029.3143509,N,03025.1805722,E,202.904,-0.00,-0.01,-0.00,220418,F,1.0,1.7*3A
$GPGGA,142539.400,5029.3143509,N,03025.1805722,E,5,11,0.9,202.904,M,26.200,M,,0000*5E
$GPRMC,142539.400,A,5029.3143509,N,03025.1805722,E,000.00,000.00,220418,,,F*60
$GPVTG,000.00,T,,M,000.00,N,000.00,K,F*3A
$PSTI,030,142539.400,A,5029.3143509,N,03025.1805722,E,202.904,0.00,-0.00,0.00,220418,F,1.0,1.7*3D
$GPGGA,142539.600,5029.3143513,N,03025.1805720,E,5,11,0.9,202.905,M,26.200,M,,0000*54
$GPRMC,142539.600,A,5029.3143513,N,03025.1805720,E,000.00,000.00,220418,,,F*6B
$GPVTG,000.00,T,,M,000.00,N,000.00,K,F*3A
$PSTI,030,142539.600,A,5029.3143513,N,03025.1805720,E,202.905,-0.00,0.01,0.01,220418,F,1.0,1.7*37
$GPGGA,142539.800,5029.3143512,N,03025.1805716,E,5,11,0.9,202.906,M,26.200,M,,0000*5D
$GPRMC,142539.800,A,5029.3143512,N,03025.1805716,E,000.00,000.00,220418,,,F*61
$GPVTG,000.00,T,,M,000.00,N,000.00,K,F*3A
$PSTI,030,142539.800,A,5029.3143512,N,03025.1805716,E,202.906,-0.00,-0.00,0.01,220418,F,1.0,1.7*12
$GPGGA,142540.000,5029.3143511,N,03025.1805723,E,5,11,0.9,202.906,M,26.200,M,,0000*5E
$GPRMC,142540.000,A,5029.3143511,N,03025.1805723,E,000.00,000.00,220418,,,F*62
$GPVTG,000.00,T,,M,000.00,N,000.00,K,F*3A
$PSTI,030,142540.000,A,5029.3143511,N,03025.1805723,E,202.906,0.01,-0.00,0.01,220418,F,1.0,1.7*3D
$PSTI,032,142540.000,220418,A,F,-5468.241,13840.383,-14.574,14881.468,338.44,,,,,*04
$GPGGA,142540.200,5029.3141570,N,03025.1804495,E,5,11,0.9,202.387,M,26.200,M,,0000*55
$GPGLL,5029.3141570,N,03025.1804495,E,142540.200,A,F*50
$GPGSA,A,3,25,29,02,12,31,,,,,,,,1.8,0.9,1.5*39
$GLGSA,A,3,74,73,75,84,83,85,,,,,,,1.8,0.9,1.5*25
$GPRMC,142540.200,A,5029.3141570,N,03025.1804495,E,000.00,000.00,220418,,,F*6A
$GPVTG,000.00,T,,M,000.00,N,000.00,K,F*3A
$GPZDA,142540.200,22,04,2018,00,00*5D
$GPGST,142540.200,1.529,2.972,1.233,11.2,2.925,1.341,2.994*5E
$PSTI,030,142540.200,A,5029.3141570,N,03025.1804495,E,202.387,-0.01,0.00,0.02,220418,F,1.0,1.1*33
$GPGGA,142540.400,5029.3141572,N,03025.1804497,E,5,11,0.9,202.388,M,26.200,M,,0000*5C
$GPRMC,142540.400,A,5029.3141572,N,03025.1804497,E,000.00,000.00,220418,,,F*6C
$GPVTG,000.00,T,,M,000.00,N,000.00,K,F*3A
$PSTI,030,142540.400,A,5029.3141572,N,03025.1804497,E,202.388,0.00,0.00,0.01,220418,F,1.0,1.1*15
$GPGGA,142540.600,5029.3141572,N,03025.1804495,E,5,11,0.9,202.388,M,26.200,M,,0000*5C
$GPRMC,142540.600,A,5029.3141572,N,03025.1804495,E,000.00,000.00,220418,,,F*6C
$GPVTG,000.00,T,,M,000.00,N,000.00,K,F*3A
$PSTI,030,142540.600,A,5029.3141572,N,03025.1804495,E,202.388,-0.00,0.00,0.00,220418,F,1.0,1.1*39
$GPGGA,142540.800,5029.3141576,N,03025.1804495,E,5,11,0.9,202.389,M,26.200,M,,0000*57
$GPRMC,142540.800,A,5029.3141576,N,03025.1804495,E,000.00,000.00,220418,,,F*66
$GPVTG,000.00,T,,M,000.00,N,000.00,K,F*3A
$PSTI,030,142540.800,A,5029.3141576,N,03025.1804495,E,202.389,0.00,0.01,0.01,220418,F,1.0,1.1*1F
$GPGGA,142541.000,5029.3141575,N,03025.1804493,E,5,11,0.9,202.390,M,26.200,M,,0000*53
$GPRMC,142541.000,A,5029.3141575,N,03025.1804493,E,000.00,000.00,220418,,,F*6A
$GPVTG,000.00,T,,M,000.00,N,000.00,K,F*3A
$PSTI,030,142541.000,A,5029.3141575,N,03025.1804493,E,202.390,-0.00,-0.00,0.01,220418,F,1.0,1.1*1A
$PSTI,032,142541.000,220418,A,F,-5468.386,13840.021,-15.092,14881.186,338.44,,,,,*0D
$GPGGA,142541.200,5029.3141558,N,03025.1803324,E,5,11,0.9,201.486,M,26.200,M,,0000*51
$GPGLL,5029.3141558,N,03025.1803324,E,142541.200,A,F*51
$GPGSA,A,3,25,29,02,12,31,,,,,,,,1.8,0.9,1.5*39
$GLGSA,A,3,74,73,75,84,83,85,,,,,,,1.8,0.9,1.5*25
$GPRMC,142541.200,A,5029.3141558,N,03025.1803324,E,000.00,000.00,220418,,,F*6B
