$PSTI,030,120716.200,A,5104.2405396,N,00238.4326503,E,1.089,0.00,-0.00,-0.00,090817,F,1.0,2.3*16
$GPGGA,120716.400,5104.2405396,N,00238.4326509,E,5,15,0.7,1.090,M,46.200,M,,0000*5D
$GPRMC,120716.400,A,5104.2405396,N,00238.4326509,E,000.00,243.66,090817,,,F*65
$GPVTG,243.66,T,,M,000.00,N,000.00,K,F*3F
$PSTI,030,120716.400,A,5104.2405396,N,00238.4326509,E,1.090,0.01,-0.00,0.01,090817,F,1.0,2.3*3F
$GPGGA,120716.600,5104.2405394,N,00238.4326506,E,5,15,0.7,1.090,M,46.200,M,,0000*52
$GPRMC,120716.600,A,5104.2405394,N,00238.4326506,E,000.00,243.66,090817,,,F*6A
$GPVTG,243.66,T,,M,000.00,N,000.00,K,F*3F
$PSTI,030,120716.600,A,5104.2405394,N,00238.4326506,E,1.090,-0.00,-0.00,0.01,090817,F,1.0,2.3*1C
$GPGGA,120716.800,5104.2405396,N,00238.4326504,E,5,15,0.7,1.091,M,46.200,M,,0000*5D
$GPGLL,5104.2405396,N,00238.4326504,E,120716.800,A,F*51
$GPGSA,A,3,21,26,27,16,18,10,20,08,07,,,,1.5,0.7,1.3*33
$GLGSA,A,3,70,86,76,75,69,85,,,,,,,1.5,0.7,1.3*27
$GPRMC,120716.800,A,5104.2405396,N,00238.4326504,E,000.00,243.66,090817,,,F*64
$GPVTG,243.66,T,,M,000.00,N,000.00,K,F*3F
$GPZDA,120716.800,09,08,2017,00,00*58
$GPGST,120716.800,0.417,0.406,0.280,23.4,0.389,0.303,0.621*54
$PSTI,030,120716.800,A,5104.2405396,N,00238.4326504,E,1.091,-0.00,0.00,0.01,090817,F,1.0,2.3*3E
$GPGGA,120717.000,5104.2405398,N,00238.4326504,E,5,15,0.7,1.092,M,46.200,M,,0000*59
$GPRMC,120717.000,A,5104.2405398,N,00238.4326504,E,000.00,243.66,090817,,,F*63
$GPVTG,243.66,T,,M,000.00,N,000.00,K,F*3F
$PSTI,030,120717.000,A,5104.2405398,N,00238.4326504,E,1.092,-0.00,0.00,0.01,090817,F,1.0,2.3*3A
$PSTI,032,120717.000,090817,A,F,-178775.109,62075.613,-2936.881,189268.453,289.15,,,,,*36
$GPGGA,120717.200,5104.2405385,N,00238.4326508,E,5,15,0.7,1.097,M,46.200,M,,0000*5E
$GPRMC,120717.200,A,5104.2405385,N,00238.4326508,E,000.00,243.66,090817,,,F*61
$GPVTG,243.66,T,,M,000.00,N,000.00,K,F*3F
$PEFR0000,120317.200,4,FFFFFFFF,0000,1,4040,100,1,2,1,0,0,0*01
$PSTI,030,120717.200,A,5104.2405385,N,00238.4326508,E,1.097,0.01,0.00,0.00,090817,F,1.0,2.4*17
$GPGGA,120717.400,5104.2405386,N,00238.4326510,E,5,15,0.7,1.097,M,46.200,M,,0000*52
$GPRMC,120717.400,A,5104.2405386,N,00238.4326510,E,000.00,243.66,090817,,,F*6D
$GPVTG,243.66,T,,M,000.00,N,000.00,K,F*3F
$PSTI,030,120717.400,A,5104.2405386,N,00238.4326510,E,1.097,0.00,0.00,0.01,090817,F,1.0,2.4*1B
$GPGGA,120717.600,5104.2405387,N,00238.4326517,E,5,15,0.7,1.097,M,46.200,M,,0000*56
$GPRMC,120717.600,A,5104.2405387,N,00238.4326517,E,000.00,243.66,090817,,,F*69
$GPVTG,243.66,T,,M,000.00,N,000.00,K,F*3F
$PSTI,030,120717.600,A,5104.2405387,N,00238.4326517,E,1.097,0.01,0.00,0.00,090817,F,1.0,2.4*1F
$GPGGA,120717.800,5104.2405390,N,00238.4326520,E,5,15,0.7,1.098,M,46.200,M,,0000*55
$GPGLL,5104.2405390,N,00238.4326520,E,120717.800,A,F*50
$GPGSA,A,3,21,26,27,16,18,10,20,08,07,,,,1.5,0.7,1.3*33
$GLGSA,A,3,70,86,76,75,69,85,,,,,,,1.5,0.7,1.3*27
$GPGSV,4,1,14,04,80,302,47,16,69,205,46,27,65,293,49,21,49,064,45*74
$GPGSV,4,2,14,18,45,112,45,26,43,173,46,49,32,177,37,10,32,150,43*7F
$GPGSV,4,3,14,08,28,285,40,07,17,316,41,20,16,041,36,15,05,063,30*70
$GPGSV,4,4,14,13,03,032,31,30,01,344,*7F
$GLGSV,3,1,09,85,64,037,48,76,48,280,43,86,45,281,45,75,32,213,45*6E
$GLGSV,3,2,09,69,30,050,39,70,26,115,38,84,16,071,30,77,15,339,34*67
$GLGSV,3,3,09,68,05,006,38*5A
$GPRMC,120717.800,A,5104.2405390,N,00238.4326520,E,000.00,243.66,090817,,,F*65
$GPVTG,243.66,T,,M,000.00,N,000.00,K,F*3F
$GPZDA,120717.800,09,08,2017,00,00*59
$GPGST,120717.800,0.397,0.386,0.267,23.4,0.370,0.289,0.591*51
$PSTI,030,120717.800,A,5104.2405390,N,00238.4326520,E,1.098,0.00,0.00,0.00,090817,F,1.0,2.4*1D
$GPGGA,120718.000,5104.2405388,N,00238.4326518,E,5,15,0.7,1.098,M,46.200,M,,0000*50
$GPRMC,120718.000,A,5104.2405388,N,00238.4326518,E,000.00,243.66,090817,,,F*60
$GPVTG,243.66,T,,M,000.00,N,000.00,K,F*3F
$PSTI,030,120718.000,A,5104.2405388,N,00238.4326518,E,1.098,-0.00,-0.00,0.01,090817,F,1.0,2.4*19
$PSTI,032,120718.000,090817,A,F,-178775.109,62075.609,-2936.874,189268.453,289.15,,,,,*38
$GPGGA,120718.200,5104.2405374,N,00238.4326512,E,5,15,0.7,1.089,M,46.200,M,,0000*5B
$GPRMC,120718.200,A,5104.2405374,N,00238.4326512,E,000.00,243.66,090817,,,F*6B
$GPVTG,243.66,T,,M,000.00,N,000.00,K,F*3F
$PSTI,030,120718.200,A,5104.2405374,N,00238.4326512,E,1.089,-0.01,-0.00,0.01,090817,F,1.0,2.4*13
$GPGGA,120718.400,5104.2405372,N,00238.4326510,E,5,15,0.7,1.090,M,46.200,M,,0000*51
$GPRMC,120718.400,A,5104.2405372,N,00238.4326510,E,000.00,243.66,090817,,,F*69
$GPVTG,243.66,T,,M,000.00,N,000.00,K,F*3F
$PSTI,030,120718.400,A,5104.2405372,N,00238.4326510,E,1.090,-0.00,-0.00,0.00,090817,F,1.0,2.4*19
$GPGGA,120718.600,5104.2405372,N,00238.4326507,E,5,15,0.7,1.090,M,46.200,M,,0000*55
$GPRMC,120718.600,A,5104.2405372,N,00238.4326507,E,000.00,243.66,090817,,,F*6D
$GPVTG,243.66,T,,M,000.00,N,000.00,K,F*3F
$PSTI,030,120718.600,A,5104.2405372,N,00238.4326507,E,1.090,-0.00,0.00,0.00,090817,F,1.0,2.4*30
$GPGGA,120718.800,5104.2405377,N,00238.4326506,E,5,15,0.7,1.091,M,46.200,M,,0000*5E
$GPGLL,5104.2405377,N,00238.4326506,E,120718.800,A,F*52
$GPGSA,A,3,21,26,27,16,18,10,20,08,07,,,,1.5,0.7,1.3*33
$GLGSA,A,3,70,86,76,75,69,85,,,,,,,1.5,0.7,1.3*27
$GPRMC,120718.800,A,5104.2405377,N,00238.4326506,E,000.00,243.66,090817,,,F*67
$GPVTG,243.66,T,,M,000.00,N,000.00,K,F*3F
$GPZDA,120718.800,09,08,2017,00,00*56
$GPGST,120718.800,0.470,0.457,0.316,23.4,0.438,0.342,0.700*5B
$PSTI,030,120718.800,A,5104.2405377,N,00238.4326506,E,1.091,-0.00,0.01,0.01,090817,F,1.0,2.4*3B
$GPGGA,120719.000,5104.2405377,N,00238.4326511,E,5,15,0.7,1.091,M,46.200,M,,0000*51
$GPRMC,120719.000,A,5104.2405377,N,00238.4326511,E,000.00,243.66,090817,,,F*68
$GPVTG,243.66,T,,M,000.00,N,000.00,K,F*3F
$PSTI,030,120719.000,A,5104.2405377,N,00238.4326511,E,1.091,0.01,0.00,-0.00,090817,F,1.0,2.4*35
$PSTI,032,120719.000,090817,A,F,-178775.109,62075.609,-2936.882,189268.453,289.15,,,,,*30
$GPGGA,120719.200,5104.2405379,N,00238.4326486,E,5,15,0.7,1.088,M,46.200,M,,0000*5A
$GPRMC,120719.200,A,5104.2405379,N,00238.4326486,E,000.00,243.66,090817,,,F*6B
$GPVTG,243.66,T,,M,000.00,N,000.00,K,F*3F
$PSTI,030,120719.200,A,5104.2405379,N,00238.4326486,E,1.088,0.00,0.00,-0.00,090817,F,1.0,2.4*3F
$PEFR0000,120317.200,4,FFFFFFFF,0000,1,4040,100,1,2,1,0,0,0*01
$GPGGA,120719.400,5104.2405375,N,00238.4326485,E,5,15,0.7,1.088,M,46.200,M,,0000*53
$GPRMC,120719.400,A,5104.2405375,N,00238.4326485,E,000.00,243.66,090817,,,F*62
$GPVTG,243.66,T,,M,000.00,N,000.00,K,F*3F
$PSTI,030,120719.400,A,5104.2405375,N,00238.4326485,E,1.088,-0.00,-0.01,0.01,090817,F,1.0,2.4*1B
$GPGGA,120719.600,5104.2405374,N,00238.4326488,E,5,15,0.7,1.089,M,46.200,M,,0000*5C
$GPRMC,120719.600,A,5104.2405374,N,00238.4326488,E,000.00,243.66,090817,,,F*6C
$GPVTG,243.66,T,,M,000.00,N,000.00,K,F*3F
$PSTI,030,120719.600,A,5104.2405374,N,00238.4326488,E,1.089,0.00,-0.00,0.00,090817,F,1.0,2.4*39
$GPGGA,120719.800,5104.2405377,N,00238.4326489,E,5,15,0.7,1.089,M,46.200,M,,0000*50
$GPGLL,5104.2405377,N,00238.4326489,E,120719.800,A,F*55
$GPGSA,A,3,21,26,27,16,18,10,20,08,07,,,,1.5,0.7,1.3*33
$GLGSA,A,3,70,86,76,75,69,85,,,,,,,1.5,0.7,1.3*27
$GPRMC,120719.800,A,5104.2405377,N,00238.4326489,E,000.00,243.66,090817,,,F*60
$GPVTG,243.66,T,,M,000.00,N,000.00,K,F*3F
$GPZDA,120719.800,09,08,2017,00,00*57
$GPGST,120719.800,0.607,0.591,0.408,23.4,0.566,0.442,0.906*5E
$PSTI,030,120719.800,A,5104.2405377,N,00238.4326489,E,1.089,0.00,0.01,0.00,090817,F,1.0,2.4*19
$GPGGA,120720.000,5104.2405381,N,00238.4326494,E,5,15,0.7,1.090,M,46.200,M,,0000*5F
$GPRMC,120720.000,A,5104.2405381,N,00238.4326494,E,000.00,243.66,090817,,,F*67
$GPVTG,243.66,T,,M,000.00,N,000.00,K,F*3F
$PSTI,030,120720.000,A,5104.2405381,N,00238.4326494,E,1.090,0.01,0.01,0.01,090817,F,1.0,2.4*16
$PSTI,032,120720.000,090817,A,F,-178775.109,62075.609,-2936.883,189268.453,289.15,,,,,*3B
$GPGGA,120720.200,5104.2405407,N,00238.4326516,E,5,15,0.7,1.089,M,46.200,M,,0000*57
$GPRMC,120720.200,A,5104.2405407,N,00238.4326516,E,000.00,243.66,090817,,,F*67
$GPVTG,243.66,T,,M,000.00,N,000.00,K,F*3F
$PSTI,030,120720.200,A,5104.2405407,N,00238.4326516,E,1.089,-0.00,0.00,0.01,090817,F,1.0,2.4*33
$GPGGA,120720.400,5104.2405404,N,00238.4326519,E,5,15,0.7,1.089,M,46.200,M,,0000*5D
$GPRMC,120720.400,A,5104.2405404,N,00238.4326519,E,000.00,243.66,090817,,,F*6D
$GPVTG,243.66,T,,M,000.00,N,000.00,K,F*3F
$PSTI,030,120720.400,A,5104.2405404,N,00238.4326519,E,1.089,0.00,-0.01,0.01,090817,F,1.0,2.4*38
$GPGGA,120720.600,5104.2405404,N,00238.4326522,E,5,15,0.7,1.090,M,46.200,M,,0000*5F
$GPRMC,120720.600,A,5104.2405404,N,00238.4326522,E,000.00,243.66,090817,,,F*67
$GPVTG,243.66,T,,M,000.00,N,000.00,K,F*3F
$PSTI,030,120720.600,A,5104.2405404,N,00238.4326522,E,1.090,0.00,-0.00,0.01,090817,F,1.0,2.4*3B
$GPGGA,120720.800,5104.2405405,N,00238.4326518,E,5,15,0.7,1.090,M,46.200,M,,0000*59
$GPGLL,5104.2405405,N,00238.4326518,E,120720.800,A,F*54
$GPGSA,A,3,21,26,27,16,18,10,20,08,07,,,,1.5,0.7,1.3*33
$GLGSA,A,3,70,86,76,75,69,85,,,,,,,1.5,0.7,1.3*27
$GPGSV,4,1,14,04,80,302,47,16,69,205,46,27,65,293,49,21,49,064,45*74
$GPGSV,4,2,14,18,45,112,45,26,43,173,46,49,32,177,37,10,32,150,43*7F
$GPGSV,4,3,14,08,28,285,40,07,17,316,40,20,16,041,36,15,05,063,30*71
$GPGSV,4,4,14,13,03,032,31,30,01,344,*7F
$GLGSV,3,1,09,85,64,037,48,76,48,280,43,86,45,281,45,75,31,213,44*6C
$GLGSV,3,2,09,69,30,050,39,70,26,115,38,84,16,071,30,77,15,339,34*67
$GLGSV,3,3,09,68,05,006,38*5A
$GPRMC,120720.800,A,5104.2405405,N,00238.4326518,E,000.00,243.66,090817,,,F*61
$GPVTG,243.66,T,,M,000.00,N,000.00,K,F*3F
$GPZDA,120720.800,09,08,2017,00,00*5D
$GPGST,120720.800,0.657,0.640,0.442,23.4,0.613,0.478,0.980*56
$PSTI,030,120720.800,A,5104.2405405,N,00238.4326518,E,1.090,-0.00,0.00,0.00,090817,F,1.0,2.4*3C
$GPGGA,120721.000,5104.2405407,N,00238.4326521,E,5,15,0.7,1.090,M,46.200,M,,0000*58
$GPRMC,120721.000,A,5104.2405407,N,00238.4326521,E,000.00,243.66,090817,,,F*60
$GPVTG,243.66,T,,M,000.00,N,000.00,K,F*3F
$PSTI,030,120721.000,A,5104.2405407,N,00238.4326521,E,1.090,0.00,0.00,0.00,090817,F,1.0,2.4*10
$PSTI,032,120721.000,090817,A,F,-178775.109,62075.613,-2936.883,189268.453,289.15,,,,,*31
$GPGGA,120721.200,5104.2405381,N,00238.4326506,E,5,15,0.7,1.092,M,46.200,M,,0000*54
$GPRMC,120721.200,A,5104.2405381,N,00238.4326506,E,000.00,243.66,090817,,,F*6E
$GPVTG,243.66,T,,M,000.00,N,000.00,K,F*3F
$PSTI,030,120721.200,A,5104.2405381,N,00238.4326506,E,1.092,0.00,0.01,0.00,090817,F,1.0,2.4*1D
$GPGGA,120721.400,5104.2405377,N,00238.4326506,E,5,15,0.7,1.092,M,46.200,M,,0000*5B
$GPRMC,120721.400,A,5104.2405377,N,00238.4326506,E,000.00,243.66,090817,,,F*61
$GPVTG,243.66,T,,M,000.00,N,000.00,K,F*3F
$PSTI,030,120721.400,A,5104.2405377,N,00238.4326506,E,1.092,-0.00,-0.01,0.00,090817,F,1.0,2.4*12
$PEFR0000,120317.200,4,FFFFFFFF,0000,1,4040,100,1,2,1,0,0,0*01
$GPGGA,120721.600,5104.2405378,N,00238.4326507,E,5,15,0.7,1.093,M,46.200,M,,0000*56
$GPRMC,120721.600,A,5104.2405378,N,00238.4326507,E,000.00,243.66,090817,,,F*6D
$GPVTG,243.66,T,,M,000.00,N,000.00,K,F*3F
$PSTI,030,120721.600,A,5104.2405378,N,00238.4326507,E,1.093,0.00,0.00,0.01,090817,F,1.0,2.4*1F
$GPGGA,120721.800,5104.2405381,N,00238.4326509,E,5,15,0.7,1.094,M,46.200,M,,0000*57
$GPGLL,5104.2405381,N,00238.4326509,E,120721.800,A,F*5E
$GPGSA,A,3,21,26,27,16,18,10,20,08,07,,,,1.5,0.7,1.3*33
$GLGSA,A,3,70,86,76,75,69,85,,,,,,,1.5,0.7,1.3*27
$GPRMC,120721.800,A,5104.2405381,N,00238.4326509,E,000.00,243.66,090817,,,F*6B
$GPVTG,243.66,T,,M,000.00,N,000.00,K,F*3F
$GPZDA,120721.800,09,08,2017,00,00*5C
$GPGST,120721.800,0.527,0.513,0.355,23.4,0.492,0.384,0.787*51
$PSTI,030,120721.800,A,5104.2405381,N,00238.4326509,E,1.094,0.00,0.01,0.01,090817,F,1.0,2.4*1F
$GPGGA,120722.000,5104.2405382,N,00238.4326515,E,5,15,0.7,1.094,M,46.200,M,,0000*52
$GPRMC,120722.000,A,5104.2405382,N,00238.4326515,E,000.00,243.66,090817,,,F*6E
$GPVTG,243.66,T,,M,000.00,N,000.00,K,F*3F
$PSTI,030,120722.000,A,5104.2405382,N,00238.4326515,E,1.094,0.01,0.00,0.00,090817,F,1.0,2.4*1B
$PSTI,032,120722.000,090817,A,F,-178775.109,62075.609,-2936.879,189268.453,289.15,,,,,*3C
$GPGGA,120722.200,5104.2405382,N,00238.4326525,E,5,15,0.7,1.081,M,46.200,M,,0000*57
$GPRMC,120722.200,A,5104.2405382,N,00238.4326525,E,000.00,243.66,090817,,,F*6F
$GPVTG,243.66,T,,M,000.00,N,000.00,K,F*3F
$PSTI,030,120722.200,A,5104.2405382,N,00238.4326525,E,1.081,-0.00,-0.00,0.01,090817,F,1.0,2.4*1E
$GPGGA,120722.400,5104.2405384,N,00238.4326519,E,5,15,0.7,1.082,M,46.200,M,,0000*5B
$GPRMC,120722.400,A,5104.2405384,N,00238.4326519,E,000.00,243.66,090817,,,F*60
$GPVTG,243.66,T,,M,000.00,N,000.00,K,F*3F
$PSTI,030,120722.400,A,5104.2405384,N,00238.4326519,E,1.082,-0.01,0.00,0.01,090817,F,1.0,2.4*3E
$GPGGA,120722.600,5104.2405382,N,00238.4326523,E,5,15,0.7,1.082,M,46.200,M,,0000*56
$GPRMC,120722.600,A,5104.2405382,N,00238.4326523,E,000.00,243.66,090817,,,F*6D
$GPVTG,243.66,T,,M,000.00,N,000.00,K,F*3F
$PSTI,030,120722.600,A,5104.2405382,N,00238.4326523,E,1.082,0.00,-0.00,0.00,090817,F,1.0,2.4*33
$GPGGA,120722.800,5104.2405380,N,00238.4326525,E,5,15,0.7,1.082,M,46.200,M,,0000*5C
$GPGLL,5104.2405380,N,00238.4326525,E,120722.800,A,F*52
$GPGSA,A,3,21,26,27,16,18,10,20,08,07,,,,1.5,0.7,1.3*33
$GLGSA,A,3,70,86,76,75,69,85,,,,,,,1.5,0.7,1.3*27
$GPRMC,120722.800,A,5104.2405380,N,00238.4326525,E,000.00,243.66,090817,,,F*67
$GPVTG,243.66,T,,M,000.00,N,000.00,K,F*3F
$GPZDA,120722.800,09,08,2017,00,00*5F
$GPGST,120722.800,0.576,0.560,0.387,23.4,0.537,0.419,0.859*5C
$PSTI,030,120722.800,A,5104.2405380,N,00238.4326525,E,1.082,0.00,-0.00,0.00,090817,F,1.0,2.4*39
$GPGGA,120723.000,5104.2405379,N,00238.4326523,E,5,15,0.7,1.082,M,46.200,M,,0000*55
$GPRMC,120723.000,A,5104.2405379,N,00238.4326523,E,000.00,243.66,090817,,,F*6E
$GPVTG,243.66,T,,M,000.00,N,000.00,K,F*3F
$PSTI,030,120723.000,A,5104.2405379,N,00238.4326523,E,1.082,-0.00,-0.00,0.00,090817,F,1.0,2.4*1D
$PSTI,032,120723.000,090817,A,F,-178775.109,62075.609,-2936.891,189268.453,289.15,,,,,*3B
$GPGGA,120723.200,5104.2405385,N,00238.4326535,E,5,15,0.7,1.086,M,46.200,M,,0000*57
$GPRMC,120723.200,A,5104.2405385,N,00238.4326535,E,000.00,243.66,090817,,,F*68
$GPVTG,243.66,T,,M,000.00,N,000.00,K,F*3F
$PSTI,030,120723.200,A,5104.2405385,N,00238.4326535,E,1.086,0.00,0.00,0.01,090817,F,1.0,2.4*1E
$GPGGA,120723.400,5104.2405387,N,00238.4326537,E,5,15,0.7,1.085,M,46.200,M,,0000*52
$GPRMC,120723.400,A,5104.2405387,N,00238.4326537,E,000.00,243.66,090817,,,F*6E
$GPVTG,243.66,T,,M,000.00,N,000.00,K,F*3F
$PSTI,030,120723.400,A,5104.2405387,N,00238.4326537,E,1.085,0.00,0.00,-0.00,090817,F,1.0,2.4*37
$GPGGA,120723.600,5104.2405389,N,00238.4326537,E,5,15,0.7,1.086,M,46.200,M,,0000*5D
$PEFR0000,120317.200,4,FFFFFFFF,0000,1,4040,100,1,2,1,0,0,0*01
$GPRMC,120723.600,A,5104.2405389,N,00238.4326537,E,000.00,243.66,090817,,,F*62
$GPVTG,243.66,T,,M,000.00,N,000.00,K,F*3F
$PSTI,030,120723.600,A,5104.2405389,N,00238.4326537,E,1.086,-0.00,0.00,0.00,090817,F,1.0,2.4*38
$GPGGA,120723.800,5104.2405391,N,00238.4326537,E,5,15,0.7,1.086,M,46.200,M,,0000*5A
$GPGLL,5104.2405391,N,00238.4326537,E,120723.800,A,F*50
$GPGSA,A,3,21,26,27,16,18,10,20,08,07,,,,1.5,0.7,1.3*33
$GLGSA,A,3,70,86,76,75,69,85,,,,,,,1.5,0.7,1.3*27
$GPGSV,4,1,14,04,80,302,47,16,69,205,46,27,65,293,49,21,49,064,45*74
$GPGSV,4,2,14,18,45,112,45,26,43,173,46,49,32,177,37,10,32,150,43*7F
$GPGSV,4,3,14,08,28,285,40,07,17,316,40,20,16,041,35,15,05,063,29*7A
$GPGSV,4,4,14,13,03,032,31,30,01,344,*7F
$GLGSV,3,1,09,85,64,037,48,76,48,280,43,86,45,281,45,75,31,213,45*6D
$GLGSV,3,2,09,69,30,050,39,70,26,115,37,84,16,071,30,77,15,338,34*69
$GLGSV,3,3,09,68,05,006,38*5A
$GPRMC,120723.800,A,5104.2405391,N,00238.4326537,E,000.00,243.66,090817,,,F*65
$GPVTG,243.66,T,,M,000.00,N,000.00,K,F*3F
$GPZDA,120723.800,09,08,2017,00,00*5E
$GPGST,120723.800,0.586,0.570,0.394,23.4,0.547,0.427,0.876*56
$PSTI,030,120723.800,A,5104.2405391,N,00238.4326537,E,1.086,0.00,0.00,0.00,090817,F,1.0,2.4*12
$GPGGA,120724.000,5104.2405389,N,00238.4326527,E,5,15,0.7,1.087,M,46.200,M,,0000*5C
$GPRMC,120724.000,A,5104.2405389,N,00238.4326527,E,000.00,243.66,090817,,,F*62
$GPVTG,243.66,T,,M,000.00,N,000.00,K,F*3F
$PSTI,030,120724.000,A,5104.2405389,N,00238.4326527,E,1.087,-0.01,-0.00,0.01,090817,F,1.0,2.4*14
$PSTI,032,120724.000,090817,A,F,-178775.109,62075.609,-2936.885,189268.453,289.15,,,,,*39
$GPGGA,120724.200,5104.2405346,N,00238.4326479,E,5,15,0.7,1.097,M,46.200,M,,0000*56
$GPRMC,120724.200,A,5104.2405346,N,00238.4326479,E,000.00,243.66,090817,,,F*69
$GPVTG,243.66,T,,M,000.00,N,000.00,K,F*3F
$PSTI,030,120724.200,A,5104.2405346,N,00238.4326479,E,1.097,-0.03,-0.01,0.00,090817,F,1.0,2.4*1C
$GPGGA,120724.400,5104.2405335,N,00238.4326438,E,5,15,0.7,1.097,M,46.200,M,,0000*51
$GPRMC,120724.400,A,5104.2405335,N,00238.4326438,E,000.00,243.66,090817,,,F*6E
$GPVTG,243.66,T,,M,000.00,N,000.00,K,F*3F
$PSTI,030,120724.400,A,5104.2405335,N,00238.4326438,E,1.097,-0.05,-0.02,0.00,090817,F,1.0,2.4*1E
$GPGGA,120724.600,5104.2405296,N,00238.4326307,E,5,15,0.7,1.099,M,46.200,M,,0000*5E
$GPRMC,120724.600,A,5104.2405296,N,00238.4326307,E,000.16,245.11,090817,,,F*6E
$GPVTG,245.11,T,,M,000.16,N,000.31,K,F*3C
$PSTI,030,120724.600,A,5104.2405296,N,00238.4326307,E,1.099,-0.08,-0.04,0.01,090817,F,1.0,2.4*1B
$GPGGA,120724.800,5104.2405192,N,00238.4325978,E,5,15,0.7,1.096,M,46.200,M,,0000*59
$GPGLL,5104.2405192,N,00238.4325978,E,120724.800,A,F*52
$GPGSA,A,3,21,26,27,16,18,10,20,08,07,,,,1.5,0.7,1.3*33
$GLGSA,A,3,70,86,76,75,69,85,,,,,,,1.5,0.7,1.3*27
$GPRMC,120724.800,A,5104.2405192,N,00238.4325978,E,000.42,243.41,090817,,,F*64
$GPVTG,243.41,T,,M,000.42,N,000.77,K,F*3C
$GPZDA,120724.800,09,08,2017,00,00*59
$GPGST,120724.800,0.630,0.613,0.424,23.4,0.588,0.459,0.942*59
$PSTI,030,120724.800,A,5104.2405192,N,00238.4325978,E,1.096,-0.19,-0.10,-0.01,090817,F,1.0,2.4*34
$GPGGA,120725.000,5104.2405034,N,00238.4325479,E,5,15,0.7,1.094,M,46.200,M,,0000*53
$GPRMC,120725.000,A,5104.2405034,N,00238.4325479,E,000.63,243.31,090817,,,F*68
$GPVTG,243.31,T,,M,000.63,N,001.17,K,F*3F
$PSTI,030,120725.000,A,5104.2405034,N,00238.4325479,E,1.094,-0.29,-0.15,-0.01,090817,F,1.0,2.4*38
$PSTI,032,120725.000,090817,A,F,-178775.109,62075.605,-2936.874,189268.453,289.15,,,,,*3A
$GPGGA,120725.200,5104.2404753,N,00238.4324638,E,5,15,0.7,1.100,M,46.200,M,,0000*5C
$GPRMC,120725.200,A,5104.2404753,N,00238.4324638,E,000.83,242.87,090817,,,F*69
$GPVTG,242.87,T,,M,000.83,N,001.54,K,F*3A
$PSTI,030,120725.200,A,5104.2404753,N,00238.4324638,E,1.100,-0.38,-0.20,0.01,090817,F,1.0,2.5*1D
$GPGGA,120725.400,5104.2404542,N,00238.4323923,E,5,15,0.7,1.107,M,46.200,M,,0000*5D
$GPRMC,120725.400,A,5104.2404542,N,00238.4323923,E,000.90,244.81,090817,,,F*6D
$GPVTG,244.81,T,,M,000.90,N,001.66,K,F*39
$PSTI,030,120725.400,A,5104.2404542,N,00238.4323923,E,1.107,-0.42,-0.20,0.04,090817,F,1.0,2.5*14
$GPGGA,120725.600,5104.2404305,N,00238.4323176,E,5,15,0.7,1.103,M,46.200,M,,0000*56
$GPRMC,120725.600,A,5104.2404305,N,00238.4323176,E,000.95,243.29,090817,,,F*62
$GPVTG,243.29,T,,M,000.95,N,001.76,K,F*38
$PSTI,030,120725.600,A,5104.2404305,N,00238.4323176,E,1.103,-0.44,-0.22,-0.02,090817,F,1.0,2.5*30
$PEFR0000,120317.200,4,FFFFFFFF,0000,1,4040,100,1,2,1,0,0,0*01
$GPGGA,120725.800,5104.2404051,N,00238.4322274,E,5,15,0.7,1.107,M,46.200,M,,0000*5E
$GPGLL,5104.2404051,N,00238.4322274,E,120725.800,A,F*5C
$GPGSA,A,3,21,26,27,16,18,10,20,08,07,,,,1.5,0.7,1.3*33
$GLGSA,A,3,70,86,76,75,69,85,,,,,,,1.5,0.7,1.3*27
$GPRMC,120725.800,A,5104.2404051,N,00238.4322274,E,001.12,245.96,090817,,,F*62
$GPVTG,245.96,T,,M,001.12,N,002.08,K,F*3E
$GPZDA,120725.800,09,08,2017,00,00*58
$GPGST,120725.800,0.762,0.741,0.512,23.4,0.710,0.555,1.138*56
$PSTI,030,120725.800,A,5104.2404051,N,00238.4322274,E,1.107,-0.53,-0.23,0.02,090817,F,1.0,2.5*12
$GPGGA,120726.000,5104.2403713,N,00238.4321268,E,5,15,0.7,1.112,M,46.200,M,,0000*59
$GPRMC,120726.000,A,5104.2403713,N,00238.4321268,E,001.29,241.87,090817,,,F*6D
$GPVTG,241.87,T,,M,001.29,N,002.40,K,F*3E
$PSTI,030,120726.000,A,5104.2403713,N,00238.4321268,E,1.112,-0.59,-0.31,0.03,090817,F,1.0,2.5*1D
$PSTI,032,120726.000,090817,A,F,-178775.250,62075.535,-2936.876,189268.562,289.15,,,,,*37
$GPGGA,120726.200,5104.2403350,N,00238.4320138,E,5,15,0.7,1.109,M,46.200,M,,0000*55
$GPRMC,120726.200,A,5104.2403350,N,00238.4320138,E,001.42,241.25,090817,,,F*6E
$GPVTG,241.25,T,,M,001.42,N,002.64,K,F*3D
$PSTI,030,120726.200,A,5104.2403350,N,00238.4320138,E,1.109,-0.64,-0.35,0.02,090817,F,1.0,2.5*1A
$GPGGA,120726.400,5104.2402992,N,00238.4318848,E,5,15,0.7,1.111,M,46.200,M,,0000*5A
$GPRMC,120726.400,A,5104.2402992,N,00238.4318848,E,001.60,246.25,090817,,,F*6F
$GPVTG,246.25,T,,M,001.60,N,002.96,K,F*37
$PSTI,030,120726.400,A,5104.2402992,N,00238.4318848,E,1.111,-0.75,-0.33,0.01,090817,F,1.0,2.5*10
$GPGGA,120726.600,5104.2402566,N,00238.4317384,E,5,15,0.7,1.120,M,46.200,M,,0000*59
$GPRMC,120726.600,A,5104.2402566,N,00238.4317384,E,001.83,245.21,090817,,,F*64
$GPVTG,245.21,T,,M,001.83,N,003.39,K,F*39
$PSTI,030,120726.600,A,5104.2402566,N,00238.4317384,E,1.120,-0.86,-0.39,0.05,090817,F,1.0,2.5*11
$GPGGA,120726.800,5104.2402085,N,00238.4315729,E,5,15,0.7,1.114,M,46.200,M,,0000*59
$GPGLL,5104.2402085,N,00238.4315729,E,120726.800,A,F*59
$GPGSA,A,3,21,26,27,16,18,10,20,08,07,,,,1.5,0.7,1.3*33
$GLGSA,A,3,70,86,76,75,69,85,,,,,,,1.5,0.7,1.3*27
$GPGSV,4,1,14,04,80,302,47,16,69,205,46,27,65,293,49,21,49,064,45*74
$GPGSV,4,2,14,18,45,112,44,26,43,173,46,49,32,177,37,10,32,150,43*7E
$GPGSV,4,3,14,08,28,285,40,07,17,316,40,20,16,041,35,15,05,063,29*7A
$GPGSV,4,4,14,13,03,032,31,30,01,344,*7F
$GLGSV,3,1,09,85,64,037,48,76,48,280,43,86,45,281,45,75,31,213,44*6C
$GLGSV,3,2,09,69,30,050,39,70,26,115,37,84,16,071,30,77,15,338,34*69
$GLGSV,3,3,09,68,05,006,39*5B
$GPRMC,120726.800,A,5104.2402085,N,00238.4315729,E,002.07,245.23,090817,,,F*6E
$GPVTG,245.23,T,,M,002.07,N,003.83,K,F*35
$PSTI,030,120726.800,A,5104.2402085,N,00238.4315729,E,1.114,-0.97,-0.45,-0.03,090817,F,1.0,2.5*31
$GPGGA,120727.000,5104.2401521,N,00238.4313772,E,5,15,0.7,1.118,M,46.200,M,,0000*5C
$GPRMC,120727.000,A,5104.2401521,N,00238.4313772,E,002.44,245.40,090817,,,F*65
$GPVTG,245.40,T,,M,002.44,N,004.53,K,F*3D
$PSTI,030,120727.000,A,5104.2401521,N,00238.4313772,E,1.118,-1.14,-0.52,0.02,090817,F,1.0,2.5*14
$PSTI,032,120727.000,090817,A,F,-178775.734,62075.324,-2936.879,189268.953,289.15,,,,,*36
$GPGGA,120727.200,5104.2400827,N,00238.4311570,E,5,15,0.7,1.137,M,46.200,M,,0000*5B
$GPRMC,120727.200,A,5104.2400827,N,00238.4311570,E,002.76,244.66,090817,,,F*6B
$GPVTG,244.66,T,,M,002.76,N,005.11,K,F*3E
$PSTI,030,120727.200,A,5104.2400827,N,00238.4311570,E,1.137,-1.28,-0.61,0.01,090817,F,1.0,2.5*1F
$GPGGA,120727.400,5104.2400144,N,00238.4309222,E,5,15,0.7,1.144,M,46.200,M,,0000*5C
$GPRMC,120727.400,A,5104.2400144,N,00238.4309222,E,002.94,245.21,090817,,,F*66
$GPVTG,245.21,T,,M,002.94,N,005.44,K,F*30
$PSTI,030,120727.400,A,5104.2400144,N,00238.4309222,E,1.144,-1.37,-0.63,0.04,090817,F,1.0,2.5*11
$GPGGA,120727.600,5104.2399383,N,00238.4306608,E,5,15,0.7,1.137,M,46.200,M,,0000*57
$GPRMC,120727.600,A,5104.2399383,N,00238.4306608,E,003.27,245.19,090817,,,F*6B
$GPVTG,245.19,T,,M,003.27,N,006.06,K,F*37
$PSTI,030,120727.600,A,5104.2399383,N,00238.4306608,E,1.137,-1.53,-0.71,-0.04,090817,F,1.0,2.5*36
$GPGGA,120727.800,5104.2398540,N,00238.4303851,E,5,15,0.7,1.140,M,46.200,M,,0000*56
$GPGLL,5104.2398540,N,00238.4303851,E,120727.800,A,F*57
$GPGSA,A,3,21,26,27,16,18,10,20,08,07,,,,1.5,0.7,1.3*33
$GLGSA,A,3,70,86,76,75,69,85,,,,,,,1.5,0.7,1.3*27
$GPRMC,120727.800,A,5104.2398540,N,00238.4303851,E,003.48,244.13,090817,,,F*68
$PEFR0000,120317.200,4,FFFFFFFF,0000,1,4040,100,1,2,1,0,0,0*01
$GPVTG,244.13,T,,M,003.48,N,006.44,K,F*33
$GPZDA,120727.800,09,08,2017,00,00*5A
$GPGST,120727.800,0.952,0.925,0.640,23.4,0.887,0.693,1.423*56
$PSTI,030,120727.800,A,5104.2398540,N,00238.4303851,E,1.140,-1.61,-0.78,0.02,090817,F,1.0,2.5*14
$GPGGA,120728.000,5104.2397673,N,00238.4300983,E,5,15,0.7,1.135,M,46.200,M,,0000*52
$GPRMC,120728.000,A,5104.2397673,N,00238.4300983,E,003.61,244.35,090817,,,F*61
$GPVTG,244.35,T,,M,003.61,N,006.69,K,F*33
$PSTI,030,120728.000,A,5104.2397673,N,00238.4300983,E,1.135,-1.68,-0.80,-0.03,090817,F,1.0,2.5*32
$PSTI,032,120728.000,090817,A,F,-178776.625,62074.938,-2936.873,189269.656,289.15,,,,,*3C
$GPGGA,120728.200,5104.2396798,N,00238.4298065,E,5,15,0.7,1.123,M,46.200,M,,0000*53
$GPRMC,120728.200,A,5104.2396798,N,00238.4298065,E,003.68,245.22,090817,,,F*69
$GPVTG,245.22,T,,M,003.68,N,006.81,K,F*3B
$PSTI,030,120728.200,A,5104.2396798,N,00238.4298065,E,1.123,-1.72,-0.79,-0.03,090817,F,1.0,2.5*3E
$GPGGA,120728.400,5104.2395861,N,00238.4295111,E,5,15,0.7,1.114,M,46.200,M,,0000*54
$GPRMC,120728.400,A,5104.2395861,N,00238.4295111,E,003.76,243.26,090817,,,F*67
$GPVTG,243.26,T,,M,003.76,N,006.96,K,F*30
$PSTI,030,120728.400,A,5104.2395861,N,00238.4295111,E,1.114,-1.73,-0.87,-0.05,090817,F,1.0,2.5*3F
$GPGGA,120728.600,5104.2395003,N,00238.4292109,E,5,15,0.7,1.118,M,46.200,M,,0000*58
$GPRMC,120728.600,A,5104.2395003,N,00238.4292109,E,003.74,245.62,090817,,,F*63
$GPVTG,245.62,T,,M,003.74,N,006.93,K,F*31
$PSTI,030,120728.600,A,5104.2395003,N,00238.4292109,E,1.118,-1.75,-0.79,0.02,090817,F,1.0,2.5*1E
$GPGGA,120728.800,5104.2394074,N,00238.4289075,E,5,15,0.7,1.109,M,46.200,M,,0000*57
$GPGLL,5104.2394074,N,00238.4289075,E,120728.800,A,F*5B
$GPGSA,A,3,21,26,27,16,18,10,20,08,07,,,,1.5,0.7,1.3*33
$GLGSA,A,3,70,86,76,75,69,85,,,,,,,1.5,0.7,1.3*27
$GPRMC,120728.800,A,5104.2394074,N,00238.4289075,E,003.83,244.06,090817,,,F*67
$GPVTG,244.06,T,,M,003.83,N,007.09,K,F*38
$GPZDA,120728.800,09,08,2017,00,00*55
$GPGST,120728.800,0.846,0.823,0.569,23.4,0.788,0.616,1.266*58
$PSTI,030,120728.800,A,5104.2394074,N,00238.4289075,E,1.109,-1.77,-0.86,-0.05,090817,F,1.0,2.5*39
$GPGGA,120729.000,5104.2393158,N,00238.4286091,E,5,15,0.7,1.107,M,46.200,M,,0000*5D
$GPRMC,120729.000,A,5104.2393158,N,00238.4286091,E,003.77,244.03,090817,,,F*6D
$GPVTG,244.03,T,,M,003.77,N,006.98,K,F*3F
$PSTI,030,120729.000,A,5104.2393158,N,00238.4286091,E,1.107,-1.74,-0.85,-0.01,090817,F,1.0,2.5*37
$PSTI,032,120729.000,090817,A,F,-178778.141,62074.281,-2936.913,189270.875,289.15,,,,,*3F
$GPGGA,120729.200,5104.2392129,N,00238.4283067,E,5,15,0.7,1.092,M,46.200,M,,0000*59
$GPRMC,120729.200,A,5104.2392129,N,00238.4283067,E,003.91,241.54,090817,,,F*6B
$GPVTG,241.54,T,,M,003.91,N,007.25,K,F*37
$PSTI,030,120729.200,A,5104.2392129,N,00238.4283067,E,1.092,-1.77,-0.96,-0.05,090817,F,1.0,2.5*36
$GPGGA,120729.400,5104.2391127,N,00238.4279940,E,5,15,0.7,1.082,M,46.200,M,,0000*5A
$GPRMC,120729.400,A,5104.2391127,N,00238.4279940,E,003.98,243.04,090817,,,F*67
$GPVTG,243.04,T,,M,003.98,N,007.38,K,F*35
$PSTI,030,120729.400,A,5104.2391127,N,00238.4279940,E,1.082,-1.83,-0.93,-0.05,090817,F,1.0,2.5*3B
$GPGGA,120729.600,5104.2390274,N,00238.4276875,E,5,15,0.7,1.079,M,46.200,M,,0000*50
$GPRMC,120729.600,A,5104.2390274,N,00238.4276875,E,003.80,246.17,090817,,,F*67
$GPVTG,246.17,T,,M,003.80,N,007.04,K,F*34
$PSTI,030,120729.600,A,5104.2390274,N,00238.4276875,E,1.079,-1.79,-0.79,-0.01,090817,F,1.0,2.5*34
$GPGGA,120729.800,5104.2389346,N,00238.4273732,E,5,15,0.7,1.075,M,46.200,M,,0000*53
$GPGLL,5104.2389346,N,00238.4273732,E,120729.800,A,F*55
$GPGSA,A,3,21,26,27,16,18,10,20,08,07,,,,1.5,0.7,1.3*33
$GLGSA,A,3,70,86,76,75,69,85,,,,,,,1.5,0.7,1.3*27
$GPGSV,4,1,14,04,80,302,47,16,69,205,47,27,65,293,49,21,49,064,44*74
$GPGSV,4,2,14,18,45,112,44,26,43,173,46,49,32,177,37,10,32,150,43*7E
$GPGSV,4,3,14,08,28,285,41,07,17,316,43,20,16,041,36,15,05,063,27*75
$GPGSV,4,4,14,13,03,032,27,30,01,344,*78
$GLGSV,3,1,09,85,64,038,47,76,48,280,44,86,45,281,46,75,31,213,44*68
$GLGSV,3,2,09,69,30,050,38,70,26,115,37,84,15,072,28,77,15,338,33*66
$GLGSV,3,3,09,68,05,006,37*55
$GPRMC,120729.800,A,5104.2389346,N,00238.4273732,E,003.94,244.90,090817,,,F*60
$GPVTG,244.90,T,,M,003.94,N,007.30,K,F*3B
$GPZDA,120729.800,09,08,2017,00,00*54
$GPGST,120729.800,0.864,0.840,0.582,23.4,0.805,0.629,1.293*55
$PSTI,030,120729.800,A,5104.2389346,N,00238.4273732,E,1.075,-1.84,-0.86,-0.02,090817,F,1.0,2.5*36
$PEFR0000,120317.200,4,FFFFFFFF,0000,1,4064,100,1,2,1,0,0,0*07
$GPGGA,120730.000,5104.2388420,N,00238.4270687,E,5,15,0.7,1.067,M,46.200,M,,0000*5A
$GPRMC,120730.000,A,5104.2388420,N,00238.4270687,E,003.84,244.22,090817,,,F*62
$GPVTG,244.22,T,,M,003.84,N,007.11,K,F*30
$PSTI,030,120730.000,A,5104.2388420,N,00238.4270687,E,1.067,-1.78,-0.86,-0.04,090817,F,1.0,2.5*3A
$PSTI,032,120730.000,090817,A,F,-178779.906,62073.508,-2936.982,189272.297,289.15,,,,,*30
$GPGGA,120730.200,5104.2387479,N,00238.4267631,E,5,15,0.7,1.039,M,46.200,M,,0000*5B
$GPRMC,120730.200,A,5104.2387479,N,00238.4267631,E,003.87,244.21,090817,,,F*68
$GPVTG,244.21,T,,M,003.87,N,007.17,K,F*36
$PSTI,030,120730.200,A,5104.2387479,N,00238.4267631,E,1.039,-1.79,-0.87,-0.04,090817,F,1.0,2.5*3B
$GPGGA,120730.400,5104.2386600,N,00238.4264498,E,5,15,0.7,1.026,M,46.200,M,,0000*5C
$GPRMC,120730.400,A,5104.2386600,N,00238.4264498,E,003.89,246.00,090817,,,F*6E
$GPVTG,246.00,T,,M,003.89,N,007.21,K,F*3C
$PSTI,030,120730.400,A,5104.2386600,N,00238.4264498,E,1.026,-1.83,-0.81,-0.07,090817,F,1.0,2.5*3C
$GPGGA,120730.600,5104.2385627,N,00238.4261467,E,5,15,0.7,1.016,M,46.200,M,,0000*5E
$GPRMC,120730.600,A,5104.2385627,N,00238.4261467,E,003.86,242.98,090817,,,F*65
$GPVTG,242.98,T,,M,003.86,N,007.15,K,F*31
$PSTI,030,120730.600,A,5104.2385627,N,00238.4261467,E,1.016,-1.77,-0.90,-0.05,090817,F,1.0,2.5*37
$GPGGA,120730.800,5104.2384618,N,00238.4258424,E,5,15,0.7,1.005,M,46.200,M,,0000*52
$GPGLL,5104.2384618,N,00238.4258424,E,120730.800,A,F*53
$GPGSA,A,3,21,26,27,16,18,10,20,08,07,,,,1.5,0.7,1.3*33
$GLGSA,A,3,70,86,76,75,69,85,,,,,,,1.5,0.7,1.3*27
$GPRMC,120730.800,A,5104.2384618,N,00238.4258424,E,003.90,242.27,090817,,,F*68
$GPVTG,242.27,T,,M,003.90,N,007.23,K,F*37
$GPZDA,120730.800,09,08,2017,00,00*5C
$GPGST,120730.800,0.852,0.828,0.574,23.3,0.794,0.620,1.276*5D
$PSTI,030,120730.800,A,5104.2384618,N,00238.4258424,E,1.005,-1.78,-0.93,-0.05,090817,F,1.0,2.5*37
$GPGGA,120731.000,5104.2383708,N,00238.4255399,E,5,15,0.7,1.003,M,46.200,M,,0000*56
$GPRMC,120731.000,A,5104.2383708,N,00238.4255399,E,003.81,244.47,090817,,,F*6A
$GPVTG,244.47,T,,M,003.81,N,007.05,K,F*33
$PSTI,030,120731.000,A,5104.2383708,N,00238.4255399,E,1.003,-1.77,-0.84,-0.01,090817,F,1.0,2.5*3E
$PSTI,032,120731.000,090817,A,F,-178781.734,62072.688,-2937.081,189273.750,289.15,,,,,*37
$GPGGA,120731.200,5104.2382730,N,00238.4252322,E,5,15,0.7,0.983,M,46.200,M,,0000*59
$GPRMC,120731.200,A,5104.2382730,N,00238.4252322,E,003.90,243.32,090817,,,F*60
$GPVTG,243.32,T,,M,003.90,N,007.22,K,F*33
$PSTI,030,120731.200,A,5104.2382730,N,00238.4252322,E,0.983,-1.79,-0.90,-0.08,090817,F,1.0,2.5*33
$GPGGA,120731.400,5104.2381764,N,00238.4249237,E,5,15,0.7,0.984,M,46.200,M,,0000*55
$GPRMC,120731.400,A,5104.2381764,N,00238.4249237,E,003.91,243.58,090817,,,F*66
$GPVTG,243.58,T,,M,003.91,N,007.25,K,F*39
$PSTI,030,120731.400,A,5104.2381764,N,00238.4249237,E,0.984,-1.80,-0.90,0.00,090817,F,1.0,2.5*1C
$GPGGA,120731.600,5104.2380772,N,00238.4246152,E,5,15,0.7,0.968,M,46.200,M,,0000*5C
$GPRMC,120731.600,A,5104.2380772,N,00238.4246152,E,003.93,242.95,090817,,,F*6F
$GPVTG,242.95,T,,M,003.93,N,007.28,K,F*36
$PSTI,030,120731.600,A,5104.2380772,N,00238.4246152,E,0.968,-1.80,-0.92,-0.08,090817,F,1.0,2.5*32
$GPGGA,120731.800,5104.2379769,N,00238.4243090,E,5,15,0.7,0.962,M,46.200,M,,0000*5E
$GPGLL,5104.2379769,N,00238.4243090,E,120731.800,A,F*56
$GPGSA,A,3,21,26,27,16,18,10,20,08,07,,,,1.5,0.7,1.3*33
$GLGSA,A,3,70,86,76,75,69,85,,,,,,,1.5,0.7,1.3*27
$GPRMC,120731.800,A,5104.2379769,N,00238.4243090,E,003.92,242.54,090817,,,F*6B
$GPVTG,242.54,T,,M,003.92,N,007.26,K,F*34
$GPZDA,120731.800,09,08,2017,00,00*5D
$GPGST,120731.800,0.848,0.824,0.571,23.3,0.790,0.617,1.270*58
$PSTI,030,120731.800,A,5104.2379769,N,00238.4243090,E,0.962,-1.79,-0.93,-0.03,090817,F,1.0,2.5*3C
$GPGGA,120732.000,5104.2378707,N,00238.4239958,E,5,15,0.7,0.957,M,46.200,M,,0000*5A
$GPRMC,120732.000,A,5104.2378707,N,00238.4239958,E,004.04,241.71,090817,,,F*65
$GPVTG,241.71,T,,M,004.04,N,007.48,K,F*30
$PSTI,030,120732.000,A,5104.2378707,N,00238.4239958,E,0.957,-1.83,-0.98,-0.03,090817,F,1.0,2.5*36
$PSTI,032,120732.000,090817,A,F,-178783.547,62071.875,-2937.172,189275.203,289.15,,,,,*37
$PEFR0000,120317.200,4,FFFFFFFF,0000,1,4064,100,1,2,1,0,0,0*07
$GPGGA,120732.200,5104.2377749,N,00238.4236841,E,5,15,0.7,0.948,M,46.200,M,,0000*55
$GPRMC,120732.200,A,5104.2377749,N,00238.4236841,E,003.96,243.73,090817,,,F*68
$GPVTG,243.73,T,,M,003.96,N,007.34,K,F*37
$PSTI,030,120732.200,A,5104.2377749,N,00238.4236841,E,0.948,-1.83,-0.90,-0.03,090817,F,1.0,2.6*32
$GPGGA,120732.400,5104.2376781,N,00238.4233552,E,5,15,0.7,0.944,M,46.200,M,,0000*50
$GPRMC,120732.400,A,5104.2376781,N,00238.4233552,E,004.12,244.95,090817,,,F*65
$GPVTG,244.95,T,,M,004.12,N,007.63,K,F*31
$PSTI,030,120732.400,A,5104.2376781,N,00238.4233552,E,0.944,-1.92,-0.90,-0.02,090817,F,1.0,2.6*36
$GPGGA,120732.600,5104.2375811,N,00238.4230335,E,5,15,0.7,0.940,M,46.200,M,,0000*57
$GPRMC,120732.600,A,5104.2375811,N,00238.4230335,E,004.05,244.42,090817,,,F*6A
$GPVTG,244.42,T,,M,004.05,N,007.50,K,F*3D
$PSTI,030,120732.600,A,5104.2375811,N,00238.4230335,E,0.940,-1.88,-0.90,-0.02,090817,F,1.0,2.6*3A
$GPGGA,120732.800,5104.2374676,N,00238.4227321,E,5,15,0.7,0.940,M,46.200,M,,0000*54
$GPGLL,5104.2374676,N,00238.4227321,E,120732.800,A,F*5C
$GPGSA,A,3,21,26,27,16,18,10,20,08,07,,,,1.5,0.7,1.3*33
$GLGSA,A,3,70,86,76,75,69,85,,,,,,,1.5,0.7,1.3*27
$GPGSV,4,1,14,04,80,302,47,16,69,205,47,27,65,293,49,21,49,064,44*74
$GPGSV,4,2,14,18,45,112,44,26,43,173,46,49,32,177,38,10,32,150,43*71
$GPGSV,4,3,14,08,28,285,41,07,17,316,42,20,16,041,36,15,05,063,21*72
$GPGSV,4,4,14,13,03,032,30,30,01,344,*7E
$GLGSV,3,1,09,85,64,038,47,76,48,280,44,86,46,282,45,75,31,213,45*6A
$GLGSV,3,2,09,69,30,050,38,70,26,115,37,84,15,072,29,77,15,338,34*60
$GLGSV,3,3,09,68,05,006,36*54
$GPRMC,120732.800,A,5104.2374676,N,00238.4227321,E,003.99,239.14,090817,,,F*62
$GPVTG,239.14,T,,M,003.99,N,007.38,K,F*38
$GPZDA,120732.800,09,08,2017,00,00*5E
$GPGST,120732.800,0.881,0.855,0.593,23.3,0.820,0.641,1.319*5D
$PSTI,030,120732.800,A,5104.2374676,N,00238.4227321,E,0.940,-1.76,-1.05,0.00,090817,F,1.0,2.6*1A
$GPGGA,120733.000,5104.2373550,N,00238.4224230,E,5,15,0.7,0.935,M,46.200,M,,0000*5D
$GPRMC,120733.000,A,5104.2373550,N,00238.4224230,E,004.05,239.97,090817,,,F*60
$GPVTG,239.97,T,,M,004.05,N,007.51,K,F*3E
$PSTI,030,120733.000,A,5104.2373550,N,00238.4224230,E,0.935,-1.81,-1.04,-0.02,090817,F,1.0,2.6*35
$PSTI,032,120733.000,090817,A,F,-178785.375,62071.016,-2937.259,189276.656,289.15,,,,,*37
$GPGGA,120733.200,5104.2372389,N,00238.4220886,E,5,15,0.7,0.938,M,46.200,M,,0000*52
$GPRMC,120733.200,A,5104.2372389,N,00238.4220886,E,004.31,242.13,090817,,,F*65
$GPVTG,242.13,T,,M,004.31,N,007.99,K,F*3D
$PSTI,030,120733.200,A,5104.2372389,N,00238.4220886,E,0.938,-1.96,-1.04,-0.02,090817,F,1.0,2.6*3C
$GPGGA,120733.400,5104.2371278,N,00238.4217538,E,5,15,0.7,0.938,M,46.200,M,,0000*54
$GPRMC,120733.400,A,5104.2371278,N,00238.4217538,E,004.30,242.23,090817,,,F*61
$GPVTG,242.23,T,,M,004.30,N,007.96,K,F*30
$PSTI,030,120733.400,A,5104.2371278,N,00238.4217538,E,0.938,-1.96,-1.03,-0.00,090817,F,1.0,2.6*3F
$GPGGA,120733.600,5104.2370255,N,00238.4214328,E,5,15,0.7,0.936,M,46.200,M,,0000*52
$GPRMC,120733.600,A,5104.2370255,N,00238.4214328,E,004.08,243.16,090817,,,F*65
$GPVTG,243.16,T,,M,004.08,N,007.56,K,F*30
$PSTI,030,120733.600,A,5104.2370255,N,00238.4214328,E,0.936,-1.87,-0.95,-0.01,090817,F,1.0,2.6*36
$GPGGA,120733.800,5104.2369198,N,00238.4211018,E,5,15,0.7,0.947,M,46.200,M,,0000*55
$GPGLL,5104.2369198,N,00238.4211018,E,120733.800,A,F*5A
$GPGSA,A,3,21,26,27,16,18,10,20,08,07,,,,1.5,0.7,1.3*33
$GLGSA,A,3,70,86,76,75,69,85,,,,,,,1.5,0.7,1.3*27
$GPRMC,120733.800,A,5104.2369198,N,00238.4211018,E,004.21,243.14,090817,,,F*6D
$GPVTG,243.14,T,,M,004.21,N,007.80,K,F*32
$GPZDA,120733.800,09,08,2017,00,00*5F
$GPGST,120733.800,0.783,0.761,0.527,23.3,0.729,0.570,1.173*5F
$PSTI,030,120733.800,A,5104.2369198,N,00238.4211018,E,0.947,-1.93,-0.98,0.06,090817,F,1.0,2.6*13
$GPGGA,120734.000,5104.2368008,N,00238.4207553,E,5,15,0.7,0.936,M,46.200,M,,0000*58
$GPRMC,120734.000,A,5104.2368008,N,00238.4207553,E,004.48,241.41,090817,,,F*6B
$GPVTG,241.41,T,,M,004.48,N,008.30,K,F*3B
$PSTI,030,120734.000,A,5104.2368008,N,00238.4207553,E,0.936,-2.02,-1.10,-0.05,090817,F,1.0,2.6*3A
$PSTI,032,120734.000,090817,A,F,-178787.250,62070.113,-2937.315,189278.125,289.15,,,,,*35
$GPGGA,120734.200,5104.2366903,N,00238.4204218,E,5,15,0.7,0.933,M,46.200,M,,0000*58
$GPRMC,120734.200,A,5104.2366903,N,00238.4204218,E,004.27,242.56,090817,,,F*62
$PEFR0000,120317.200,4,FFFFFFFF,0000,1,4040,100,1,2,1,0,0,0*01
$GPVTG,242.56,T,,M,004.27,N,007.91,K,F*33
$PSTI,030,120734.200,A,5104.2366903,N,00238.4204218,E,0.933,-1.95,-1.01,0.04,090817,F,1.0,2.6*1B
$GPGGA,120734.400,5104.2365820,N,00238.4200828,E,5,15,0.7,0.923,M,46.200,M,,0000*51
$GPRMC,120734.400,A,5104.2365820,N,00238.4200828,E,004.32,243.11,090817,,,F*6C
$GPVTG,243.11,T,,M,004.32,N,007.99,K,F*3D
$PSTI,030,120734.400,A,5104.2365820,N,00238.4200828,E,0.923,-1.98,-1.00,-0.05,090817,F,1.0,2.6*32
$GPGGA,120734.600,5104.2364532,N,00238.4197340,E,5,15,0.7,0.915,M,46.200,M,,0000*51
$GPRMC,120734.600,A,5104.2364532,N,00238.4197340,E,004.59,239.63,090817,,,F*6C
$GPVTG,239.63,T,,M,004.59,N,008.50,K,F*32
$PSTI,030,120734.600,A,5104.2364532,N,00238.4197340,E,0.915,-2.04,-1.19,-0.04,090817,F,1.0,2.6*3D
$GPGGA,120734.800,5104.2363186,N,00238.4193921,E,5,15,0.7,0.911,M,46.200,M,,0000*5E
$GPGLL,5104.2363186,N,00238.4193921,E,120734.800,A,F*52
$GPGSA,A,3,21,26,27,16,18,10,20,08,07,,,,1.5,0.7,1.3*33
$GLGSA,A,3,70,86,76,75,69,85,,,,,,,1.5,0.7,1.3*27
$GPRMC,120734.800,A,5104.2363186,N,00238.4193921,E,004.58,238.00,090817,,,F*62
$GPVTG,238.00,T,,M,004.58,N,008.48,K,F*3E
$GPZDA,120734.800,09,08,2017,00,00*58
$GPGST,120734.800,0.574,0.557,0.386,23.3,0.534,0.418,0.860*53
$PSTI,030,120734.800,A,5104.2363186,N,00238.4193921,E,0.911,-2.00,-1.25,-0.02,090817,F,1.0,2.6*3F
$GPGGA,120735.200,5104.2360679,N,00238.4187424,E,5,15,0.7,0.912,M,46.200,M,,0000*5F
$GPRMC,120735.200,A,5104.2360679,N,00238.4187424,E,004.40,240.67,090817,,,F*67
$GPVTG,240.67,T,,M,004.40,N,008.15,K,F*31
$PSTI,030,120735.200,A,5104.2360679,N,00238.4187424,E,0.912,-1.97,-1.11,-0.03,090817,F,1.0,2.6*35
$GPGGA,120735.400,5104.2359481,N,00238.4184022,E,5,15,0.7,0.908,M,46.200,M,,0000*5C
$GPRMC,120735.400,A,5104.2359481,N,00238.4184022,E,004.42,240.79,090817,,,F*62
$GPVTG,240.79,T,,M,004.42,N,008.19,K,F*30
$PSTI,030,120735.400,A,5104.2359481,N,00238.4184022,E,0.908,-1.99,-1.11,-0.02,090817,F,1.0,2.6*39
$GPGGA,120735.600,5104.2358203,N,00238.4180655,E,5,15,0.7,0.900,M,46.200,M,,0000*59
$GPRMC,120735.600,A,5104.2358203,N,00238.4180655,E,004.46,238.94,090817,,,F*67
$GPVTG,238.94,T,,M,004.46,N,008.27,K,F*35
$PSTI,030,120735.600,A,5104.2358203,N,00238.4180655,E,0.900,-1.97,-1.18,-0.04,090817,F,1.0,2.6*3D
$GPGGA,120735.800,5104.2356944,N,00238.4177228,E,5,15,0.7,0.894,M,46.200,M,,0000*5B
$GPGLL,5104.2356944,N,00238.4177228,E,120735.800,A,F*5B
$GPGSA,A,3,21,26,27,16,18,10,20,08,07,,,,1.5,0.7,1.3*33
$GLGSA,A,3,70,86,76,75,69,85,,,,,,,1.5,0.7,1.3*27
$GPGSV,4,1,14,04,80,302,47,16,69,205,46,27,65,293,49,21,49,064,45*74
$GPGSV,4,2,14,18,45,112,44,26,43,173,46,49,32,177,38,10,32,150,42*70
$GPGSV,4,3,14,08,28,285,42,07,17,316,43,20,16,041,35,15,05,063,23*71
$GPGSV,4,4,14,13,03,032,31,30,01,344,*7F
$GLGSV,3,1,09,85,64,038,47,76,48,280,44,86,46,282,46,75,31,213,45*69
$GLGSV,3,2,09,69,30,050,37,70,26,115,37,84,15,072,30,77,15,338,34*67
$GLGSV,3,3,09,68,05,006,37*55
$GPRMC,120735.800,A,5104.2356944,N,00238.4177228,E,004.50,239.74,090817,,,F*61
$GPVTG,239.74,T,,M,004.50,N,008.34,K,F*3F
$GPZDA,120735.800,09,08,2017,00,00*59
$GPGST,120735.800,0.358,0.348,0.241,23.3,0.333,0.261,0.537*5E
$PSTI,030,120735.800,A,5104.2356944,N,00238.4177228,E,0.894,-2.00,-1.17,-0.03,090817,F,1.0,2.6*3A
$GPGGA,120736.000,5104.2355681,N,00238.4173830,E,5,15,0.7,0.898,M,46.200,M,,0000*5E
$GPRMC,120736.000,A,5104.2355681,N,00238.4173830,E,004.48,239.47,090817,,,F*61
$GPVTG,239.47,T,,M,004.48,N,008.30,K,F*32
$PSTI,030,120736.000,A,5104.2355681,N,00238.4173830,E,0.898,-1.98,-1.17,0.02,090817,F,1.0,2.6*11
$PSTI,032,120736.000,090817,A,F,-178791.219,62068.090,-2937.431,189281.219,289.14,,,,,*34
$GPGGA,120736.200,5104.2354431,N,00238.4170422,E,5,15,0.7,0.894,M,46.200,M,,0000*54
$GPRMC,120736.200,A,5104.2354431,N,00238.4170422,E,004.47,240.18,090817,,,F*6C
$GPVTG,240.18,T,,M,004.47,N,008.29,K,F*31
$PSTI,030,120736.200,A,5104.2354431,N,00238.4170422,E,0.894,-2.00,-1.14,-0.03,090817,F,1.0,2.6*36
$PEFR0000,120317.200,4,FFFFFFFF,0000,1,4040,100,1,2,1,0,0,0*01
$GPGGA,120736.400,5104.2353318,N,00238.4166820,E,5,15,0.7,0.895,M,46.200,M,,0000*51
$GPRMC,120736.400,A,5104.2353318,N,00238.4166820,E,004.56,243.87,090817,,,F*6D
$GPVTG,243.87,T,,M,004.56,N,008.44,K,F*3F
$PSTI,030,120736.400,A,5104.2353318,N,00238.4166820,E,0.895,-2.10,-1.03,0.01,090817,F,1.0,2.6*1B
$GPGGA,120736.600,5104.2352078,N,00238.4163069,E,5,15,0.7,0.879,M,46.200,M,,0000*55
$GPRMC,120736.600,A,5104.2352078,N,00238.4163069,E,004.81,242.32,090817,,,F*6E
$GPVTG,242.32,T,,M,004.81,N,008.91,K,F*32
$PSTI,030,120736.600,A,5104.2352078,N,00238.4163069,E,0.879,-2.19,-1.15,-0.08,090817,F,1.0,2.6*35
$GPGGA,120736.800,5104.2350708,N,00238.4159191,E,5,15,0.7,0.882,M,46.200,M,,0000*52
$GPGLL,5104.2350708,N,00238.4159191,E,120736.800,A,F*55
$GPGSA,A,3,21,26,27,16,18,10,20,08,07,,,,1.5,0.7,1.3*33
$GLGSA,A,3,70,86,76,75,69,85,,,,,,,1.5,0.7,1.3*27
$GPRMC,120736.800,A,5104.2350708,N,00238.4159191,E,005.05,240.72,090817,,,F*66
$GPVTG,240.72,T,,M,005.05,N,009.35,K,F*36
$GPZDA,120736.800,09,08,2017,00,00*5A
$GPGST,120736.800,0.491,0.477,0.331,23.3,0.457,0.358,0.737*5E
$PSTI,030,120736.800,A,5104.2350708,N,00238.4159191,E,0.882,-2.27,-1.27,0.02,090817,F,1.0,2.6*19
$GPGGA,120737.000,5104.2349324,N,00238.4155230,E,5,15,0.7,0.876,M,46.200,M,,0000*56
$GPRMC,120737.000,A,5104.2349324,N,00238.4155230,E,005.14,240.99,090817,,,F*6C
$GPVTG,240.99,T,,M,005.14,N,009.52,K,F*32
$PSTI,030,120737.000,A,5104.2349324,N,00238.4155230,E,0.876,-2.31,-1.28,-0.03,090817,F,1.0,2.6*39
$PSTI,032,120737.000,090817,A,F,-178793.250,62067.008,-2937.495,189282.766,289.14,,,,,*34
$GPGGA,120737.200,5104.2347982,N,00238.4151334,E,5,15,0.7,0.898,M,46.200,M,,0000*5D
$GPRMC,120737.200,A,5104.2347982,N,00238.4151334,E,005.05,241.28,090817,,,F*6C
$GPVTG,241.28,T,,M,005.05,N,009.36,K,F*3B
$PSTI,030,120737.200,A,5104.2347982,N,00238.4151334,E,0.898,-2.28,-1.25,0.04,090817,F,1.0,2.6*1D
$GPGGA,120737.400,5104.2346615,N,00238.4147644,E,5,15,0.7,0.899,M,46.200,M,,0000*5F
$GPRMC,120737.400,A,5104.2346615,N,00238.4147644,E,004.86,239.54,090817,,,F*61
$GPVTG,239.54,T,,M,004.86,N,009.00,K,F*30
$PSTI,030,120737.400,A,5104.2346615,N,00238.4147644,E,0.899,-2.16,-1.27,0.00,090817,F,1.0,2.6*14
$GPGGA,120737.600,5104.2345315,N,00238.4143980,E,5,15,0.7,0.898,M,46.200,M,,0000*59
$GPRMC,120737.600,A,5104.2345315,N,00238.4143980,E,004.77,240.63,090817,,,F*62
$GPVTG,240.63,T,,M,004.77,N,008.84,K,F*39
$PSTI,030,120737.600,A,5104.2345315,N,00238.4143980,E,0.898,-2.14,-1.20,-0.01,090817,F,1.0,2.6*3B
$GPGGA,120737.800,5104.2343981,N,00238.4140251,E,5,15,0.7,0.892,M,46.200,M,,0000*58
$GPGLL,5104.2343981,N,00238.4140251,E,120737.800,A,F*5E
$GPGSA,A,3,21,26,27,16,18,10,20,08,07,,,,1.5,0.7,1.3*33
$GLGSA,A,3,70,86,76,75,69,85,,,,,,,1.5,0.7,1.3*27
$GPRMC,120737.800,A,5104.2343981,N,00238.4140251,E,004.87,240.40,090817,,,F*67
$GPVTG,240.40,T,,M,004.87,N,009.02,K,F*38
$GPZDA,120737.800,09,08,2017,00,00*5B
$GPGST,120737.800,0.452,0.439,0.304,23.3,0.421,0.329,0.678*51
$PSTI,030,120737.800,A,5104.2343981,N,00238.4140251,E,0.892,-2.18,-1.24,-0.03,090817,F,1.0,2.6*30
$GPGGA,120738.000,5104.2342701,N,00238.4136263,E,5,15,0.7,0.896,M,46.200,M,,0000*5C
$GPRMC,120738.000,A,5104.2342701,N,00238.4136263,E,005.08,243.01,090817,,,F*67
$GPVTG,243.01,T,,M,005.08,N,009.41,K,F*3F
$PSTI,030,120738.000,A,5104.2342701,N,00238.4136263,E,0.896,-2.33,-1.19,0.02,090817,F,1.0,2.6*1F
$PSTI,032,120738.000,090817,A,F,-178795.453,62065.910,-2937.555,189284.500,289.14,,,,,*33
$GPGGA,120738.200,5104.2341406,N,00238.4132305,E,5,15,0.7,0.889,M,46.200,M,,0000*52
$GPRMC,120738.200,A,5104.2341406,N,00238.4132305,E,005.04,242.68,090817,,,F*65
$GPVTG,242.68,T,,M,005.04,N,009.34,K,F*3F
$PSTI,030,120738.200,A,5104.2341406,N,00238.4132305,E,0.889,-2.30,-1.19,0.04,090817,F,1.0,2.7*15
$GPGGA,120738.400,5104.2340029,N,00238.4128321,E,5,15,0.7,0.897,M,46.200,M,,0000*5E
$GPRMC,120738.400,A,5104.2340029,N,00238.4128321,E,005.16,241.24,090817,,,F*6E
$GPVTG,241.24,T,,M,005.16,N,009.56,K,F*33
$PSTI,030,120738.400,A,5104.2340029,N,00238.4128321,E,0.897,-2.33,-1.28,0.04,090817,F,1.0,2.7*18
$PEFR0000,120317.200,4,FFFFFFFF,0000,1,4040,100,1,2,1,0,0,0*01
$GPGGA,120738.600,5104.2338681,N,00238.4124484,E,5,15,0.7,0.903,M,46.200,M,,0000*5F
$GPRMC,120738.600,A,5104.2338681,N,00238.4124484,E,004.99,240.86,090817,,,F*6C
$GPVTG,240.86,T,,M,004.99,N,009.24,K,F*39
$PSTI,030,120738.600,A,5104.2338681,N,00238.4124484,E,0.903,-2.24,-1.25,0.03,090817,F,1.0,2.7*15
$GPGGA,120738.800,5104.2337371,N,00238.4120563,E,5,15,0.7,0.912,M,46.200,M,,0000*58
$GPGLL,5104.2337371,N,00238.4120563,E,120738.800,A,F*57
$GPGSA,A,3,21,26,27,16,18,10,20,08,07,,,,1.5,0.7,1.3*33
$GLGSA,A,3,70,86,76,75,69,85,,,,,,,1.5,0.7,1.3*27
$GPGSV,4,1,14,04,81,303,47,16,69,205,46,27,65,293,49,21,49,064,45*74
$GPGSV,4,2,14,18,45,112,44,26,43,173,46,49,32,177,38,10,32,150,43*71
$GPGSV,4,3,14,08,28,285,40,07,17,316,43,20,16,041,35,15,05,063,26*76
$GPGSV,4,4,14,13,03,032,29,30,01,344,*76
$GLGSV,3,1,09,85,64,038,47,76,48,280,44,86,46,282,46,75,31,213,45*69
$GLGSV,3,2,09,69,30,050,38,70,26,115,37,84,15,072,30,77,15,338,34*68
$GLGSV,3,3,09,68,05,006,37*55
$GPRMC,120738.800,A,5104.2337371,N,00238.4120563,E,005.04,242.07,090817,,,F*65
$GPVTG,242.07,T,,M,005.04,N,009.33,K,F*31
$GPZDA,120738.800,09,08,2017,00,00*54
$GPGST,120738.800,0.525,0.509,0.353,23.3,0.488,0.382,0.787*5C
$PSTI,030,120738.800,A,5104.2337371,N,00238.4120563,E,0.912,-2.29,-1.21,0.04,090817,F,1.0,2.7*1C
$GPGGA,120739.000,5104.2336034,N,00238.4116716,E,5,15,0.7,0.904,M,46.200,M,,0000*50
$GPRMC,120739.000,A,5104.2336034,N,00238.4116716,E,004.99,241.12,090817,,,F*68
$GPVTG,241.12,T,,M,004.99,N,009.24,K,F*35
$PSTI,030,120739.000,A,5104.2336034,N,00238.4116716,E,0.904,-2.25,-1.24,-0.04,090817,F,1.0,2.7*30
$PSTI,032,120739.000,090817,A,F,-178797.719,62064.754,-2937.616,189286.250,289.14,,,,,*36
$GPGGA,120739.200,5104.2334671,N,00238.4112768,E,5,15,0.7,0.921,M,46.200,M,,0000*5D
$GPRMC,120739.200,A,5104.2334671,N,00238.4112768,E,005.07,241.62,090817,,,F*63
$GPVTG,241.62,T,,M,005.07,N,009.38,K,F*39
$PSTI,030,120739.200,A,5104.2334671,N,00238.4112768,E,0.921,-2.29,-1.24,0.08,090817,F,1.0,2.7*10
$GPGGA,120739.400,5104.2333235,N,00238.4108977,E,5,15,0.7,0.924,M,46.200,M,,0000*56
$GPRMC,120739.400,A,5104.2333235,N,00238.4108977,E,005.02,238.99,090817,,,F*62
$GPVTG,238.99,T,,M,005.02,N,009.30,K,F*3E
$PSTI,030,120739.400,A,5104.2333235,N,00238.4108977,E,0.924,-2.21,-1.33,0.01,090817,F,1.0,2.7*1C
$GPGGA,120739.600,5104.2331857,N,00238.4104919,E,5,15,0.7,0.929,M,46.200,M,,0000*51
$GPRMC,120739.600,A,5104.2331857,N,00238.4104919,E,005.23,241.66,090817,,,F*65
$GPVTG,241.66,T,,M,005.23,N,009.69,K,F*3F
$PSTI,030,120739.600,A,5104.2331857,N,00238.4104919,E,0.929,-2.37,-1.28,0.03,090817,F,1.0,2.7*14
$GPGGA,120739.800,5104.2330340,N,00238.4100874,E,5,15,0.7,0.925,M,46.200,M,,0000*51
$GPGLL,5104.2330340,N,00238.4100874,E,120739.800,A,F*5A
$GPGSA,A,3,21,26,27,16,18,10,20,08,07,,,,1.5,0.7,1.3*33
$GLGSA,A,3,70,86,76,75,69,85,,,,,,,1.5,0.7,1.3*27
$GPRMC,120739.800,A,5104.2330340,N,00238.4100874,E,005.35,239.24,090817,,,F*67
$GPVTG,239.24,T,,M,005.35,N,009.90,K,F*37
$GPZDA,120739.800,09,08,2017,00,00*55
$GPGST,120739.800,0.793,0.769,0.534,23.3,0.737,0.577,1.190*5B
$PSTI,030,120739.800,A,5104.2330340,N,00238.4100874,E,0.925,-2.36,-1.41,-0.02,090817,F,1.0,2.7*36
$GPGGA,120740.000,5104.2328786,N,00238.4096648,E,5,15,0.7,0.928,M,46.200,M,,0000*52
$GPRMC,120740.000,A,5104.2328786,N,00238.4096648,E,005.56,239.74,090817,,,F*69
$GPVTG,239.74,T,,M,005.56,N,010.29,K,F*3D
$PSTI,030,120740.000,A,5104.2328786,N,00238.4096648,E,0.928,-2.47,-1.44,0.01,090817,F,1.0,2.7*18
$PSTI,032,120740.000,090817,A,F,-178800.047,62063.594,-2937.646,189288.078,289.14,,,,,*3F
$GPGGA,120740.200,5104.2327412,N,00238.4092095,E,5,15,0.7,0.931,M,46.200,M,,0000*5B
$GPRMC,120740.200,A,5104.2327412,N,00238.4092095,E,005.69,244.88,090817,,,F*6D
$GPVTG,244.88,T,,M,005.69,N,010.55,K,F*33
$PSTI,030,120740.200,A,5104.2327412,N,00238.4092095,E,0.931,-2.65,-1.24,0.01,090817,F,1.0,2.7*17
$GPGGA,120740.400,5104.2325909,N,00238.4087728,E,5,15,0.7,0.940,M,46.200,M,,0000*5B
$GPRMC,120740.400,A,5104.2325909,N,00238.4087728,E,005.65,241.35,090817,,,F*64
$GPVTG,241.35,T,,M,005.65,N,010.46,K,F*3E
$PSTI,030,120740.400,A,5104.2325909,N,00238.4087728,E,0.940,-2.55,-1.39,0.04,090817,F,1.0,2.7*1D
$PEFR0000,120317.200,4,FFFFFFFF,0000,1,4040,100,1,2,1,0,0,0*01
$GPGGA,120740.600,5104.2324228,N,00238.4083433,E,5,15,0.7,0.934,M,46.200,M,,0000*5E
$GPRMC,120740.600,A,5104.2324228,N,00238.4083433,E,005.74,238.15,090817,,,F*6E
$GPVTG,238.15,T,,M,005.74,N,010.63,K,F*35
$PSTI,030,120740.600,A,5104.2324228,N,00238.4083433,E,0.934,-2.51,-1.56,-0.03,090817,F,1.0,2.7*3F
$GPGGA,120740.800,5104.2322790,N,00238.4078952,E,5,15,0.7,0.950,M,46.200,M,,0000*5C
$GPGLL,5104.2322790,N,00238.4078952,E,120740.800,A,F*55
$GPGSA,A,3,21,26,27,16,18,10,20,08,07,,,,1.5,0.7,1.3*33
$GLGSA,A,3,70,86,76,75,69,85,,,,,,,1.5,0.7,1.3*27
$GPRMC,120740.800,A,5104.2322790,N,00238.4078952,E,005.71,243.01,090817,,,F*62
$GPVTG,243.01,T,,M,005.71,N,010.58,K,F*31
$GPZDA,120740.800,09,08,2017,00,00*5B
$GPGST,120740.800,0.934,0.906,0.629,23.3,0.869,0.680,1.403*5E
$PSTI,030,120740.800,A,5104.2322790,N,00238.4078952,E,0.950,-2.62,-1.33,0.08,090817,F,1.0,2.7*18
$GPGGA,120741.000,5104.2321288,N,00238.4074581,E,5,15,0.7,0.945,M,46.200,M,,0000*50
$GPRMC,120741.000,A,5104.2321288,N,00238.4074581,E,005.65,241.40,090817,,,F*68
$GPVTG,241.40,T,,M,005.65,N,010.47,K,F*3D
$PSTI,030,120741.000,A,5104.2321288,N,00238.4074581,E,0.945,-2.55,-1.39,-0.03,090817,F,1.0,2.7*3C
$PSTI,032,120741.000,090817,A,F,-178802.422,62062.332,-2937.675,189289.906,289.14,,,,,*31
$GPGGA,120741.200,5104.2319808,N,00238.4070386,E,5,15,0.7,0.932,M,46.200,M,,0000*5E
$GPRMC,120741.200,A,5104.2319808,N,00238.4070386,E,005.50,240.89,090817,,,F*64
$GPVTG,240.89,T,,M,005.50,N,010.19,K,F*34
$PSTI,030,120741.200,A,5104.2319808,N,00238.4070386,E,0.932,-2.47,-1.38,-0.00,090817,F,1.0,2.7*33
$GPGGA,120741.400,5104.2318283,N,00238.4065956,E,5,15,0.7,0.923,M,46.200,M,,0000*53
$GPRMC,120741.400,A,5104.2318283,N,00238.4065956,E,005.73,241.36,090817,,,F*6D
$GPVTG,241.36,T,,M,005.73,N,010.61,K,F*3F
$PSTI,030,120741.400,A,5104.2318283,N,00238.4065956,E,0.923,-2.59,-1.41,-0.04,090817,F,1.0,2.7*3B
$GPGGA,120741.600,5104.2316736,N,00238.4061567,E,5,15,0.7,0.933,M,46.200,M,,0000*5F
$GPRMC,120741.600,A,5104.2316736,N,00238.4061567,E,005.71,240.77,090817,,,F*66
$GPVTG,240.77,T,,M,005.71,N,010.57,K,F*3C
$PSTI,030,120741.600,A,5104.2316736,N,00238.4061567,E,0.933,-2.56,-1.43,0.05,090817,F,1.0,2.7*16
$GPGGA,120741.800,5104.2315173,N,00238.4057113,E,5,15,0.7,0.932,M,46.200,M,,0000*56
$GPGLL,5104.2315173,N,00238.4057113,E,120741.800,A,F*5B
$GPGSA,A,3,21,26,27,16,18,10,20,08,07,,,,1.5,0.7,1.3*33
$GLGSA,A,3,70,86,76,75,69,85,,,,,,,1.5,0.7,1.3*27
$GPGSV,4,1,14,04,81,303,47,16,69,205,47,27,65,293,49,21,49,064,45*75
$GPGSV,4,2,14,18,45,112,44,26,43,173,44,49,32,177,38,10,32,150,43*73
$GPGSV,4,3,14,08,28,285,41,07,17,316,43,20,16,041,37,15,05,063,13*73
$GPGSV,4,4,14,13,03,032,29,30,01,344,*76
$GLGSV,3,1,09,85,64,038,47,76,48,280,44,86,46,282,45,75,31,213,45*6A
$GLGSV,3,2,09,69,30,050,37,70,26,115,36,84,15,072,32,77,15,338,34*64
$GLGSV,3,3,09,68,05,006,36*54
$GPRMC,120741.800,A,5104.2315173,N,00238.4057113,E,005.79,240.89,090817,,,F*67
$GPVTG,240.89,T,,M,005.79,N,010.72,K,F*32
$GPZDA,120741.800,09,08,2017,00,00*5A
$GPGST,120741.800,0.756,0.733,0.509,23.3,0.703,0.550,1.136*52
$PSTI,030,120741.800,A,5104.2315173,N,00238.4057113,E,0.932,-2.60,-1.45,-0.01,090817,F,1.0,2.7*35
$GPGGA,120742.000,5104.2313578,N,00238.4052960,E,5,15,0.7,0.943,M,46.200,M,,0000*5B
$GPRMC,120742.000,A,5104.2313578,N,00238.4052960,E,005.52,238.64,090817,,,F*69
$GPVTG,238.64,T,,M,005.52,N,010.23,K,F*33
$PSTI,030,120742.000,A,5104.2313578,N,00238.4052960,E,0.943,-2.43,-1.48,0.06,090817,F,1.0,2.7*1E
$PSTI,032,120742.000,090817,A,F,-178805.047,62061.039,-2937.733,189291.969,289.14,,,,,*3A
$GPGGA,120742.200,5104.2312106,N,00238.4048756,E,5,15,0.7,0.928,M,46.200,M,,0000*58
$GPRMC,120742.200,A,5104.2312106,N,00238.4048756,E,005.50,241.06,090817,,,F*6F
$GPVTG,241.06,T,,M,005.50,N,010.19,K,F*32
$PSTI,030,120742.200,A,5104.2312106,N,00238.4048756,E,0.928,-2.48,-1.37,-0.07,090817,F,1.0,2.7*32
$GPGGA,120742.400,5104.2310532,N,00238.4044548,E,5,15,0.7,0.938,M,46.200,M,,0000*5F
$GPRMC,120742.400,A,5104.2310532,N,00238.4044548,E,005.56,239.31,090817,,,F*64
$GPVTG,239.31,T,,M,005.56,N,010.29,K,F*3C
$PSTI,030,120742.400,A,5104.2310532,N,00238.4044548,E,0.938,-2.46,-1.46,0.05,090817,F,1.0,2.7*12
$GPGGA,120742.600,5104.2308971,N,00238.4040221,E,5,15,0.7,0.932,M,46.200,M,,0000*59
$GPRMC,120742.600,A,5104.2308971,N,00238.4040221,E,005.66,240.21,090817,,,F*64
$GPVTG,240.21,T,,M,005.66,N,010.48,K,F*37
$PSTI,030,120742.600,A,5104.2308971,N,00238.4040221,E,0.932,-2.53,-1.45,-0.03,090817,F,1.0,2.7*38
$PEFR0000,120317.200,4,FFFFFFFF,0000,1,4040,100,1,2,1,0,0,0*01
$GPGGA,120742.800,5104.2307387,N,00238.4035902,E,5,15,0.7,0.948,M,46.200,M,,0000*5E
$GPGLL,5104.2307387,N,00238.4035902,E,120742.800,A,F*5E
$GPGSA,A,3,21,26,27,16,18,10,20,08,07,,,,1.5,0.7,1.3*33
$GLGSA,A,3,70,86,76,75,69,85,,,,,,,1.5,0.7,1.3*27
$GPRMC,120742.800,A,5104.2307387,N,00238.4035902,E,005.68,239.79,090817,,,F*63
$GPVTG,239.79,T,,M,005.68,N,010.51,K,F*32
$GPZDA,120742.800,09,08,2017,00,00*59
$GPGST,120742.800,0.772,0.748,0.520,23.3,0.717,0.562,1.159*5D
$PSTI,030,120742.800,A,5104.2307387,N,00238.4035902,E,0.948,-2.52,-1.47,0.08,090817,F,1.0,2.7*1A
$GPGGA,120743.000,5104.2305908,N,00238.4031586,E,5,15,0.7,0.948,M,46.200,M,,0000*5C
$GPRMC,120743.000,A,5104.2305908,N,00238.4031586,E,005.58,241.46,090817,,,F*61
$GPVTG,241.46,T,,M,005.58,N,010.33,K,F*36
$PSTI,030,120743.000,A,5104.2305908,N,00238.4031586,E,0.948,-2.52,-1.37,0.00,090817,F,1.0,2.7*17
$PSTI,032,120743.000,090817,A,F,-178807.625,62059.695,-2937.782,189293.953,289.14,,,,,*31
$GPGGA,120743.200,5104.2304428,N,00238.4027303,E,5,15,0.7,0.960,M,46.200,M,,0000*56
$GPRMC,120743.200,A,5104.2304428,N,00238.4027303,E,005.52,241.74,090817,,,F*6A
$GPVTG,241.74,T,,M,005.52,N,010.22,K,F*3D
$PSTI,030,120743.200,A,5104.2304428,N,00238.4027303,E,0.960,-2.50,-1.34,0.03,090817,F,1.0,2.7*1F
$GPGGA,120743.400,5104.2302880,N,00238.4023060,E,5,15,0.7,0.958,M,46.200,M,,0000*51
$GPRMC,120743.400,A,5104.2302880,N,00238.4023060,E,005.57,239.92,090817,,,F*64
$GPVTG,239.92,T,,M,005.57,N,010.31,K,F*3D
$PSTI,030,120743.400,A,5104.2302880,N,00238.4023060,E,0.958,-2.48,-1.44,-0.01,090817,F,1.0,2.7*39
$GPGGA,120743.600,5104.2301372,N,00238.4018650,E,5,15,0.7,0.963,M,46.200,M,,0000*53
$GPRMC,120743.600,A,5104.2301372,N,00238.4018650,E,005.70,241.50,090817,,,F*6A
$GPVTG,241.50,T,,M,005.70,N,010.55,K,F*3B
$PSTI,030,120743.600,A,5104.2301372,N,00238.4018650,E,0.963,-2.58,-1.40,0.02,090817,F,1.0,2.7*10
$GPGGA,120743.800,5104.2299893,N,00238.4014222,E,5,15,0.7,0.966,M,46.200,M,,0000*51
$GPGLL,5104.2299893,N,00238.4014222,E,120743.800,A,F*5D
$GPGSA,A,3,21,26,27,16,18,10,20,08,07,,,,1.5,0.7,1.3*33
$GLGSA,A,3,70,86,76,75,69,85,,,,,,,1.5,0.7,1.3*27
$GPRMC,120743.800,A,5104.2299893,N,00238.4014222,E,005.69,242.08,090817,,,F*6B
$GPVTG,242.08,T,,M,005.69,N,010.54,K,F*3C
$GPZDA,120743.800,09,08,2017,00,00*58
$GPGST,120743.800,0.582,0.564,0.392,23.3,0.541,0.423,0.874*50
$PSTI,030,120743.800,A,5104.2299893,N,00238.4014222,E,0.966,-2.59,-1.37,0.01,090817,F,1.0,2.7*10
$GPGGA,120744.000,5104.2298363,N,00238.4009914,E,5,15,0.7,0.971,M,46.200,M,,0000*5F
$GPRMC,120744.000,A,5104.2298363,N,00238.4009914,E,005.62,240.59,090817,,,F*6E
$GPVTG,240.59,T,,M,005.62,N,010.40,K,F*34
$PSTI,030,120744.000,A,5104.2298363,N,00238.4009914,E,0.971,-2.52,-1.42,0.03,090817,F,1.0,2.7*15
$PSTI,032,120744.000,090817,A,F,-178810.172,62058.355,-2937.831,189295.922,289.14,,,,,*3A
$GPGGA,120744.200,5104.2296824,N,00238.4005542,E,5,15,0.7,0.954,M,46.200,M,,0000*5F
$GPRMC,120744.200,A,5104.2296824,N,00238.4005542,E,005.66,240.54,090817,,,F*60
$GPVTG,240.54,T,,M,005.66,N,010.49,K,F*34
$PSTI,030,120744.200,A,5104.2296824,N,00238.4005542,E,0.954,-2.54,-1.43,-0.03,090817,F,1.0,2.7*3F
$GPGGA,120744.400,5104.2295445,N,00238.4001165,E,5,15,0.7,0.963,M,46.200,M,,0000*50
$GPRMC,120744.400,A,5104.2295445,N,00238.4001165,E,005.56,243.43,090817,,,F*6D
$GPVTG,243.43,T,,M,005.56,N,010.29,K,F*34
$PSTI,030,120744.400,A,5104.2295445,N,00238.4001165,E,0.963,-2.56,-1.28,0.05,090817,F,1.0,2.7*14
$GPGGA,120744.600,5104.2294011,N,00238.3996749,E,5,15,0.7,0.963,M,46.200,M,,0000*5E
$GPRMC,120744.600,A,5104.2294011,N,00238.3996749,E,005.64,242.72,090817,,,F*61
$GPVTG,242.72,T,,M,005.64,N,010.45,K,F*3C
$PSTI,030,120744.600,A,5104.2294011,N,00238.3996749,E,0.963,-2.58,-1.33,-0.00,090817,F,1.0,2.7*36
$GPGSV,4,3,14,08,28,285,40,07,17,316,43,20,16,041,37,15,05,063,20*72
$GPGSV,4,4,14,13,03,032,30,30,01,344,*7E
$GLGSV,3,1,09,85,64,038,47,76,48,280,44,86,46,282,45,75,31,213,45*6A
$GLGSV,3,2,09,69,30,050,38,70,26,115,36,84,15,072,32,77,15,338,34*6B
$GLGSV,3,3,09,68,05,006,36*54
$GPRMC,120744.800,A,5104.2292584,N,00238.3992394,E,005.57,242.54,090817,,,F*64
$GPVTG,242.54,T,,M,005.57,N,010.32,K,F*38
$GPZDA,120744.800,09,08,2017,00,00*5F
$GPGST,120744.800,0.640,0.620,0.431,23.3,0.594,0.465,0.961*58
$PSTI,030,120744.800,A,5104.2292584,N,00238.3992394,E,0.965,-2.54,-1.32,0.01,090817,F,1.0,2.7*10
$GPGGA,120745.000,5104.2291166,N,00238.3987911,E,5,15,0.7,0.965,M,46.200,M,,0000*58
$GPRMC,120745.000,A,5104.2291166,N,00238.3987911,E,005.70,243.34,090817,,,F*67
$GPVTG,243.34,T,,M,005.70,N,010.55,K,F*3B
$PSTI,030,120745.000,A,5104.2291166,N,00238.3987911,E,0.965,-2.62,-1.31,0.00,090817,F,1.0,2.7*16
$PSTI,032,120745.000,090817,A,F,-178812.750,62057.051,-2937.884,189297.937,289.14,,,,,*3F
$GPGGA,120745.200,5104.2289698,N,00238.3983513,E,5,15,0.7,0.972,M,46.200,M,,0000*59
$GPRMC,120745.200,A,5104.2289698,N,00238.3983513,E,005.62,242.67,090817,,,F*64
$GPVTG,242.67,T,,M,005.62,N,010.41,K,F*3A
$PSTI,030,120745.200,A,5104.2289698,N,00238.3983513,E,0.972,-2.57,-1.33,0.02,090817,F,1.0,2.7*11
$GPGGA,120745.400,5104.2288238,N,00238.3979119,E,5,15,0.7,0.985,M,46.200,M,,0000*53
$GPRMC,120745.400,A,5104.2288238,N,00238.3979119,E,005.64,242.18,090817,,,F*68
$GPVTG,242.18,T,,M,005.64,N,010.45,K,F*30
$PSTI,030,120745.400,A,5104.2288238,N,00238.3979119,E,0.985,-2.57,-1.35,0.06,090817,F,1.0,2.7*19
$GPGGA,120745.600,5104.2286742,N,00238.3974855,E,5,15,0.7,0.972,M,46.200,M,,0000*53
$GPRMC,120745.600,A,5104.2286742,N,00238.3974855,E,005.54,240.90,090817,,,F*61
$GPVTG,240.90,T,,M,005.54,N,010.26,K,F*34
$PSTI,030,120745.600,A,5104.2286742,N,00238.3974855,E,0.972,-2.49,-1.39,-0.06,090817,F,1.0,2.7*37
$GPGGA,120745.800,5104.2285297,N,00238.3970471,E,5,15,0.7,0.976,M,46.200,M,,0000*59
$GPGLL,5104.2285297,N,00238.3970471,E,120745.800,A,F*54
$GPGSA,A,3,21,26,27,16,18,10,20,08,07,,,,1.5,0.7,1.3*33
$GLGSA,A,3,70,86,76,75,69,85,,,,,,,1.5,0.7,1.3*27
$GPRMC,120745.800,A,5104.2285297,N,00238.3970471,E,005.62,242.39,090817,,,F*6B
$GPVTG,242.39,T,,M,005.62,N,010.40,K,F*30
$GPZDA,120745.800,09,08,2017,00,00*5E
$GPGST,120745.800,0.625,0.606,0.421,23.3,0.581,0.455,0.940*5B
$PSTI,030,120745.800,A,5104.2285297,N,00238.3970471,E,0.976,-2.56,-1.34,0.02,090817,F,1.0,2.7*17
$GPGGA,120746.000,5104.2283805,N,00238.3965981,E,5,15,0.7,0.971,M,46.200,M,,0000*54
$GPRMC,120746.000,A,5104.2283805,N,00238.3965981,E,005.76,242.19,090817,,,F*66
$GPVTG,242.19,T,,M,005.76,N,010.68,K,F*3D
$PSTI,030,120746.000,A,5104.2283805,N,00238.3965981,E,0.971,-2.62,-1.38,-0.03,090817,F,1.0,2.7*3D
$PSTI,032,120746.000,090817,A,F,-178815.359,62055.797,-2937.935,189299.984,289.14,,,,,*34
$GPGGA,120746.200,5104.2282292,N,00238.3961757,E,5,15,0.7,0.979,M,46.200,M,,0000*5A
$GPRMC,120746.200,A,5104.2282292,N,00238.3961757,E,005.57,240.37,090817,,,F*6D
$GPVTG,240.37,T,,M,005.57,N,010.31,K,F*3C
